[{"id":"104959","name":"Al-Haffah District","state_id":2938,"state_code":"LA","country_id":215,"country_code":"SY","latitude":"35.59687000","longitude":"36.11198000"},{"id":"105071","name":"Slinfah","state_id":2938,"state_code":"LA","country_id":215,"country_code":"SY","latitude":"35.59822000","longitude":"36.18770000"},{"id":"105007","name":"Jablah","state_id":2938,"state_code":"LA","country_id":215,"country_code":"SY","latitude":"35.36211000","longitude":"35.92759000"},{"id":"105008","name":"Jableh District","state_id":2938,"state_code":"LA","country_id":215,"country_code":"SY","latitude":"35.29048000","longitude":"36.04490000"},{"id":"105021","name":"Kassab","state_id":2938,"state_code":"LA","country_id":215,"country_code":"SY","latitude":"35.92639000","longitude":"35.98970000"},{"id":"105024","name":"Latakia","state_id":2938,"state_code":"LA","country_id":215,"country_code":"SY","latitude":"35.53168000","longitude":"35.79011000"},{"id":"105025","name":"Latakia District","state_id":2938,"state_code":"LA","country_id":215,"country_code":"SY","latitude":"35.72426000","longitude":"35.94150000"},{"id":"105039","name":"Qardaha District","state_id":2938,"state_code":"LA","country_id":215,"country_code":"SY","latitude":"35.39593000","longitude":"36.08603000"}]