[{"id":"5","name":"Encamp","state_id":487,"state_code":"03","country_id":6,"country_code":"AD","latitude":"42.53474000","longitude":"1.58014000"},{"id":"7","name":"Pas de la Casa","state_id":487,"state_code":"03","country_id":6,"country_code":"AD","latitude":"42.54277000","longitude":"1.73361000"},{"id":"1","name":"Andorra la Vella","state_id":488,"state_code":"07","country_id":6,"country_code":"AD","latitude":"42.50779000","longitude":"1.52109000"},{"id":"3","name":"Canillo","state_id":489,"state_code":"02","country_id":6,"country_code":"AD","latitude":"42.56760000","longitude":"1.59756000"},{"id":"4","name":"El Tarter","state_id":489,"state_code":"02","country_id":6,"country_code":"AD","latitude":"42.57952000","longitude":"1.65362000"},{"id":"8","name":"Sant Juli\u00e0 de L\u00f2ria","state_id":490,"state_code":"06","country_id":6,"country_code":"AD","latitude":"42.46372000","longitude":"1.49129000"},{"id":"6","name":"Ordino","state_id":491,"state_code":"05","country_id":6,"country_code":"AD","latitude":"42.55623000","longitude":"1.53319000"},{"id":"10","name":"les Escaldes","state_id":492,"state_code":"08","country_id":6,"country_code":"AD","latitude":"42.50729000","longitude":"1.53414000"},{"id":"2","name":"Arinsal","state_id":493,"state_code":"04","country_id":6,"country_code":"AD","latitude":"42.57205000","longitude":"1.48453000"},{"id":"9","name":"la Massana","state_id":493,"state_code":"04","country_id":6,"country_code":"AD","latitude":"42.54499000","longitude":"1.51483000"}]