[{"id":"109353","name":"Baryshivka","state_id":4671,"state_code":"32","country_id":230,"country_code":"UA","latitude":"50.36098000","longitude":"31.32173000"},{"id":"109354","name":"Baryshivs\u2019kyy Rayon","state_id":4671,"state_code":"32","country_id":230,"country_code":"UA","latitude":"50.36919000","longitude":"31.34896000"},{"id":"109393","name":"Bila Tserkva","state_id":4671,"state_code":"32","country_id":230,"country_code":"UA","latitude":"49.80939000","longitude":"30.11209000"},{"id":"109394","name":"Bila Tserkva Raion","state_id":4671,"state_code":"32","country_id":230,"country_code":"UA","latitude":"49.75000000","longitude":"30.08333000"},{"id":"109422","name":"Bohuslav","state_id":4671,"state_code":"32","country_id":230,"country_code":"UA","latitude":"49.54939000","longitude":"30.87440000"},{"id":"109426","name":"Borispol\u2019skiy Rayon","state_id":4671,"state_code":"32","country_id":230,"country_code":"UA","latitude":"50.33450000","longitude":"31.02470000"},{"id":"109427","name":"Borodianka","state_id":4671,"state_code":"32","country_id":230,"country_code":"UA","latitude":"50.64484000","longitude":"29.92010000"},{"id":"109429","name":"Borodyans\u2019kyy Rayon","state_id":4671,"state_code":"32","country_id":230,"country_code":"UA","latitude":"50.65889000","longitude":"29.88556000"},{"id":"109431","name":"Borova","state_id":4671,"state_code":"32","country_id":230,"country_code":"UA","latitude":"50.17625000","longitude":"30.10429000"},{"id":"109436","name":"Boryspil\u2019","state_id":4671,"state_code":"32","country_id":230,"country_code":"UA","latitude":"50.35269000","longitude":"30.95501000"},{"id":"109440","name":"Boyarka","state_id":4671,"state_code":"32","country_id":230,"country_code":"UA","latitude":"50.31911000","longitude":"30.29728000"},{"id":"109449","name":"Brovary","state_id":4671,"state_code":"32","country_id":230,"country_code":"UA","latitude":"50.51809000","longitude":"30.80671000"},{"id":"109450","name":"Brovary Raion","state_id":4671,"state_code":"32","country_id":230,"country_code":"UA","latitude":"50.58333000","longitude":"31.00000000"},{"id":"109456","name":"Bucha","state_id":4671,"state_code":"32","country_id":230,"country_code":"UA","latitude":"50.54345000","longitude":"30.21201000"},{"id":"109468","name":"Chabany","state_id":4671,"state_code":"32","country_id":230,"country_code":"UA","latitude":"50.34071000","longitude":"30.42356000"},{"id":"109494","name":"Chernyakhivka","state_id":4671,"state_code":"32","country_id":230,"country_code":"UA","latitude":"50.21882000","longitude":"31.93082000"},{"id":"109591","name":"Dymer","state_id":4671,"state_code":"32","country_id":230,"country_code":"UA","latitude":"50.78647000","longitude":"30.30260000"},{"id":"109597","name":"Fastiv","state_id":4671,"state_code":"32","country_id":230,"country_code":"UA","latitude":"50.07670000","longitude":"29.91770000"},{"id":"109598","name":"Fastiv Raion","state_id":4671,"state_code":"32","country_id":230,"country_code":"UA","latitude":"50.08333000","longitude":"30.00000000"},{"id":"109631","name":"Hlevakha","state_id":4671,"state_code":"32","country_id":230,"country_code":"UA","latitude":"50.27423000","longitude":"30.32706000"},{"id":"109635","name":"Hnidyn","state_id":4671,"state_code":"32","country_id":230,"country_code":"UA","latitude":"50.32899000","longitude":"30.71059000"},{"id":"109639","name":"Horenka","state_id":4671,"state_code":"32","country_id":230,"country_code":"UA","latitude":"50.55731000","longitude":"30.33217000"},{"id":"109655","name":"Hostomel","state_id":4671,"state_code":"32","country_id":230,"country_code":"UA","latitude":"50.56841000","longitude":"30.26510000"},{"id":"109672","name":"Irpin","state_id":4671,"state_code":"32","country_id":230,"country_code":"UA","latitude":"50.52175000","longitude":"30.25055000"},{"id":"109673","name":"Irpins\u2019ka Mis\u2019krada","state_id":4671,"state_code":"32","country_id":230,"country_code":"UA","latitude":"50.51585000","longitude":"30.24099000"},{"id":"109680","name":"Ivankiv","state_id":4671,"state_code":"32","country_id":230,"country_code":"UA","latitude":"50.93865000","longitude":"29.89426000"},{"id":"109681","name":"Ivankiv Raion","state_id":4671,"state_code":"32","country_id":230,"country_code":"UA","latitude":"51.00000000","longitude":"29.91667000"},{"id":"109695","name":"Kaharlyk","state_id":4671,"state_code":"32","country_id":230,"country_code":"UA","latitude":"49.86233000","longitude":"30.82815000"},{"id":"109696","name":"Kaharlyk Raion","state_id":4671,"state_code":"32","country_id":230,"country_code":"UA","latitude":"49.91667000","longitude":"30.75000000"},{"id":"109705","name":"Kalynove","state_id":4671,"state_code":"32","country_id":230,"country_code":"UA","latitude":"49.38179000","longitude":"30.45137000"},{"id":"109716","name":"Karapyshi","state_id":4671,"state_code":"32","country_id":230,"country_code":"UA","latitude":"49.64237000","longitude":"30.79002000"},{"id":"109720","name":"Katyuzhanka","state_id":4671,"state_code":"32","country_id":230,"country_code":"UA","latitude":"50.80595000","longitude":"30.13763000"},{"id":"109739","name":"Khotiv","state_id":4671,"state_code":"32","country_id":230,"country_code":"UA","latitude":"50.33069000","longitude":"30.46836000"},{"id":"109749","name":"Kirove","state_id":4671,"state_code":"32","country_id":230,"country_code":"UA","latitude":"50.36890000","longitude":"31.12066000"},{"id":"109758","name":"Klavdiyevo-Tarasove","state_id":4671,"state_code":"32","country_id":230,"country_code":"UA","latitude":"50.58416000","longitude":"30.01134000"},{"id":"109764","name":"Knyazhichi","state_id":4671,"state_code":"32","country_id":230,"country_code":"UA","latitude":"50.46275000","longitude":"30.78369000"},{"id":"109768","name":"Kodra","state_id":4671,"state_code":"32","country_id":230,"country_code":"UA","latitude":"50.59488000","longitude":"29.55873000"},{"id":"109797","name":"Korniyivka","state_id":4671,"state_code":"32","country_id":230,"country_code":"UA","latitude":"50.41661000","longitude":"31.46261000"},{"id":"109825","name":"Kozhanka","state_id":4671,"state_code":"32","country_id":230,"country_code":"UA","latitude":"49.97231000","longitude":"29.76424000"},{"id":"109855","name":"Krasyatychi","state_id":4671,"state_code":"32","country_id":230,"country_code":"UA","latitude":"51.07636000","longitude":"29.64899000"},{"id":"109865","name":"Kriukivschina","state_id":4671,"state_code":"32","country_id":230,"country_code":"UA","latitude":"50.37153000","longitude":"30.36861000"},{"id":"109874","name":"Kryva Hora","state_id":4671,"state_code":"32","country_id":230,"country_code":"UA","latitude":"51.38495000","longitude":"30.19978000"},{"id":"109900","name":"Kyyevo-Svyatoshyns\u2019kyy Rayon","state_id":4671,"state_code":"32","country_id":230,"country_code":"UA","latitude":"50.38530000","longitude":"30.23129000"},{"id":"109925","name":"Liutizh","state_id":4671,"state_code":"32","country_id":230,"country_code":"UA","latitude":"50.68350000","longitude":"30.39324000"},{"id":"109972","name":"Makariv","state_id":4671,"state_code":"32","country_id":230,"country_code":"UA","latitude":"50.46408000","longitude":"29.81128000"},{"id":"109973","name":"Makariv Raion","state_id":4671,"state_code":"32","country_id":230,"country_code":"UA","latitude":"50.50000000","longitude":"29.75000000"},{"id":"110035","name":"Mirovka","state_id":4671,"state_code":"32","country_id":230,"country_code":"UA","latitude":"49.93126000","longitude":"30.62309000"},{"id":"110057","name":"Motovylivka","state_id":4671,"state_code":"32","country_id":230,"country_code":"UA","latitude":"50.15821000","longitude":"30.07421000"},{"id":"110076","name":"Myronivka","state_id":4671,"state_code":"32","country_id":230,"country_code":"UA","latitude":"49.66007000","longitude":"30.98225000"},{"id":"110116","name":"Novi Petrivtsi","state_id":4671,"state_code":"32","country_id":230,"country_code":"UA","latitude":"50.62754000","longitude":"30.44310000"},{"id":"110173","name":"Obukhiv","state_id":4671,"state_code":"32","country_id":230,"country_code":"UA","latitude":"50.10689000","longitude":"30.61848000"},{"id":"110174","name":"Obukhiv Raion","state_id":4671,"state_code":"32","country_id":230,"country_code":"UA","latitude":"50.16667000","longitude":"30.66667000"},{"id":"110175","name":"Obukhivs\u2019ka Mis\u2019krada","state_id":4671,"state_code":"32","country_id":230,"country_code":"UA","latitude":"50.11425000","longitude":"30.63293000"},{"id":"110239","name":"Pereiaslav-Khmelnytskyi","state_id":4671,"state_code":"32","country_id":230,"country_code":"UA","latitude":"50.06739000","longitude":"31.44969000"},{"id":"110240","name":"Pereiaslav-Khmelnytskyi Raion","state_id":4671,"state_code":"32","country_id":230,"country_code":"UA","latitude":"50.08333000","longitude":"31.50000000"},{"id":"110274","name":"Piskivka","state_id":4671,"state_code":"32","country_id":230,"country_code":"UA","latitude":"50.69378000","longitude":"29.61934000"},{"id":"110287","name":"Pohreby","state_id":4671,"state_code":"32","country_id":230,"country_code":"UA","latitude":"50.55453000","longitude":"30.64455000"},{"id":"110327","name":"Pukhivka","state_id":4671,"state_code":"32","country_id":230,"country_code":"UA","latitude":"50.60970000","longitude":"30.71770000"},{"id":"110363","name":"Rokytne","state_id":4671,"state_code":"32","country_id":230,"country_code":"UA","latitude":"49.68665000","longitude":"30.47384000"},{"id":"110365","name":"Rokytne Raion","state_id":4671,"state_code":"32","country_id":230,"country_code":"UA","latitude":"49.75000000","longitude":"30.50000000"},{"id":"110373","name":"Roskoshnyy","state_id":4671,"state_code":"32","country_id":230,"country_code":"UA","latitude":"49.37087000","longitude":"30.18471000"},{"id":"110398","name":"Rzhyshchiv","state_id":4671,"state_code":"32","country_id":230,"country_code":"UA","latitude":"49.96886000","longitude":"31.04628000"},{"id":"110417","name":"Semypolky","state_id":4671,"state_code":"32","country_id":230,"country_code":"UA","latitude":"50.72627000","longitude":"30.93441000"},{"id":"110474","name":"Skvyra","state_id":4671,"state_code":"32","country_id":230,"country_code":"UA","latitude":"49.73177000","longitude":"29.66569000"},{"id":"110475","name":"Skvyrs\u2019kyy Rayon","state_id":4671,"state_code":"32","country_id":230,"country_code":"UA","latitude":"49.74177000","longitude":"29.70043000"},{"id":"110480","name":"Slavutych","state_id":4671,"state_code":"32","country_id":230,"country_code":"UA","latitude":"51.52250000","longitude":"30.71806000"},{"id":"110499","name":"Sofiyivska Borschagivka","state_id":4671,"state_code":"32","country_id":230,"country_code":"UA","latitude":"50.41005000","longitude":"30.36724000"},{"id":"110543","name":"Stavyshche","state_id":4671,"state_code":"32","country_id":230,"country_code":"UA","latitude":"49.39124000","longitude":"30.19022000"},{"id":"110545","name":"Stayki","state_id":4671,"state_code":"32","country_id":230,"country_code":"UA","latitude":"50.07818000","longitude":"30.90380000"},{"id":"110590","name":"Tarashcha","state_id":4671,"state_code":"32","country_id":230,"country_code":"UA","latitude":"49.55832000","longitude":"30.49259000"},{"id":"110606","name":"Tetiiv","state_id":4671,"state_code":"32","country_id":230,"country_code":"UA","latitude":"49.37670000","longitude":"29.66474000"},{"id":"110620","name":"Trebukhiv","state_id":4671,"state_code":"32","country_id":230,"country_code":"UA","latitude":"50.48432000","longitude":"30.90304000"},{"id":"110624","name":"Trypillia","state_id":4671,"state_code":"32","country_id":230,"country_code":"UA","latitude":"50.11802000","longitude":"30.78141000"},{"id":"110632","name":"Tsybli","state_id":4671,"state_code":"32","country_id":230,"country_code":"UA","latitude":"49.99484000","longitude":"31.56281000"},{"id":"110651","name":"Ukrainka","state_id":4671,"state_code":"32","country_id":230,"country_code":"UA","latitude":"50.14317000","longitude":"30.74612000"},{"id":"110669","name":"Uzyn","state_id":4671,"state_code":"32","country_id":230,"country_code":"UA","latitude":"49.82619000","longitude":"30.41487000"},{"id":"110678","name":"Vasylkiv","state_id":4671,"state_code":"32","country_id":230,"country_code":"UA","latitude":"50.18693000","longitude":"30.31346000"},{"id":"110679","name":"Vasylkiv Raion","state_id":4671,"state_code":"32","country_id":230,"country_code":"UA","latitude":"50.16667000","longitude":"30.33333000"},{"id":"110684","name":"Velyka Dymerka","state_id":4671,"state_code":"32","country_id":230,"country_code":"UA","latitude":"50.59333000","longitude":"30.90313000"},{"id":"110733","name":"Volodarka","state_id":4671,"state_code":"32","country_id":230,"country_code":"UA","latitude":"49.52484000","longitude":"29.91222000"},{"id":"110742","name":"Voronkov","state_id":4671,"state_code":"32","country_id":230,"country_code":"UA","latitude":"50.22235000","longitude":"30.89967000"},{"id":"110745","name":"Vorzel\u2019","state_id":4671,"state_code":"32","country_id":230,"country_code":"UA","latitude":"50.54440000","longitude":"30.15305000"},{"id":"110762","name":"Vyshgorodskiy Rayon","state_id":4671,"state_code":"32","country_id":230,"country_code":"UA","latitude":"50.58333000","longitude":"30.50000000"},{"id":"110763","name":"Vyshhorod","state_id":4671,"state_code":"32","country_id":230,"country_code":"UA","latitude":"50.58476000","longitude":"30.48980000"},{"id":"110765","name":"Vyshneve","state_id":4671,"state_code":"32","country_id":230,"country_code":"UA","latitude":"50.38913000","longitude":"30.37050000"},{"id":"110773","name":"Yahotyn","state_id":4671,"state_code":"32","country_id":230,"country_code":"UA","latitude":"50.27975000","longitude":"31.76246000"},{"id":"110774","name":"Yahotyns\u2019kyy Rayon","state_id":4671,"state_code":"32","country_id":230,"country_code":"UA","latitude":"50.25722000","longitude":"31.89456000"},{"id":"110872","name":"Z\u00b7hurivs\u2019kyy Rayon","state_id":4671,"state_code":"32","country_id":230,"country_code":"UA","latitude":"50.47192000","longitude":"31.79423000"},{"id":"110839","name":"Zgurovka","state_id":4671,"state_code":"32","country_id":230,"country_code":"UA","latitude":"50.50276000","longitude":"31.78492000"}]