[{"id":"109307","name":"Adzhamka","state_id":4677,"state_code":"35","country_id":230,"country_code":"UA","latitude":"48.54245000","longitude":"32.53542000"},{"id":"109411","name":"Blahovishchenske Raion","state_id":4677,"state_code":"35","country_id":230,"country_code":"UA","latitude":"48.25000000","longitude":"30.25000000"},{"id":"109416","name":"Bobrynets","state_id":4677,"state_code":"35","country_id":230,"country_code":"UA","latitude":"48.05896000","longitude":"32.16641000"},{"id":"109544","name":"Dmytrivka","state_id":4677,"state_code":"35","country_id":230,"country_code":"UA","latitude":"48.79690000","longitude":"32.71645000"},{"id":"109558","name":"Dobrovelychkivka","state_id":4677,"state_code":"35","country_id":230,"country_code":"UA","latitude":"48.38778000","longitude":"31.18028000"},{"id":"109559","name":"Dobrovelychkivs\u2019kyy Rayon","state_id":4677,"state_code":"35","country_id":230,"country_code":"UA","latitude":"48.36935000","longitude":"31.16354000"},{"id":"109566","name":"Dolyns'ka","state_id":4677,"state_code":"35","country_id":230,"country_code":"UA","latitude":"48.11041000","longitude":"32.76449000"},{"id":"109568","name":"Dolyns\u2019kyy Rayon","state_id":4677,"state_code":"35","country_id":230,"country_code":"UA","latitude":"48.16327000","longitude":"32.88318000"},{"id":"109627","name":"Hayvoron","state_id":4677,"state_code":"35","country_id":230,"country_code":"UA","latitude":"48.33958000","longitude":"29.86791000"},{"id":"109715","name":"Kapitanivka","state_id":4677,"state_code":"35","country_id":230,"country_code":"UA","latitude":"48.91719000","longitude":"31.71671000"},{"id":"109751","name":"Kirovohrads\u2019ka Mis\u2019krada","state_id":4677,"state_code":"35","country_id":230,"country_code":"UA","latitude":"48.52185000","longitude":"32.24367000"},{"id":"109783","name":"Kompaniyivka","state_id":4677,"state_code":"35","country_id":230,"country_code":"UA","latitude":"48.25115000","longitude":"32.20795000"},{"id":"109867","name":"Kropyvnytskyi","state_id":4677,"state_code":"35","country_id":230,"country_code":"UA","latitude":"48.51320000","longitude":"32.25970000"},{"id":"109934","name":"Lozuvatka","state_id":4677,"state_code":"35","country_id":230,"country_code":"UA","latitude":"48.05710000","longitude":"33.28581000"},{"id":"109955","name":"Lypnyazhka","state_id":4677,"state_code":"35","country_id":230,"country_code":"UA","latitude":"48.44694000","longitude":"31.07611000"},{"id":"109981","name":"Mala Vyska","state_id":4677,"state_code":"35","country_id":230,"country_code":"UA","latitude":"48.64308000","longitude":"31.63657000"},{"id":"109986","name":"Malovyskivs\u2019kyy Rayon","state_id":4677,"state_code":"35","country_id":230,"country_code":"UA","latitude":"48.57680000","longitude":"31.57594000"},{"id":"110048","name":"Molodizhne","state_id":4677,"state_code":"35","country_id":230,"country_code":"UA","latitude":"48.17732000","longitude":"32.66015000"},{"id":"110107","name":"Nova Praha","state_id":4677,"state_code":"35","country_id":230,"country_code":"UA","latitude":"48.56821000","longitude":"32.90273000"},{"id":"110114","name":"Novhorodka","state_id":4677,"state_code":"35","country_id":230,"country_code":"UA","latitude":"48.36506000","longitude":"32.65785000"},{"id":"110119","name":"Novoarkhanhel\u2019s\u2019k","state_id":4677,"state_code":"35","country_id":230,"country_code":"UA","latitude":"48.65803000","longitude":"30.81821000"},{"id":"110135","name":"Novomyrhorod","state_id":4677,"state_code":"35","country_id":230,"country_code":"UA","latitude":"48.78105000","longitude":"31.64204000"},{"id":"110150","name":"Novoukrayinka","state_id":4677,"state_code":"35","country_id":230,"country_code":"UA","latitude":"48.32635000","longitude":"31.52852000"},{"id":"110160","name":"Novyy Starodub","state_id":4677,"state_code":"35","country_id":230,"country_code":"UA","latitude":"48.51580000","longitude":"33.17329000"},{"id":"110186","name":"Oleksandrivka","state_id":4677,"state_code":"35","country_id":230,"country_code":"UA","latitude":"48.96336000","longitude":"32.23492000"},{"id":"110189","name":"Oleksandriya","state_id":4677,"state_code":"35","country_id":230,"country_code":"UA","latitude":"48.66961000","longitude":"33.11593000"},{"id":"110190","name":"Oleksandriys\u2019ke","state_id":4677,"state_code":"35","country_id":230,"country_code":"UA","latitude":"48.60767000","longitude":"32.98347000"},{"id":"110198","name":"Onufriyivka","state_id":4677,"state_code":"35","country_id":230,"country_code":"UA","latitude":"48.90716000","longitude":"33.44869000"},{"id":"110221","name":"Pantayivka","state_id":4677,"state_code":"35","country_id":230,"country_code":"UA","latitude":"48.67400000","longitude":"32.88410000"},{"id":"110233","name":"Pavlysh","state_id":4677,"state_code":"35","country_id":230,"country_code":"UA","latitude":"48.91762000","longitude":"33.35691000"},{"id":"110238","name":"Perehonivka","state_id":4677,"state_code":"35","country_id":230,"country_code":"UA","latitude":"48.53552000","longitude":"30.51923000"},{"id":"110259","name":"Petrove","state_id":4677,"state_code":"35","country_id":230,"country_code":"UA","latitude":"48.32467000","longitude":"33.25617000"},{"id":"110281","name":"Pobugskoye","state_id":4677,"state_code":"35","country_id":230,"country_code":"UA","latitude":"48.16579000","longitude":"30.59274000"},{"id":"110297","name":"Pomichna","state_id":4677,"state_code":"35","country_id":230,"country_code":"UA","latitude":"48.24222000","longitude":"31.41583000"},{"id":"110325","name":"Pryyutivka","state_id":4677,"state_code":"35","country_id":230,"country_code":"UA","latitude":"48.72094000","longitude":"33.07078000"},{"id":"110355","name":"Rivne","state_id":4677,"state_code":"35","country_id":230,"country_code":"UA","latitude":"48.24742000","longitude":"31.75432000"},{"id":"110559","name":"Subottsi","state_id":4677,"state_code":"35","country_id":230,"country_code":"UA","latitude":"48.65545000","longitude":"32.52093000"},{"id":"110577","name":"Svitlovods\u2019k","state_id":4677,"state_code":"35","country_id":230,"country_code":"UA","latitude":"49.04894000","longitude":"33.24106000"},{"id":"110643","name":"Tyshkivka","state_id":4677,"state_code":"35","country_id":230,"country_code":"UA","latitude":"48.49665000","longitude":"30.94229000"},{"id":"110662","name":"Ustynivka","state_id":4677,"state_code":"35","country_id":230,"country_code":"UA","latitude":"47.95507000","longitude":"32.53674000"},{"id":"110793","name":"Yelyzavethradka","state_id":4677,"state_code":"35","country_id":230,"country_code":"UA","latitude":"48.80381000","longitude":"32.40460000"},{"id":"110828","name":"Zavallya","state_id":4677,"state_code":"35","country_id":230,"country_code":"UA","latitude":"48.21354000","longitude":"30.01558000"},{"id":"110856","name":"Zlynka","state_id":4677,"state_code":"35","country_id":230,"country_code":"UA","latitude":"48.48521000","longitude":"31.53906000"},{"id":"110858","name":"Znomenka","state_id":4677,"state_code":"35","country_id":230,"country_code":"UA","latitude":"48.71278000","longitude":"32.66472000"}]