[{"id":"109322","name":"Antoniny","state_id":4681,"state_code":"68","country_id":230,"country_code":"UA","latitude":"49.80974000","longitude":"26.87714000"},{"id":"109360","name":"Bazaliya","state_id":4681,"state_code":"68","country_id":230,"country_code":"UA","latitude":"49.71267000","longitude":"26.47331000"},{"id":"109537","name":"Derazhnya","state_id":4681,"state_code":"68","country_id":230,"country_code":"UA","latitude":"49.26920000","longitude":"27.43382000"},{"id":"109538","name":"Derazhnyans\u2019kyy Rayon","state_id":4681,"state_code":"68","country_id":230,"country_code":"UA","latitude":"49.22676000","longitude":"27.46603000"},{"id":"109589","name":"Dunaivtsi","state_id":4681,"state_code":"68","country_id":230,"country_code":"UA","latitude":"48.88909000","longitude":"26.85636000"},{"id":"109650","name":"Horodok","state_id":4681,"state_code":"68","country_id":230,"country_code":"UA","latitude":"49.16374000","longitude":"26.58394000"},{"id":"109690","name":"Izyaslav","state_id":4681,"state_code":"68","country_id":230,"country_code":"UA","latitude":"50.11947000","longitude":"26.82125000"},{"id":"109708","name":"Kamianets-Podilskyi","state_id":4681,"state_code":"68","country_id":230,"country_code":"UA","latitude":"48.68450000","longitude":"26.58559000"},{"id":"109731","name":"Khmel\u2019nyts\u2019kyy Rayon","state_id":4681,"state_code":"68","country_id":230,"country_code":"UA","latitude":"49.44511000","longitude":"26.93268000"},{"id":"109730","name":"Khmelnytskyi","state_id":4681,"state_code":"68","country_id":230,"country_code":"UA","latitude":"49.42161000","longitude":"26.99653000"},{"id":"109856","name":"Krasyliv","state_id":4681,"state_code":"68","country_id":230,"country_code":"UA","latitude":"49.65186000","longitude":"26.97253000"},{"id":"109916","name":"Letychiv","state_id":4681,"state_code":"68","country_id":230,"country_code":"UA","latitude":"49.38263000","longitude":"27.63051000"},{"id":"109975","name":"Makiv","state_id":4681,"state_code":"68","country_id":230,"country_code":"UA","latitude":"48.79487000","longitude":"26.69188000"},{"id":"110015","name":"Medzhybizh","state_id":4681,"state_code":"68","country_id":230,"country_code":"UA","latitude":"49.43748000","longitude":"27.40487000"},{"id":"110080","name":"Narkevychi","state_id":4681,"state_code":"68","country_id":230,"country_code":"UA","latitude":"49.51717000","longitude":"26.64178000"},{"id":"110093","name":"Netishyn","state_id":4681,"state_code":"68","country_id":230,"country_code":"UA","latitude":"50.34004000","longitude":"26.64171000"},{"id":"110109","name":"Nova Ushytsya","state_id":4681,"state_code":"68","country_id":230,"country_code":"UA","latitude":"48.83716000","longitude":"27.27434000"},{"id":"110146","name":"Novoselytsya","state_id":4681,"state_code":"68","country_id":230,"country_code":"UA","latitude":"50.07030000","longitude":"27.51955000"},{"id":"110294","name":"Polonne","state_id":4681,"state_code":"68","country_id":230,"country_code":"UA","latitude":"50.12424000","longitude":"27.51087000"},{"id":"110299","name":"Poninka","state_id":4681,"state_code":"68","country_id":230,"country_code":"UA","latitude":"50.18492000","longitude":"27.53629000"},{"id":"110440","name":"Shepetivka","state_id":4681,"state_code":"68","country_id":230,"country_code":"UA","latitude":"50.18545000","longitude":"27.06365000"},{"id":"110479","name":"Slavuta","state_id":4681,"state_code":"68","country_id":230,"country_code":"UA","latitude":"50.30155000","longitude":"26.86506000"},{"id":"110489","name":"Smotrych","state_id":4681,"state_code":"68","country_id":230,"country_code":"UA","latitude":"48.66149000","longitude":"26.56031000"},{"id":"110490","name":"Smyga","state_id":4681,"state_code":"68","country_id":230,"country_code":"UA","latitude":"50.23910000","longitude":"25.76575000"},{"id":"110527","name":"Stara Syniava","state_id":4681,"state_code":"68","country_id":230,"country_code":"UA","latitude":"49.60318000","longitude":"27.61909000"},{"id":"110533","name":"Starokostiantyniv","state_id":4681,"state_code":"68","country_id":230,"country_code":"UA","latitude":"49.75764000","longitude":"27.20342000"},{"id":"110787","name":"Yarmolyntsi","state_id":4681,"state_code":"68","country_id":230,"country_code":"UA","latitude":"49.19236000","longitude":"26.83725000"},{"id":"110811","name":"Zakupne","state_id":4681,"state_code":"68","country_id":230,"country_code":"UA","latitude":"49.11944000","longitude":"26.33756000"},{"id":"110851","name":"Zhvanets","state_id":4681,"state_code":"68","country_id":230,"country_code":"UA","latitude":"48.54968000","longitude":"26.48744000"}]