[{"id":"109535","name":"Demydivs\u2019kyy Rayon","state_id":4683,"state_code":"56","country_id":230,"country_code":"UA","latitude":"50.44302000","longitude":"25.29061000"},{"id":"109584","name":"Dubno","state_id":4683,"state_code":"56","country_id":230,"country_code":"UA","latitude":"50.41694000","longitude":"25.73432000"},{"id":"109586","name":"Dubrovytsya","state_id":4683,"state_code":"56","country_id":230,"country_code":"UA","latitude":"51.57438000","longitude":"26.56503000"},{"id":"109652","name":"Horodyshche","state_id":4683,"state_code":"56","country_id":230,"country_code":"UA","latitude":"50.63965000","longitude":"26.36573000"},{"id":"109654","name":"Hoshcha","state_id":4683,"state_code":"56","country_id":230,"country_code":"UA","latitude":"50.60030000","longitude":"26.67435000"},{"id":"109762","name":"Klevan","state_id":4683,"state_code":"56","country_id":230,"country_code":"UA","latitude":"50.74305000","longitude":"25.97628000"},{"id":"109773","name":"Kolodenka","state_id":4683,"state_code":"56","country_id":230,"country_code":"UA","latitude":"50.58561000","longitude":"26.31601000"},{"id":"109778","name":"Koloniya Zastav\u2019ye","state_id":4683,"state_code":"56","country_id":230,"country_code":"UA","latitude":"50.81667000","longitude":"27.03333000"},{"id":"109795","name":"Korets","state_id":4683,"state_code":"56","country_id":230,"country_code":"UA","latitude":"50.61655000","longitude":"27.16055000"},{"id":"109813","name":"Kostopil\u2019","state_id":4683,"state_code":"56","country_id":230,"country_code":"UA","latitude":"50.87841000","longitude":"26.45192000"},{"id":"110041","name":"Mizoch","state_id":4683,"state_code":"56","country_id":230,"country_code":"UA","latitude":"50.40000000","longitude":"26.15000000"},{"id":"110043","name":"Mlyniv","state_id":4683,"state_code":"56","country_id":230,"country_code":"UA","latitude":"50.50900000","longitude":"25.61675000"},{"id":"110044","name":"Mlynivs\u2019kyy Rayon","state_id":4683,"state_code":"56","country_id":230,"country_code":"UA","latitude":"50.55726000","longitude":"25.57715000"},{"id":"110205","name":"Orzhiv","state_id":4683,"state_code":"56","country_id":230,"country_code":"UA","latitude":"50.80000000","longitude":"26.12000000"},{"id":"110208","name":"Ostroh","state_id":4683,"state_code":"56","country_id":230,"country_code":"UA","latitude":"50.32942000","longitude":"26.51425000"},{"id":"110210","name":"Ostroz\u2019ka Mis\u2019krada","state_id":4683,"state_code":"56","country_id":230,"country_code":"UA","latitude":"50.32726000","longitude":"26.51765000"},{"id":"110339","name":"Radyvyliv","state_id":4683,"state_code":"56","country_id":230,"country_code":"UA","latitude":"50.12994000","longitude":"25.25576000"},{"id":"110354","name":"Rivne","state_id":4683,"state_code":"56","country_id":230,"country_code":"UA","latitude":"50.62308000","longitude":"26.22743000"},{"id":"110356","name":"Rivnens\u2019ka Mis\u2019krada","state_id":4683,"state_code":"56","country_id":230,"country_code":"UA","latitude":"50.61300000","longitude":"26.24588000"},{"id":"110364","name":"Rokytne","state_id":4683,"state_code":"56","country_id":230,"country_code":"UA","latitude":"51.27960000","longitude":"27.21400000"},{"id":"110407","name":"Sarny","state_id":4683,"state_code":"56","country_id":230,"country_code":"UA","latitude":"51.33795000","longitude":"26.60191000"},{"id":"110589","name":"Tarakaniv","state_id":4683,"state_code":"56","country_id":230,"country_code":"UA","latitude":"50.37961000","longitude":"25.70843000"},{"id":"110642","name":"Tynne","state_id":4683,"state_code":"56","country_id":230,"country_code":"UA","latitude":"50.60145000","longitude":"26.18486000"},{"id":"110672","name":"Varash","state_id":4683,"state_code":"56","country_id":230,"country_code":"UA","latitude":"51.35090000","longitude":"25.84738000"},{"id":"110691","name":"Velyki Mezhyrichi","state_id":4683,"state_code":"56","country_id":230,"country_code":"UA","latitude":"50.65431000","longitude":"26.86626000"},{"id":"110735","name":"Volodymyrets\u2019","state_id":4683,"state_code":"56","country_id":230,"country_code":"UA","latitude":"51.42130000","longitude":"26.14469000"},{"id":"110824","name":"Zarichne","state_id":4683,"state_code":"56","country_id":230,"country_code":"UA","latitude":"51.81260000","longitude":"26.12902000"},{"id":"110833","name":"Zdolbuniv","state_id":4683,"state_code":"56","country_id":230,"country_code":"UA","latitude":"50.52060000","longitude":"26.24251000"},{"id":"110834","name":"Zdovbytsya","state_id":4683,"state_code":"56","country_id":230,"country_code":"UA","latitude":"50.49607000","longitude":"26.24111000"}]