[{"id":"109330","name":"Artsyz","state_id":4688,"state_code":"51","country_id":230,"country_code":"UA","latitude":"45.99194000","longitude":"29.41824000"},{"id":"109346","name":"Balta","state_id":4688,"state_code":"51","country_id":230,"country_code":"UA","latitude":"47.93548000","longitude":"29.61982000"},{"id":"109347","name":"Balts\u2019kyy Rayon","state_id":4688,"state_code":"51","country_id":230,"country_code":"UA","latitude":"47.99828000","longitude":"29.64835000"},{"id":"109379","name":"Berezivka","state_id":4688,"state_code":"51","country_id":230,"country_code":"UA","latitude":"47.20429000","longitude":"30.90780000"},{"id":"109386","name":"Berezyne","state_id":4688,"state_code":"51","country_id":230,"country_code":"UA","latitude":"46.22968000","longitude":"29.20436000"},{"id":"109396","name":"Bilhorod-Dnistrovskyi","state_id":4688,"state_code":"51","country_id":230,"country_code":"UA","latitude":"46.19520000","longitude":"30.34938000"},{"id":"109406","name":"Bilyayivka","state_id":4688,"state_code":"51","country_id":230,"country_code":"UA","latitude":"46.48319000","longitude":"30.21678000"},{"id":"109425","name":"Bolhrad","state_id":4688,"state_code":"51","country_id":230,"country_code":"UA","latitude":"45.68262000","longitude":"28.61487000"},{"id":"109428","name":"Borodino","state_id":4688,"state_code":"51","country_id":230,"country_code":"UA","latitude":"46.30250000","longitude":"29.24167000"},{"id":"109448","name":"Broska","state_id":4688,"state_code":"51","country_id":230,"country_code":"UA","latitude":"45.37327000","longitude":"28.78300000"},{"id":"109513","name":"Chornomors\u2019k","state_id":4688,"state_code":"51","country_id":230,"country_code":"UA","latitude":"46.30495000","longitude":"30.65478000"},{"id":"109545","name":"Dmytrivka","state_id":4688,"state_code":"51","country_id":230,"country_code":"UA","latitude":"45.97167000","longitude":"28.98639000"},{"id":"109601","name":"Fontanka","state_id":4688,"state_code":"51","country_id":230,"country_code":"UA","latitude":"46.56646000","longitude":"30.85965000"},{"id":"109646","name":"Horodnye","state_id":4688,"state_code":"51","country_id":230,"country_code":"UA","latitude":"45.89083000","longitude":"28.84833000"},{"id":"109678","name":"Ivanivka","state_id":4688,"state_code":"51","country_id":230,"country_code":"UA","latitude":"46.97569000","longitude":"30.46998000"},{"id":"109687","name":"Izmayil","state_id":4688,"state_code":"51","country_id":230,"country_code":"UA","latitude":"45.34929000","longitude":"28.84079000"},{"id":"109699","name":"Kalcheva","state_id":4688,"state_code":"51","country_id":230,"country_code":"UA","latitude":"45.73746000","longitude":"28.81441000"},{"id":"109713","name":"Kamyshevka Vtoraya","state_id":4688,"state_code":"51","country_id":230,"country_code":"UA","latitude":"46.23333000","longitude":"29.83333000"},{"id":"109717","name":"Karolino-Buhaz","state_id":4688,"state_code":"51","country_id":230,"country_code":"UA","latitude":"46.14492000","longitude":"30.52609000"},{"id":"109747","name":"Kiliya","state_id":4688,"state_code":"51","country_id":230,"country_code":"UA","latitude":"45.45518000","longitude":"29.26367000"},{"id":"109769","name":"Kodyma","state_id":4688,"state_code":"51","country_id":230,"country_code":"UA","latitude":"48.09875000","longitude":"29.12463000"},{"id":"109770","name":"Kodyms\u2019kyy Rayon","state_id":4688,"state_code":"51","country_id":230,"country_code":"UA","latitude":"48.02284000","longitude":"29.14010000"},{"id":"109847","name":"Krasnosilka","state_id":4688,"state_code":"51","country_id":230,"country_code":"UA","latitude":"46.62258000","longitude":"30.77421000"},{"id":"109859","name":"Kremidivka","state_id":4688,"state_code":"51","country_id":230,"country_code":"UA","latitude":"46.73351000","longitude":"30.78472000"},{"id":"109878","name":"Kryzhanivka","state_id":4688,"state_code":"51","country_id":230,"country_code":"UA","latitude":"46.56167000","longitude":"30.79487000"},{"id":"109880","name":"Kuchurhan","state_id":4688,"state_code":"51","country_id":230,"country_code":"UA","latitude":"47.16302000","longitude":"29.78937000"},{"id":"109883","name":"Kulevcha","state_id":4688,"state_code":"51","country_id":230,"country_code":"UA","latitude":"46.03034000","longitude":"29.93614000"},{"id":"109889","name":"Kurisove","state_id":4688,"state_code":"51","country_id":230,"country_code":"UA","latitude":"46.96951000","longitude":"30.95914000"},{"id":"109953","name":"Lymanske","state_id":4688,"state_code":"51","country_id":230,"country_code":"UA","latitude":"46.65570000","longitude":"29.96722000"},{"id":"109962","name":"Lyubashivka","state_id":4688,"state_code":"51","country_id":230,"country_code":"UA","latitude":"47.83716000","longitude":"30.25976000"},{"id":"110009","name":"Mayaky","state_id":4688,"state_code":"51","country_id":230,"country_code":"UA","latitude":"46.41748000","longitude":"30.27413000"},{"id":"110072","name":"Mykolayivka","state_id":4688,"state_code":"51","country_id":230,"country_code":"UA","latitude":"47.54135000","longitude":"30.75615000"},{"id":"110073","name":"Mykolayivs\u2019kyy Rayon","state_id":4688,"state_code":"51","country_id":230,"country_code":"UA","latitude":"47.46720000","longitude":"30.60283000"},{"id":"110117","name":"Novi Troyany","state_id":4688,"state_code":"51","country_id":230,"country_code":"UA","latitude":"45.94275000","longitude":"28.85628000"},{"id":"110177","name":"Odessa","state_id":4688,"state_code":"51","country_id":230,"country_code":"UA","latitude":"46.47747000","longitude":"30.73262000"},{"id":"110181","name":"Okny","state_id":4688,"state_code":"51","country_id":230,"country_code":"UA","latitude":"47.54044000","longitude":"29.46001000"},{"id":"110188","name":"Oleksandrivka","state_id":4688,"state_code":"51","country_id":230,"country_code":"UA","latitude":"46.32893000","longitude":"30.63481000"},{"id":"110213","name":"Ovidiopol","state_id":4688,"state_code":"51","country_id":230,"country_code":"UA","latitude":"46.24998000","longitude":"30.44127000"},{"id":"110218","name":"Ozerne","state_id":4688,"state_code":"51","country_id":230,"country_code":"UA","latitude":"45.40300000","longitude":"28.67546000"},{"id":"110253","name":"Peschana","state_id":4688,"state_code":"51","country_id":230,"country_code":"UA","latitude":"48.12918000","longitude":"29.73086000"},{"id":"110276","name":"Plakhtiyivka","state_id":4688,"state_code":"51","country_id":230,"country_code":"UA","latitude":"46.10060000","longitude":"29.72169000"},{"id":"110285","name":"Podil\u2019s\u2019k","state_id":4688,"state_code":"51","country_id":230,"country_code":"UA","latitude":"47.75305000","longitude":"29.53205000"},{"id":"110284","name":"Podilsk Raion","state_id":4688,"state_code":"51","country_id":230,"country_code":"UA","latitude":"47.71642000","longitude":"29.54509000"},{"id":"110351","name":"Reni","state_id":4688,"state_code":"51","country_id":230,"country_code":"UA","latitude":"45.45623000","longitude":"28.27914000"},{"id":"110377","name":"Rozdil\u2019na","state_id":4688,"state_code":"51","country_id":230,"country_code":"UA","latitude":"46.84334000","longitude":"30.07919000"},{"id":"110404","name":"Salhany","state_id":4688,"state_code":"51","country_id":230,"country_code":"UA","latitude":"46.14881000","longitude":"30.34601000"},{"id":"110406","name":"Sarata","state_id":4688,"state_code":"51","country_id":230,"country_code":"UA","latitude":"46.01966000","longitude":"29.66567000"},{"id":"110410","name":"Savran","state_id":4688,"state_code":"51","country_id":230,"country_code":"UA","latitude":"48.13219000","longitude":"30.08247000"},{"id":"110425","name":"Serhiyivka","state_id":4688,"state_code":"51","country_id":230,"country_code":"UA","latitude":"46.02720000","longitude":"30.37682000"},{"id":"110426","name":"Serpneve","state_id":4688,"state_code":"51","country_id":230,"country_code":"UA","latitude":"46.30094000","longitude":"29.01958000"},{"id":"110427","name":"Shabo","state_id":4688,"state_code":"51","country_id":230,"country_code":"UA","latitude":"46.13262000","longitude":"30.38595000"},{"id":"110444","name":"Shevchenkove","state_id":4688,"state_code":"51","country_id":230,"country_code":"UA","latitude":"45.55604000","longitude":"29.33357000"},{"id":"110457","name":"Shyryayeve","state_id":4688,"state_code":"51","country_id":230,"country_code":"UA","latitude":"47.38052000","longitude":"30.19638000"},{"id":"110482","name":"Slobidka","state_id":4688,"state_code":"51","country_id":230,"country_code":"UA","latitude":"47.88694000","longitude":"29.34611000"},{"id":"110534","name":"Starokozache","state_id":4688,"state_code":"51","country_id":230,"country_code":"UA","latitude":"46.33722000","longitude":"29.98528000"},{"id":"110548","name":"Stepanivka","state_id":4688,"state_code":"51","country_id":230,"country_code":"UA","latitude":"46.79489000","longitude":"29.98684000"},{"id":"110550","name":"Stepove","state_id":4688,"state_code":"51","country_id":230,"country_code":"UA","latitude":"46.70385000","longitude":"30.07919000"},{"id":"110591","name":"Tarutyne","state_id":4688,"state_code":"51","country_id":230,"country_code":"UA","latitude":"46.18636000","longitude":"29.15203000"},{"id":"110592","name":"Tatarbunary","state_id":4688,"state_code":"51","country_id":230,"country_code":"UA","latitude":"45.83731000","longitude":"29.61424000"},{"id":"110594","name":"Tayirove","state_id":4688,"state_code":"51","country_id":230,"country_code":"UA","latitude":"46.36313000","longitude":"30.64891000"},{"id":"110598","name":"Teplodar","state_id":4688,"state_code":"51","country_id":230,"country_code":"UA","latitude":"46.50585000","longitude":"30.32521000"},{"id":"110660","name":"Usatove","state_id":4688,"state_code":"51","country_id":230,"country_code":"UA","latitude":"46.53296000","longitude":"30.65960000"},{"id":"110686","name":"Velyka Mykhaylivka","state_id":4688,"state_code":"51","country_id":230,"country_code":"UA","latitude":"47.07971000","longitude":"29.85753000"},{"id":"110693","name":"Velykoploske","state_id":4688,"state_code":"51","country_id":230,"country_code":"UA","latitude":"47.01254000","longitude":"29.67171000"},{"id":"110755","name":"Vylkove","state_id":4688,"state_code":"51","country_id":230,"country_code":"UA","latitude":"45.40214000","longitude":"29.58595000"},{"id":"110759","name":"Vynohradivka","state_id":4688,"state_code":"51","country_id":230,"country_code":"UA","latitude":"45.68119000","longitude":"28.57138000"},{"id":"110804","name":"Yuzhne","state_id":4688,"state_code":"51","country_id":230,"country_code":"UA","latitude":"46.62211000","longitude":"31.10131000"},{"id":"110808","name":"Zagnitkiv","state_id":4688,"state_code":"51","country_id":230,"country_code":"UA","latitude":"48.04878000","longitude":"28.89234000"},{"id":"110810","name":"Zakharivka","state_id":4688,"state_code":"51","country_id":230,"country_code":"UA","latitude":"47.33232000","longitude":"29.75903000"},{"id":"110815","name":"Zaliznychne","state_id":4688,"state_code":"51","country_id":230,"country_code":"UA","latitude":"45.74890000","longitude":"28.61466000"},{"id":"110826","name":"Zatoka","state_id":4688,"state_code":"51","country_id":230,"country_code":"UA","latitude":"46.07251000","longitude":"30.46538000"},{"id":"110827","name":"Zatyshshya","state_id":4688,"state_code":"51","country_id":230,"country_code":"UA","latitude":"47.33351000","longitude":"29.87327000"},{"id":"110865","name":"Zorya","state_id":4688,"state_code":"51","country_id":230,"country_code":"UA","latitude":"45.99080000","longitude":"29.69672000"}]