[{"id":"142","name":"All Saints","state_id":3704,"state_code":"07","country_id":10,"country_code":"AG","latitude":"17.06671000","longitude":"-61.79303000"},{"id":"147","name":"Parham","state_id":3704,"state_code":"07","country_id":10,"country_code":"AG","latitude":"17.09682000","longitude":"-61.77046000"},{"id":"145","name":"Falmouth","state_id":3705,"state_code":"06","country_id":10,"country_code":"AG","latitude":"17.02741000","longitude":"-61.78136000"},{"id":"146","name":"Liberta","state_id":3705,"state_code":"06","country_id":10,"country_code":"AG","latitude":"17.04141000","longitude":"-61.79052000"},{"id":"149","name":"Potters Village","state_id":3706,"state_code":"04","country_id":10,"country_code":"AG","latitude":"17.11337000","longitude":"-61.81962000"},{"id":"150","name":"Saint John\u2019s","state_id":3706,"state_code":"04","country_id":10,"country_code":"AG","latitude":"17.12096000","longitude":"-61.84329000"},{"id":"143","name":"Bolands","state_id":3707,"state_code":"05","country_id":10,"country_code":"AG","latitude":"17.06565000","longitude":"-61.87466000"},{"id":"144","name":"Codrington","state_id":3708,"state_code":"10","country_id":10,"country_code":"AG","latitude":"17.63333000","longitude":"-61.83333000"},{"id":"148","name":"Piggotts","state_id":3709,"state_code":"03","country_id":10,"country_code":"AG","latitude":"17.11667000","longitude":"-61.80000000"}]