[{"id":"131339","name":"Choma","state_id":1990,"state_code":"07","country_id":246,"country_code":"ZM","latitude":"-16.80889000","longitude":"26.98750000"},{"id":"131341","name":"Gwembe","state_id":1990,"state_code":"07","country_id":246,"country_code":"ZM","latitude":"-16.49755000","longitude":"27.60691000"},{"id":"131343","name":"Itezhi-Tezhi District","state_id":1990,"state_code":"07","country_id":246,"country_code":"ZM","latitude":"-15.74092000","longitude":"26.04146000"},{"id":"131360","name":"Livingstone","state_id":1990,"state_code":"07","country_id":246,"country_code":"ZM","latitude":"-17.84194000","longitude":"25.85425000"},{"id":"131367","name":"Maamba","state_id":1990,"state_code":"07","country_id":246,"country_code":"ZM","latitude":"-17.36667000","longitude":"27.15000000"},{"id":"131369","name":"Mazabuka","state_id":1990,"state_code":"07","country_id":246,"country_code":"ZM","latitude":"-15.85601000","longitude":"27.74800000"},{"id":"131373","name":"Monze","state_id":1990,"state_code":"07","country_id":246,"country_code":"ZM","latitude":"-16.28333000","longitude":"27.48333000"},{"id":"131384","name":"Nakambala","state_id":1990,"state_code":"07","country_id":246,"country_code":"ZM","latitude":"-15.83244000","longitude":"27.77994000"},{"id":"131386","name":"Namwala","state_id":1990,"state_code":"07","country_id":246,"country_code":"ZM","latitude":"-15.75042000","longitude":"26.43839000"},{"id":"131395","name":"Siavonga","state_id":1990,"state_code":"07","country_id":246,"country_code":"ZM","latitude":"-16.53818000","longitude":"28.70876000"},{"id":"131396","name":"Siavonga District","state_id":1990,"state_code":"07","country_id":246,"country_code":"ZM","latitude":"-16.26742000","longitude":"28.55036000"},{"id":"131397","name":"Sinazongwe","state_id":1990,"state_code":"07","country_id":246,"country_code":"ZM","latitude":"-17.26140000","longitude":"27.46179000"}]