[{"id":"57589","name":"Achalpur","state_id":4008,"state_code":"MH","country_id":101,"country_code":"IN","latitude":"21.25665000","longitude":"77.51006000"},{"id":"57602","name":"Ahiri","state_id":4008,"state_code":"MH","country_id":101,"country_code":"IN","latitude":"19.41386000","longitude":"80.00359000"},{"id":"57603","name":"Ahmadnagar","state_id":4008,"state_code":"MH","country_id":101,"country_code":"IN","latitude":"19.09457000","longitude":"74.73843000"},{"id":"57604","name":"Ahmadpur","state_id":4008,"state_code":"MH","country_id":101,"country_code":"IN","latitude":"18.70622000","longitude":"76.93731000"},{"id":"57609","name":"Airoli","state_id":4008,"state_code":"MH","country_id":101,"country_code":"IN","latitude":"19.15096000","longitude":"72.99625000"},{"id":"57617","name":"Ajra","state_id":4008,"state_code":"MH","country_id":101,"country_code":"IN","latitude":"16.11601000","longitude":"74.21097000"},{"id":"57618","name":"Akalkot","state_id":4008,"state_code":"MH","country_id":101,"country_code":"IN","latitude":"17.52532000","longitude":"76.20611000"},{"id":"57627","name":"Akola","state_id":4008,"state_code":"MH","country_id":101,"country_code":"IN","latitude":"20.50000000","longitude":"77.16667000"},{"id":"57628","name":"Akot","state_id":4008,"state_code":"MH","country_id":101,"country_code":"IN","latitude":"21.09630000","longitude":"77.05880000"},{"id":"57633","name":"Alandi","state_id":4008,"state_code":"MH","country_id":101,"country_code":"IN","latitude":"18.67756000","longitude":"73.89868000"},{"id":"57652","name":"Alibag","state_id":4008,"state_code":"MH","country_id":101,"country_code":"IN","latitude":"18.64813000","longitude":"72.87579000"},{"id":"57642","name":"Allapalli","state_id":4008,"state_code":"MH","country_id":101,"country_code":"IN","latitude":"19.43172000","longitude":"80.06377000"},{"id":"57657","name":"Amalner","state_id":4008,"state_code":"MH","country_id":101,"country_code":"IN","latitude":"21.03983000","longitude":"75.05887000"},{"id":"57660","name":"Amarnath","state_id":4008,"state_code":"MH","country_id":101,"country_code":"IN","latitude":"19.20000000","longitude":"73.16667000"},{"id":"57665","name":"Ambad","state_id":4008,"state_code":"MH","country_id":101,"country_code":"IN","latitude":"19.61301000","longitude":"75.78906000"},{"id":"57674","name":"Ambajogai","state_id":4008,"state_code":"MH","country_id":101,"country_code":"IN","latitude":"18.73312000","longitude":"76.38616000"},{"id":"57684","name":"Amravati Division","state_id":4008,"state_code":"MH","country_id":101,"country_code":"IN","latitude":"20.93483000","longitude":"77.75694000"},{"id":"57689","name":"Amravati","state_id":4008,"state_code":"MH","country_id":101,"country_code":"IN","latitude":"20.93333000","longitude":"77.75000000"},{"id":"57707","name":"Anjangaon","state_id":4008,"state_code":"MH","country_id":101,"country_code":"IN","latitude":"21.16516000","longitude":"77.30910000"},{"id":"57716","name":"Anshing","state_id":4008,"state_code":"MH","country_id":101,"country_code":"IN","latitude":"20.04090000","longitude":"77.31501000"},{"id":"57741","name":"Artist Village","state_id":4008,"state_code":"MH","country_id":101,"country_code":"IN","latitude":"19.03227000","longitude":"73.04276000"},{"id":"57751","name":"Ashta","state_id":4008,"state_code":"MH","country_id":101,"country_code":"IN","latitude":"16.94943000","longitude":"74.40936000"},{"id":"57753","name":"Ashti","state_id":4008,"state_code":"MH","country_id":101,"country_code":"IN","latitude":"19.37671000","longitude":"76.22520000"},{"id":"57765","name":"Aurangabad","state_id":4008,"state_code":"MH","country_id":101,"country_code":"IN","latitude":"19.88467000","longitude":"75.33986000"},{"id":"57770","name":"Ausa","state_id":4008,"state_code":"MH","country_id":101,"country_code":"IN","latitude":"18.24728000","longitude":"76.49930000"},{"id":"134461","name":"Arangaon","state_id":4008,"state_code":"MH","country_id":101,"country_code":"IN","latitude":"19.02681000","longitude":"74.71487000"},{"id":"134463","name":"Arvi","state_id":4008,"state_code":"MH","country_id":101,"country_code":"IN","latitude":"20.99585000","longitude":"78.22914000"},{"id":"57792","name":"Badlapur","state_id":4008,"state_code":"MH","country_id":101,"country_code":"IN","latitude":"19.15516000","longitude":"73.26553000"},{"id":"57829","name":"Ballalpur","state_id":4008,"state_code":"MH","country_id":101,"country_code":"IN","latitude":"19.84696000","longitude":"79.34578000"},{"id":"57897","name":"Basmat","state_id":4008,"state_code":"MH","country_id":101,"country_code":"IN","latitude":"19.32872000","longitude":"77.15746000"},{"id":"58121","name":"Balapur","state_id":4008,"state_code":"MH","country_id":101,"country_code":"IN","latitude":"20.66612000","longitude":"76.77386000"},{"id":"58146","name":"Baramati","state_id":4008,"state_code":"MH","country_id":101,"country_code":"IN","latitude":"18.15174000","longitude":"74.57767000"},{"id":"58144","name":"Barsi","state_id":4008,"state_code":"MH","country_id":101,"country_code":"IN","latitude":"18.23454000","longitude":"75.69275000"},{"id":"57912","name":"Beed","state_id":4008,"state_code":"MH","country_id":101,"country_code":"IN","latitude":"18.98921000","longitude":"75.75634000"},{"id":"57961","name":"Bhandara","state_id":4008,"state_code":"MH","country_id":101,"country_code":"IN","latitude":"21.18333000","longitude":"80.00000000"},{"id":"57962","name":"Bhandara","state_id":4008,"state_code":"MH","country_id":101,"country_code":"IN","latitude":"21.16817000","longitude":"79.64885000"},{"id":"57978","name":"Bhayandar","state_id":4008,"state_code":"MH","country_id":101,"country_code":"IN","latitude":"19.30157000","longitude":"72.85107000"},{"id":"58024","name":"Bhum","state_id":4008,"state_code":"MH","country_id":101,"country_code":"IN","latitude":"18.45908000","longitude":"75.65877000"},{"id":"57979","name":"Bhigvan","state_id":4008,"state_code":"MH","country_id":101,"country_code":"IN","latitude":"18.30070000","longitude":"74.76701000"},{"id":"57987","name":"Bhiwandi","state_id":4008,"state_code":"MH","country_id":101,"country_code":"IN","latitude":"19.30023000","longitude":"73.05881000"},{"id":"57997","name":"Bhor","state_id":4008,"state_code":"MH","country_id":101,"country_code":"IN","latitude":"18.14861000","longitude":"73.84336000"},{"id":"58001","name":"Bhudgaon","state_id":4008,"state_code":"MH","country_id":101,"country_code":"IN","latitude":"16.90742000","longitude":"74.59954000"},{"id":"58005","name":"Bhusaval","state_id":4008,"state_code":"MH","country_id":101,"country_code":"IN","latitude":"21.04365000","longitude":"75.78506000"},{"id":"58026","name":"Bid","state_id":4008,"state_code":"MH","country_id":101,"country_code":"IN","latitude":"18.83333000","longitude":"75.75000000"},{"id":"58047","name":"Biloli","state_id":4008,"state_code":"MH","country_id":101,"country_code":"IN","latitude":"18.77385000","longitude":"77.72463000"},{"id":"58074","name":"Boisar","state_id":4008,"state_code":"MH","country_id":101,"country_code":"IN","latitude":"19.80362000","longitude":"72.75598000"},{"id":"58082","name":"Borivli","state_id":4008,"state_code":"MH","country_id":101,"country_code":"IN","latitude":"19.23496000","longitude":"72.85976000"},{"id":"58094","name":"Buldana","state_id":4008,"state_code":"MH","country_id":101,"country_code":"IN","latitude":"20.58333000","longitude":"76.41667000"},{"id":"58095","name":"Buldana","state_id":4008,"state_code":"MH","country_id":101,"country_code":"IN","latitude":"20.52933000","longitude":"76.18457000"},{"id":"58192","name":"Chandrapur","state_id":4008,"state_code":"MH","country_id":101,"country_code":"IN","latitude":"20.11793000","longitude":"79.44377000"},{"id":"131589","name":"Chakan","state_id":4008,"state_code":"MH","country_id":101,"country_code":"IN","latitude":"18.76059000","longitude":"73.86351000"},{"id":"131592","name":"Chalisgaon","state_id":4008,"state_code":"MH","country_id":101,"country_code":"IN","latitude":"20.45781000","longitude":"75.01596000"},{"id":"131596","name":"Chanda","state_id":4008,"state_code":"MH","country_id":101,"country_code":"IN","latitude":"19.95076000","longitude":"79.29523000"},{"id":"131602","name":"Chandur","state_id":4008,"state_code":"MH","country_id":101,"country_code":"IN","latitude":"20.81408000","longitude":"77.98015000"},{"id":"131603","name":"Chandur Bazar","state_id":4008,"state_code":"MH","country_id":101,"country_code":"IN","latitude":"21.23853000","longitude":"77.74713000"},{"id":"131599","name":"Chandor","state_id":4008,"state_code":"MH","country_id":101,"country_code":"IN","latitude":"20.33060000","longitude":"74.24467000"},{"id":"131601","name":"Chandur","state_id":4008,"state_code":"MH","country_id":101,"country_code":"IN","latitude":"19.73444000","longitude":"79.17167000"},{"id":"131544","name":"Chicholi","state_id":4008,"state_code":"MH","country_id":101,"country_code":"IN","latitude":"21.46926000","longitude":"79.70151000"},{"id":"131549","name":"Chikhli","state_id":4008,"state_code":"MH","country_id":101,"country_code":"IN","latitude":"20.35046000","longitude":"76.25774000"},{"id":"131558","name":"Chinchani","state_id":4008,"state_code":"MH","country_id":101,"country_code":"IN","latitude":"19.87458000","longitude":"72.68510000"},{"id":"131567","name":"Chiplun","state_id":4008,"state_code":"MH","country_id":101,"country_code":"IN","latitude":"17.53339000","longitude":"73.50935000"},{"id":"131580","name":"Chopda","state_id":4008,"state_code":"MH","country_id":101,"country_code":"IN","latitude":"21.24578000","longitude":"75.29946000"},{"id":"131659","name":"Daryapur","state_id":4008,"state_code":"MH","country_id":101,"country_code":"IN","latitude":"20.92489000","longitude":"77.32644000"},{"id":"131663","name":"Dattapur","state_id":4008,"state_code":"MH","country_id":101,"country_code":"IN","latitude":"20.78075000","longitude":"78.14070000"},{"id":"131666","name":"Daulatabad","state_id":4008,"state_code":"MH","country_id":101,"country_code":"IN","latitude":"19.93611000","longitude":"75.22148000"},{"id":"131667","name":"Daund","state_id":4008,"state_code":"MH","country_id":101,"country_code":"IN","latitude":"18.46515000","longitude":"74.58375000"},{"id":"131805","name":"Dabhol","state_id":4008,"state_code":"MH","country_id":101,"country_code":"IN","latitude":"17.58971000","longitude":"73.18001000"},{"id":"131807","name":"Dahanu","state_id":4008,"state_code":"MH","country_id":101,"country_code":"IN","latitude":"19.96778000","longitude":"72.71263000"},{"id":"131810","name":"Darwha","state_id":4008,"state_code":"MH","country_id":101,"country_code":"IN","latitude":"20.31017000","longitude":"77.77257000"},{"id":"131815","name":"Diglur","state_id":4008,"state_code":"MH","country_id":101,"country_code":"IN","latitude":"18.54829000","longitude":"77.57695000"},{"id":"131709","name":"Deulgaon Raja","state_id":4008,"state_code":"MH","country_id":101,"country_code":"IN","latitude":"20.01757000","longitude":"76.03755000"},{"id":"131678","name":"Dehu","state_id":4008,"state_code":"MH","country_id":101,"country_code":"IN","latitude":"18.71851000","longitude":"73.76635000"},{"id":"131688","name":"Deolali","state_id":4008,"state_code":"MH","country_id":101,"country_code":"IN","latitude":"19.94404000","longitude":"73.83441000"},{"id":"131686","name":"Deoli","state_id":4008,"state_code":"MH","country_id":101,"country_code":"IN","latitude":"20.64920000","longitude":"78.48023000"},{"id":"131722","name":"Dharangaon","state_id":4008,"state_code":"MH","country_id":101,"country_code":"IN","latitude":"21.01187000","longitude":"75.27407000"},{"id":"131728","name":"Dharmabad","state_id":4008,"state_code":"MH","country_id":101,"country_code":"IN","latitude":"18.89116000","longitude":"77.84940000"},{"id":"131758","name":"Dharur","state_id":4008,"state_code":"MH","country_id":101,"country_code":"IN","latitude":"18.82017000","longitude":"76.10937000"},{"id":"131759","name":"Dhulia","state_id":4008,"state_code":"MH","country_id":101,"country_code":"IN","latitude":"20.90130000","longitude":"74.77737000"},{"id":"131746","name":"Dhule","state_id":4008,"state_code":"MH","country_id":101,"country_code":"IN","latitude":"21.06852000","longitude":"74.58837000"},{"id":"131768","name":"Digras","state_id":4008,"state_code":"MH","country_id":101,"country_code":"IN","latitude":"20.10350000","longitude":"77.71846000"},{"id":"131785","name":"Dombivli","state_id":4008,"state_code":"MH","country_id":101,"country_code":"IN","latitude":"19.21667000","longitude":"73.08333000"},{"id":"131786","name":"Dondaicha","state_id":4008,"state_code":"MH","country_id":101,"country_code":"IN","latitude":"21.32360000","longitude":"74.56804000"},{"id":"131792","name":"Dudhani","state_id":4008,"state_code":"MH","country_id":101,"country_code":"IN","latitude":"17.35792000","longitude":"76.36688000"},{"id":"131802","name":"Durgapur","state_id":4008,"state_code":"MH","country_id":101,"country_code":"IN","latitude":"20.00540000","longitude":"79.30273000"},{"id":"131838","name":"Erandol","state_id":4008,"state_code":"MH","country_id":101,"country_code":"IN","latitude":"20.92206000","longitude":"75.32641000"},{"id":"131850","name":"Faizpur","state_id":4008,"state_code":"MH","country_id":101,"country_code":"IN","latitude":"21.16766000","longitude":"75.86006000"},{"id":"131886","name":"Gadchiroli","state_id":4008,"state_code":"MH","country_id":101,"country_code":"IN","latitude":"19.80000000","longitude":"80.20000000"},{"id":"131889","name":"Gadhinglaj","state_id":4008,"state_code":"MH","country_id":101,"country_code":"IN","latitude":"16.22291000","longitude":"74.35010000"},{"id":"131907","name":"Gangakher","state_id":4008,"state_code":"MH","country_id":101,"country_code":"IN","latitude":"18.96962000","longitude":"76.74946000"},{"id":"131910","name":"Gangapur","state_id":4008,"state_code":"MH","country_id":101,"country_code":"IN","latitude":"19.69718000","longitude":"75.01045000"},{"id":"131934","name":"Gevrai","state_id":4008,"state_code":"MH","country_id":101,"country_code":"IN","latitude":"19.26372000","longitude":"75.75007000"},{"id":"131951","name":"Ghatanji","state_id":4008,"state_code":"MH","country_id":101,"country_code":"IN","latitude":"20.14183000","longitude":"78.31333000"},{"id":"131947","name":"Ghoti Budrukh","state_id":4008,"state_code":"MH","country_id":101,"country_code":"IN","latitude":"19.71641000","longitude":"73.62821000"},{"id":"131948","name":"Ghugus","state_id":4008,"state_code":"MH","country_id":101,"country_code":"IN","latitude":"19.93810000","longitude":"79.11192000"},{"id":"131984","name":"Gondia","state_id":4008,"state_code":"MH","country_id":101,"country_code":"IN","latitude":"21.46026000","longitude":"80.19205000"},{"id":"131983","name":"Gondiya","state_id":4008,"state_code":"MH","country_id":101,"country_code":"IN","latitude":"21.05000000","longitude":"80.25000000"},{"id":"131994","name":"Goregaon","state_id":4008,"state_code":"MH","country_id":101,"country_code":"IN","latitude":"18.15483000","longitude":"73.29147000"},{"id":"132014","name":"Guhagar","state_id":4008,"state_code":"MH","country_id":101,"country_code":"IN","latitude":"17.48415000","longitude":"73.19289000"},{"id":"132054","name":"Hadgaon","state_id":4008,"state_code":"MH","country_id":101,"country_code":"IN","latitude":"19.49552000","longitude":"77.65863000"},{"id":"132078","name":"Harnai","state_id":4008,"state_code":"MH","country_id":101,"country_code":"IN","latitude":"17.81340000","longitude":"73.09668000"},{"id":"132149","name":"Hirapur Hamesha","state_id":4008,"state_code":"MH","country_id":101,"country_code":"IN","latitude":"21.55546000","longitude":"79.78581000"},{"id":"132100","name":"Hinganghat","state_id":4008,"state_code":"MH","country_id":101,"country_code":"IN","latitude":"20.54875000","longitude":"78.83978000"},{"id":"132101","name":"Hingoli","state_id":4008,"state_code":"MH","country_id":101,"country_code":"IN","latitude":"19.70000000","longitude":"77.15000000"},{"id":"132150","name":"Ichalkaranji","state_id":4008,"state_code":"MH","country_id":101,"country_code":"IN","latitude":"16.69117000","longitude":"74.46054000"},{"id":"132155","name":"Igatpuri","state_id":4008,"state_code":"MH","country_id":101,"country_code":"IN","latitude":"19.69522000","longitude":"73.56260000"},{"id":"132168","name":"Indapur","state_id":4008,"state_code":"MH","country_id":101,"country_code":"IN","latitude":"18.30000000","longitude":"73.25000000"},{"id":"132205","name":"Jaisingpur","state_id":4008,"state_code":"MH","country_id":101,"country_code":"IN","latitude":"16.77639000","longitude":"74.55361000"},{"id":"132214","name":"Jalgaon","state_id":4008,"state_code":"MH","country_id":101,"country_code":"IN","latitude":"21.00292000","longitude":"75.56602000"},{"id":"132215","name":"Jalgaon Jamod","state_id":4008,"state_code":"MH","country_id":101,"country_code":"IN","latitude":"21.05194000","longitude":"76.53464000"},{"id":"132216","name":"Jalna","state_id":4008,"state_code":"MH","country_id":101,"country_code":"IN","latitude":"19.80000000","longitude":"75.90000000"},{"id":"132254","name":"Jawhar","state_id":4008,"state_code":"MH","country_id":101,"country_code":"IN","latitude":"19.91213000","longitude":"73.22679000"},{"id":"132307","name":"Jalna","state_id":4008,"state_code":"MH","country_id":101,"country_code":"IN","latitude":"19.84102000","longitude":"75.88636000"},{"id":"132260","name":"Jejuri","state_id":4008,"state_code":"MH","country_id":101,"country_code":"IN","latitude":"18.27658000","longitude":"74.16008000"},{"id":"132282","name":"Jintur","state_id":4008,"state_code":"MH","country_id":101,"country_code":"IN","latitude":"19.61186000","longitude":"76.68740000"},{"id":"132301","name":"Junnar","state_id":4008,"state_code":"MH","country_id":101,"country_code":"IN","latitude":"19.20815000","longitude":"73.87520000"},{"id":"132345","name":"Kalamb","state_id":4008,"state_code":"MH","country_id":101,"country_code":"IN","latitude":"19.04437000","longitude":"73.95554000"},{"id":"132346","name":"Kalamnuri","state_id":4008,"state_code":"MH","country_id":101,"country_code":"IN","latitude":"19.67386000","longitude":"77.31149000"},{"id":"132348","name":"Kalas","state_id":4008,"state_code":"MH","country_id":101,"country_code":"IN","latitude":"18.17241000","longitude":"74.79045000"},{"id":"132355","name":"Kalmeshwar","state_id":4008,"state_code":"MH","country_id":101,"country_code":"IN","latitude":"21.23219000","longitude":"78.91988000"},{"id":"132359","name":"Kalyan","state_id":4008,"state_code":"MH","country_id":101,"country_code":"IN","latitude":"19.24370000","longitude":"73.13554000"},{"id":"132375","name":"Kankauli","state_id":4008,"state_code":"MH","country_id":101,"country_code":"IN","latitude":"16.26609000","longitude":"73.71217000"},{"id":"132377","name":"Kannad","state_id":4008,"state_code":"MH","country_id":101,"country_code":"IN","latitude":"20.25684000","longitude":"75.13786000"},{"id":"132412","name":"Karad","state_id":4008,"state_code":"MH","country_id":101,"country_code":"IN","latitude":"17.28937000","longitude":"74.18183000"},{"id":"132403","name":"Karjat","state_id":4008,"state_code":"MH","country_id":101,"country_code":"IN","latitude":"18.91070000","longitude":"73.32354000"},{"id":"132404","name":"Karmala","state_id":4008,"state_code":"MH","country_id":101,"country_code":"IN","latitude":"18.40770000","longitude":"75.19386000"},{"id":"132677","name":"Kagal","state_id":4008,"state_code":"MH","country_id":101,"country_code":"IN","latitude":"16.57702000","longitude":"74.31544000"},{"id":"132684","name":"Kalundri","state_id":4008,"state_code":"MH","country_id":101,"country_code":"IN","latitude":"18.98020000","longitude":"73.12708000"},{"id":"132694","name":"Kamthi","state_id":4008,"state_code":"MH","country_id":101,"country_code":"IN","latitude":"21.21615000","longitude":"79.19730000"},{"id":"132700","name":"Kandri","state_id":4008,"state_code":"MH","country_id":101,"country_code":"IN","latitude":"21.42030000","longitude":"79.27663000"},{"id":"132717","name":"Karanja","state_id":4008,"state_code":"MH","country_id":101,"country_code":"IN","latitude":"20.48273000","longitude":"77.48857000"},{"id":"132724","name":"Kati","state_id":4008,"state_code":"MH","country_id":101,"country_code":"IN","latitude":"17.96137000","longitude":"75.88895000"},{"id":"132725","name":"Katol","state_id":4008,"state_code":"MH","country_id":101,"country_code":"IN","latitude":"21.27388000","longitude":"78.58580000"},{"id":"132450","name":"Khadki","state_id":4008,"state_code":"MH","country_id":101,"country_code":"IN","latitude":"18.56350000","longitude":"73.85205000"},{"id":"132471","name":"Kharakvasla","state_id":4008,"state_code":"MH","country_id":101,"country_code":"IN","latitude":"18.43997000","longitude":"73.77545000"},{"id":"132513","name":"Khamgaon","state_id":4008,"state_code":"MH","country_id":101,"country_code":"IN","latitude":"20.70738000","longitude":"76.56827000"},{"id":"132517","name":"Khapa","state_id":4008,"state_code":"MH","country_id":101,"country_code":"IN","latitude":"21.42243000","longitude":"78.98168000"},{"id":"132487","name":"Khed","state_id":4008,"state_code":"MH","country_id":101,"country_code":"IN","latitude":"17.71888000","longitude":"73.39693000"},{"id":"132495","name":"Khetia","state_id":4008,"state_code":"MH","country_id":101,"country_code":"IN","latitude":"21.67124000","longitude":"74.58535000"},{"id":"132500","name":"Khopoli","state_id":4008,"state_code":"MH","country_id":101,"country_code":"IN","latitude":"18.78562000","longitude":"73.34589000"},{"id":"132505","name":"Khuldabad","state_id":4008,"state_code":"MH","country_id":101,"country_code":"IN","latitude":"20.00671000","longitude":"75.19245000"},{"id":"132524","name":"Kinwat","state_id":4008,"state_code":"MH","country_id":101,"country_code":"IN","latitude":"19.62557000","longitude":"78.19870000"},{"id":"132543","name":"Kodoli","state_id":4008,"state_code":"MH","country_id":101,"country_code":"IN","latitude":"16.87639000","longitude":"74.19090000"},{"id":"132556","name":"Kolhapur","state_id":4008,"state_code":"MH","country_id":101,"country_code":"IN","latitude":"16.69013000","longitude":"74.22981000"},{"id":"132557","name":"Kolhapur","state_id":4008,"state_code":"MH","country_id":101,"country_code":"IN","latitude":"16.69563000","longitude":"74.23167000"},{"id":"132566","name":"Kondalwadi","state_id":4008,"state_code":"MH","country_id":101,"country_code":"IN","latitude":"18.80727000","longitude":"77.77031000"},{"id":"132572","name":"Kopargaon","state_id":4008,"state_code":"MH","country_id":101,"country_code":"IN","latitude":"19.88239000","longitude":"74.47605000"},{"id":"132586","name":"Koradi","state_id":4008,"state_code":"MH","country_id":101,"country_code":"IN","latitude":"21.24758000","longitude":"79.10575000"},{"id":"132582","name":"Koregaon","state_id":4008,"state_code":"MH","country_id":101,"country_code":"IN","latitude":"18.64573000","longitude":"74.05909000"},{"id":"132618","name":"Koynanagar","state_id":4008,"state_code":"MH","country_id":101,"country_code":"IN","latitude":"17.40000000","longitude":"73.76667000"},{"id":"132629","name":"Kudal","state_id":4008,"state_code":"MH","country_id":101,"country_code":"IN","latitude":"16.01148000","longitude":"73.68867000"},{"id":"132656","name":"Kurandvad","state_id":4008,"state_code":"MH","country_id":101,"country_code":"IN","latitude":"16.68317000","longitude":"74.58892000"},{"id":"132657","name":"Kurduvadi","state_id":4008,"state_code":"MH","country_id":101,"country_code":"IN","latitude":"18.09339000","longitude":"75.41567000"},{"id":"132759","name":"Latur","state_id":4008,"state_code":"MH","country_id":101,"country_code":"IN","latitude":"18.40000000","longitude":"76.80000000"},{"id":"132799","name":"Lanja","state_id":4008,"state_code":"MH","country_id":101,"country_code":"IN","latitude":"16.86086000","longitude":"73.54993000"},{"id":"132800","name":"Lasalgaon","state_id":4008,"state_code":"MH","country_id":101,"country_code":"IN","latitude":"20.14270000","longitude":"74.23946000"},{"id":"132770","name":"Lohogaon","state_id":4008,"state_code":"MH","country_id":101,"country_code":"IN","latitude":"18.59921000","longitude":"73.92701000"},{"id":"132773","name":"Lonavla","state_id":4008,"state_code":"MH","country_id":101,"country_code":"IN","latitude":"18.75275000","longitude":"73.40575000"},{"id":"132776","name":"Lonar","state_id":4008,"state_code":"MH","country_id":101,"country_code":"IN","latitude":"19.98533000","longitude":"76.52046000"},{"id":"132844","name":"Mahabaleshwar","state_id":4008,"state_code":"MH","country_id":101,"country_code":"IN","latitude":"17.56000000","longitude":"73.40000000"},{"id":"132846","name":"Mahad","state_id":4008,"state_code":"MH","country_id":101,"country_code":"IN","latitude":"18.08333000","longitude":"73.41667000"},{"id":"132856","name":"Maindargi","state_id":4008,"state_code":"MH","country_id":101,"country_code":"IN","latitude":"17.45739000","longitude":"76.29320000"},{"id":"132872","name":"Malkapur","state_id":4008,"state_code":"MH","country_id":101,"country_code":"IN","latitude":"17.26214000","longitude":"74.17574000"},{"id":"132874","name":"Malkapur","state_id":4008,"state_code":"MH","country_id":101,"country_code":"IN","latitude":"20.88555000","longitude":"76.19932000"},{"id":"132886","name":"Manchar","state_id":4008,"state_code":"MH","country_id":101,"country_code":"IN","latitude":"19.00436000","longitude":"73.94346000"},{"id":"132909","name":"Mangrul Pir","state_id":4008,"state_code":"MH","country_id":101,"country_code":"IN","latitude":"20.31379000","longitude":"77.34178000"},{"id":"132918","name":"Manmad","state_id":4008,"state_code":"MH","country_id":101,"country_code":"IN","latitude":"20.25334000","longitude":"74.43755000"},{"id":"132924","name":"Manor","state_id":4008,"state_code":"MH","country_id":101,"country_code":"IN","latitude":"19.72440000","longitude":"72.90966000"},{"id":"132926","name":"Mansar","state_id":4008,"state_code":"MH","country_id":101,"country_code":"IN","latitude":"21.39602000","longitude":"79.26350000"},{"id":"133062","name":"Majalgaon","state_id":4008,"state_code":"MH","country_id":101,"country_code":"IN","latitude":"19.15988000","longitude":"76.20832000"},{"id":"133063","name":"Makhjan","state_id":4008,"state_code":"MH","country_id":101,"country_code":"IN","latitude":"17.26980000","longitude":"73.50031000"},{"id":"133065","name":"Malegaon","state_id":4008,"state_code":"MH","country_id":101,"country_code":"IN","latitude":"20.54966000","longitude":"74.53462000"},{"id":"133070","name":"Malvan","state_id":4008,"state_code":"MH","country_id":101,"country_code":"IN","latitude":"16.05981000","longitude":"73.46290000"},{"id":"133084","name":"Manwat","state_id":4008,"state_code":"MH","country_id":101,"country_code":"IN","latitude":"19.30133000","longitude":"76.49735000"},{"id":"133090","name":"Matheran","state_id":4008,"state_code":"MH","country_id":101,"country_code":"IN","latitude":"18.98281000","longitude":"73.26520000"},{"id":"133099","name":"Mul","state_id":4008,"state_code":"MH","country_id":101,"country_code":"IN","latitude":"20.06987000","longitude":"79.67826000"},{"id":"132961","name":"Mehekar","state_id":4008,"state_code":"MH","country_id":101,"country_code":"IN","latitude":"20.15050000","longitude":"76.56841000"},{"id":"132971","name":"Mhasla","state_id":4008,"state_code":"MH","country_id":101,"country_code":"IN","latitude":"18.13340000","longitude":"73.11162000"},{"id":"132972","name":"Mhasvad","state_id":4008,"state_code":"MH","country_id":101,"country_code":"IN","latitude":"17.63359000","longitude":"74.78773000"},{"id":"132985","name":"Mohpa","state_id":4008,"state_code":"MH","country_id":101,"country_code":"IN","latitude":"21.31012000","longitude":"78.82969000"},{"id":"132992","name":"Moram","state_id":4008,"state_code":"MH","country_id":101,"country_code":"IN","latitude":"17.78812000","longitude":"76.47077000"},{"id":"132999","name":"Morsi","state_id":4008,"state_code":"MH","country_id":101,"country_code":"IN","latitude":"21.34030000","longitude":"78.01258000"},{"id":"133006","name":"Mowad","state_id":4008,"state_code":"MH","country_id":101,"country_code":"IN","latitude":"21.46475000","longitude":"78.45103000"},{"id":"133012","name":"Mudkhed","state_id":4008,"state_code":"MH","country_id":101,"country_code":"IN","latitude":"19.15657000","longitude":"77.50304000"},{"id":"133018","name":"Mukher","state_id":4008,"state_code":"MH","country_id":101,"country_code":"IN","latitude":"18.70636000","longitude":"77.36795000"},{"id":"133024","name":"Mumbai","state_id":4008,"state_code":"MH","country_id":101,"country_code":"IN","latitude":"19.07283000","longitude":"72.88261000"},{"id":"133025","name":"Mumbai Suburban","state_id":4008,"state_code":"MH","country_id":101,"country_code":"IN","latitude":"19.12636000","longitude":"72.84897000"},{"id":"133035","name":"Murbad","state_id":4008,"state_code":"MH","country_id":101,"country_code":"IN","latitude":"19.25395000","longitude":"73.38993000"},{"id":"133036","name":"Murgud","state_id":4008,"state_code":"MH","country_id":101,"country_code":"IN","latitude":"16.39604000","longitude":"74.19142000"},{"id":"133039","name":"Murtajapur","state_id":4008,"state_code":"MH","country_id":101,"country_code":"IN","latitude":"20.73299000","longitude":"77.36694000"},{"id":"133040","name":"Murud","state_id":4008,"state_code":"MH","country_id":101,"country_code":"IN","latitude":"18.32817000","longitude":"72.96210000"},{"id":"133116","name":"Nagpur","state_id":4008,"state_code":"MH","country_id":101,"country_code":"IN","latitude":"21.14631000","longitude":"79.08491000"},{"id":"133117","name":"Nagpur Division","state_id":4008,"state_code":"MH","country_id":101,"country_code":"IN","latitude":"21.14911000","longitude":"79.10748000"},{"id":"133131","name":"Naldurg","state_id":4008,"state_code":"MH","country_id":101,"country_code":"IN","latitude":"17.81667000","longitude":"76.28182000"},{"id":"133141","name":"Nanded","state_id":4008,"state_code":"MH","country_id":101,"country_code":"IN","latitude":"18.91667000","longitude":"77.50000000"},{"id":"133145","name":"Nandurbar","state_id":4008,"state_code":"MH","country_id":101,"country_code":"IN","latitude":"21.37000000","longitude":"74.20000000"},{"id":"133177","name":"Nashik","state_id":4008,"state_code":"MH","country_id":101,"country_code":"IN","latitude":"19.99727000","longitude":"73.79096000"},{"id":"133178","name":"Nashik Division","state_id":4008,"state_code":"MH","country_id":101,"country_code":"IN","latitude":"19.98295000","longitude":"73.78942000"},{"id":"133186","name":"Navi Mumbai","state_id":4008,"state_code":"MH","country_id":101,"country_code":"IN","latitude":"19.03681000","longitude":"73.01582000"},{"id":"133260","name":"Nagothana","state_id":4008,"state_code":"MH","country_id":101,"country_code":"IN","latitude":"18.54225000","longitude":"73.13493000"},{"id":"133268","name":"Nandura Buzurg","state_id":4008,"state_code":"MH","country_id":101,"country_code":"IN","latitude":"20.83417000","longitude":"76.45924000"},{"id":"133267","name":"Nandgaon","state_id":4008,"state_code":"MH","country_id":101,"country_code":"IN","latitude":"20.30680000","longitude":"74.65501000"},{"id":"133208","name":"Neral","state_id":4008,"state_code":"MH","country_id":101,"country_code":"IN","latitude":"19.02475000","longitude":"73.31688000"},{"id":"133217","name":"Nilanga","state_id":4008,"state_code":"MH","country_id":101,"country_code":"IN","latitude":"18.11675000","longitude":"76.75279000"},{"id":"133220","name":"Nipani","state_id":4008,"state_code":"MH","country_id":101,"country_code":"IN","latitude":"16.39900000","longitude":"74.38285000"},{"id":"133305","name":"Osmanabad","state_id":4008,"state_code":"MH","country_id":101,"country_code":"IN","latitude":"18.25000000","longitude":"76.16667000"},{"id":"133307","name":"Ozar","state_id":4008,"state_code":"MH","country_id":101,"country_code":"IN","latitude":"20.09473000","longitude":"73.92816000"},{"id":"133319","name":"Paithan","state_id":4008,"state_code":"MH","country_id":101,"country_code":"IN","latitude":"19.47506000","longitude":"75.38558000"},{"id":"133347","name":"Pandharpur","state_id":4008,"state_code":"MH","country_id":101,"country_code":"IN","latitude":"17.67924000","longitude":"75.33098000"},{"id":"133349","name":"Panhala","state_id":4008,"state_code":"MH","country_id":101,"country_code":"IN","latitude":"16.81210000","longitude":"74.11007000"},{"id":"133353","name":"Panvel","state_id":4008,"state_code":"MH","country_id":101,"country_code":"IN","latitude":"18.98878000","longitude":"73.11013000"},{"id":"133358","name":"Parbhani","state_id":4008,"state_code":"MH","country_id":101,"country_code":"IN","latitude":"19.50000000","longitude":"76.75000000"},{"id":"133360","name":"Parli Vaijnath","state_id":4008,"state_code":"MH","country_id":101,"country_code":"IN","latitude":"18.85057000","longitude":"76.53163000"},{"id":"133364","name":"Parola","state_id":4008,"state_code":"MH","country_id":101,"country_code":"IN","latitude":"20.88098000","longitude":"75.11937000"},{"id":"133367","name":"Partur","state_id":4008,"state_code":"MH","country_id":101,"country_code":"IN","latitude":"19.59925000","longitude":"76.21541000"},{"id":"133397","name":"Pawni","state_id":4008,"state_code":"MH","country_id":101,"country_code":"IN","latitude":"20.79229000","longitude":"79.63644000"},{"id":"133520","name":"Pachora","state_id":4008,"state_code":"MH","country_id":101,"country_code":"IN","latitude":"20.66727000","longitude":"75.35305000"},{"id":"133527","name":"Palghar","state_id":4008,"state_code":"MH","country_id":101,"country_code":"IN","latitude":"19.69693000","longitude":"72.76543000"},{"id":"133537","name":"Panchgani","state_id":4008,"state_code":"MH","country_id":101,"country_code":"IN","latitude":"17.92449000","longitude":"73.80080000"},{"id":"133554","name":"Patan","state_id":4008,"state_code":"MH","country_id":101,"country_code":"IN","latitude":"17.37513000","longitude":"73.90143000"},{"id":"133559","name":"Patur","state_id":4008,"state_code":"MH","country_id":101,"country_code":"IN","latitude":"20.46093000","longitude":"76.93725000"},{"id":"133556","name":"Pathardi","state_id":4008,"state_code":"MH","country_id":101,"country_code":"IN","latitude":"19.17279000","longitude":"75.17425000"},{"id":"133558","name":"Pathri","state_id":4008,"state_code":"MH","country_id":101,"country_code":"IN","latitude":"19.25880000","longitude":"76.43412000"},{"id":"133564","name":"Pipri","state_id":4008,"state_code":"MH","country_id":101,"country_code":"IN","latitude":"19.79371000","longitude":"75.53519000"},{"id":"133571","name":"Purna","state_id":4008,"state_code":"MH","country_id":101,"country_code":"IN","latitude":"19.18170000","longitude":"77.02566000"},{"id":"133404","name":"Pen","state_id":4008,"state_code":"MH","country_id":101,"country_code":"IN","latitude":"18.73734000","longitude":"73.09603000"},{"id":"133434","name":"Phaltan","state_id":4008,"state_code":"MH","country_id":101,"country_code":"IN","latitude":"17.99113000","longitude":"74.43177000"},{"id":"133449","name":"Pimpri","state_id":4008,"state_code":"MH","country_id":101,"country_code":"IN","latitude":"18.62292000","longitude":"73.80696000"},{"id":"133484","name":"Powai","state_id":4008,"state_code":"MH","country_id":101,"country_code":"IN","latitude":"19.11640000","longitude":"72.90471000"},{"id":"133496","name":"Pulgaon","state_id":4008,"state_code":"MH","country_id":101,"country_code":"IN","latitude":"20.72204000","longitude":"78.32056000"},{"id":"133504","name":"Pune","state_id":4008,"state_code":"MH","country_id":101,"country_code":"IN","latitude":"18.51957000","longitude":"73.85535000"},{"id":"133505","name":"Pune Division","state_id":4008,"state_code":"MH","country_id":101,"country_code":"IN","latitude":"18.74673000","longitude":"73.75465000"},{"id":"133515","name":"Pusad","state_id":4008,"state_code":"MH","country_id":101,"country_code":"IN","latitude":"19.91274000","longitude":"77.57838000"},{"id":"133583","name":"Rahimatpur","state_id":4008,"state_code":"MH","country_id":101,"country_code":"IN","latitude":"17.59210000","longitude":"74.19966000"},{"id":"133588","name":"Raigarh","state_id":4008,"state_code":"MH","country_id":101,"country_code":"IN","latitude":"18.57000000","longitude":"73.13000000"},{"id":"133619","name":"Ratnagiri","state_id":4008,"state_code":"MH","country_id":101,"country_code":"IN","latitude":"17.00000000","longitude":"73.50000000"},{"id":"133663","name":"Rahuri","state_id":4008,"state_code":"MH","country_id":101,"country_code":"IN","latitude":"19.39069000","longitude":"74.64979000"},{"id":"133687","name":"Rajapur","state_id":4008,"state_code":"MH","country_id":101,"country_code":"IN","latitude":"16.65679000","longitude":"73.51701000"},{"id":"133689","name":"Rajura","state_id":4008,"state_code":"MH","country_id":101,"country_code":"IN","latitude":"19.77947000","longitude":"79.36459000"},{"id":"133677","name":"Rajgurunagar","state_id":4008,"state_code":"MH","country_id":101,"country_code":"IN","latitude":"18.86667000","longitude":"73.90000000"},{"id":"133685","name":"Rajur","state_id":4008,"state_code":"MH","country_id":101,"country_code":"IN","latitude":"20.11087000","longitude":"78.89311000"},{"id":"133710","name":"Ramtek","state_id":4008,"state_code":"MH","country_id":101,"country_code":"IN","latitude":"21.39562000","longitude":"79.32725000"},{"id":"133724","name":"Raver","state_id":4008,"state_code":"MH","country_id":101,"country_code":"IN","latitude":"21.24757000","longitude":"76.03509000"},{"id":"133631","name":"Revadanda","state_id":4008,"state_code":"MH","country_id":101,"country_code":"IN","latitude":"18.55363000","longitude":"72.92559000"},{"id":"133639","name":"Risod","state_id":4008,"state_code":"MH","country_id":101,"country_code":"IN","latitude":"19.97671000","longitude":"76.78799000"},{"id":"133644","name":"Roha","state_id":4008,"state_code":"MH","country_id":101,"country_code":"IN","latitude":"18.43687000","longitude":"73.11964000"},{"id":"133780","name":"Sangamner","state_id":4008,"state_code":"MH","country_id":101,"country_code":"IN","latitude":"19.56784000","longitude":"74.21154000"},{"id":"133782","name":"Sangli","state_id":4008,"state_code":"MH","country_id":101,"country_code":"IN","latitude":"17.11202000","longitude":"74.76990000"},{"id":"133797","name":"Saoner","state_id":4008,"state_code":"MH","country_id":101,"country_code":"IN","latitude":"21.38510000","longitude":"78.92155000"},{"id":"133815","name":"Satara","state_id":4008,"state_code":"MH","country_id":101,"country_code":"IN","latitude":"17.68589000","longitude":"73.99333000"},{"id":"133816","name":"Satara Division","state_id":4008,"state_code":"MH","country_id":101,"country_code":"IN","latitude":"17.72601000","longitude":"74.06433000"},{"id":"133825","name":"Satana","state_id":4008,"state_code":"MH","country_id":101,"country_code":"IN","latitude":"20.59483000","longitude":"74.20301000"},{"id":"134073","name":"Sangli","state_id":4008,"state_code":"MH","country_id":101,"country_code":"IN","latitude":"16.85438000","longitude":"74.56417000"},{"id":"134074","name":"Sangola","state_id":4008,"state_code":"MH","country_id":101,"country_code":"IN","latitude":"17.43948000","longitude":"75.19379000"},{"id":"134081","name":"Sasvad","state_id":4008,"state_code":"MH","country_id":101,"country_code":"IN","latitude":"18.34351000","longitude":"74.03102000"},{"id":"134082","name":"Savantvadi","state_id":4008,"state_code":"MH","country_id":101,"country_code":"IN","latitude":"15.90413000","longitude":"73.82191000"},{"id":"134083","name":"Savda","state_id":4008,"state_code":"MH","country_id":101,"country_code":"IN","latitude":"21.15054000","longitude":"75.88938000"},{"id":"133836","name":"Selu","state_id":4008,"state_code":"MH","country_id":101,"country_code":"IN","latitude":"19.45512000","longitude":"76.44073000"},{"id":"133908","name":"Shahada","state_id":4008,"state_code":"MH","country_id":101,"country_code":"IN","latitude":"21.54538000","longitude":"74.47106000"},{"id":"133909","name":"Shahapur","state_id":4008,"state_code":"MH","country_id":101,"country_code":"IN","latitude":"19.45231000","longitude":"73.32572000"},{"id":"133857","name":"Shegaon","state_id":4008,"state_code":"MH","country_id":101,"country_code":"IN","latitude":"20.79320000","longitude":"76.69921000"},{"id":"133873","name":"Shiraguppi","state_id":4008,"state_code":"MH","country_id":101,"country_code":"IN","latitude":"16.61875000","longitude":"74.70907000"},{"id":"133874","name":"Shirdi","state_id":4008,"state_code":"MH","country_id":101,"country_code":"IN","latitude":"19.76616000","longitude":"74.47738000"},{"id":"133875","name":"Shirgaon","state_id":4008,"state_code":"MH","country_id":101,"country_code":"IN","latitude":"19.69589000","longitude":"72.71527000"},{"id":"133877","name":"Shirpur","state_id":4008,"state_code":"MH","country_id":101,"country_code":"IN","latitude":"21.34821000","longitude":"74.88035000"},{"id":"133878","name":"Shirwal","state_id":4008,"state_code":"MH","country_id":101,"country_code":"IN","latitude":"18.15059000","longitude":"73.97788000"},{"id":"133879","name":"Shivaji Nagar","state_id":4008,"state_code":"MH","country_id":101,"country_code":"IN","latitude":"18.53017000","longitude":"73.85263000"},{"id":"133886","name":"Shrigonda","state_id":4008,"state_code":"MH","country_id":101,"country_code":"IN","latitude":"18.61527000","longitude":"74.69895000"},{"id":"133936","name":"Sillod","state_id":4008,"state_code":"MH","country_id":101,"country_code":"IN","latitude":"20.30303000","longitude":"75.65284000"},{"id":"133943","name":"Sindhudurg","state_id":4008,"state_code":"MH","country_id":101,"country_code":"IN","latitude":"16.17000000","longitude":"73.70000000"},{"id":"133944","name":"Sindi","state_id":4008,"state_code":"MH","country_id":101,"country_code":"IN","latitude":"20.80509000","longitude":"78.88752000"},{"id":"133953","name":"Sinnar","state_id":4008,"state_code":"MH","country_id":101,"country_code":"IN","latitude":"19.84505000","longitude":"73.99866000"},{"id":"133970","name":"Sirur","state_id":4008,"state_code":"MH","country_id":101,"country_code":"IN","latitude":"18.82760000","longitude":"74.37475000"},{"id":"133986","name":"Solapur","state_id":4008,"state_code":"MH","country_id":101,"country_code":"IN","latitude":"17.75000000","longitude":"75.50000000"},{"id":"133988","name":"Solapur","state_id":4008,"state_code":"MH","country_id":101,"country_code":"IN","latitude":"17.67152000","longitude":"75.91044000"},{"id":"133993","name":"Sonegaon","state_id":4008,"state_code":"MH","country_id":101,"country_code":"IN","latitude":"20.62915000","longitude":"78.69207000"},{"id":"134015","name":"Soygaon","state_id":4008,"state_code":"MH","country_id":101,"country_code":"IN","latitude":"20.59606000","longitude":"75.61765000"},{"id":"134033","name":"Srivardhan","state_id":4008,"state_code":"MH","country_id":101,"country_code":"IN","latitude":"18.04592000","longitude":"73.01552000"},{"id":"134052","name":"Surgana","state_id":4008,"state_code":"MH","country_id":101,"country_code":"IN","latitude":"20.55956000","longitude":"73.63747000"},{"id":"134100","name":"Talegaon Dabhade","state_id":4008,"state_code":"MH","country_id":101,"country_code":"IN","latitude":"18.73502000","longitude":"73.67561000"},{"id":"134104","name":"Taloda","state_id":4008,"state_code":"MH","country_id":101,"country_code":"IN","latitude":"21.56128000","longitude":"74.21238000"},{"id":"134241","name":"Tarapur","state_id":4008,"state_code":"MH","country_id":101,"country_code":"IN","latitude":"19.86499000","longitude":"72.68426000"},{"id":"134242","name":"Tasgaon","state_id":4008,"state_code":"MH","country_id":101,"country_code":"IN","latitude":"17.03700000","longitude":"74.60171000"},{"id":"134128","name":"Telhara","state_id":4008,"state_code":"MH","country_id":101,"country_code":"IN","latitude":"21.02694000","longitude":"76.83889000"},{"id":"134138","name":"Thane","state_id":4008,"state_code":"MH","country_id":101,"country_code":"IN","latitude":"19.33333000","longitude":"73.25000000"},{"id":"134166","name":"Thane","state_id":4008,"state_code":"MH","country_id":101,"country_code":"IN","latitude":"19.19704000","longitude":"72.96355000"},{"id":"134212","name":"Trimbak","state_id":4008,"state_code":"MH","country_id":101,"country_code":"IN","latitude":"19.93268000","longitude":"73.52907000"},{"id":"134217","name":"Tuljapur","state_id":4008,"state_code":"MH","country_id":101,"country_code":"IN","latitude":"18.00804000","longitude":"76.07011000"},{"id":"134221","name":"Tumsar","state_id":4008,"state_code":"MH","country_id":101,"country_code":"IN","latitude":"21.38333000","longitude":"79.73333000"},{"id":"134255","name":"Udgir","state_id":4008,"state_code":"MH","country_id":101,"country_code":"IN","latitude":"18.39258000","longitude":"77.11756000"},{"id":"134267","name":"Ulhasnagar","state_id":4008,"state_code":"MH","country_id":101,"country_code":"IN","latitude":"19.21667000","longitude":"73.15000000"},{"id":"134269","name":"Umarga","state_id":4008,"state_code":"MH","country_id":101,"country_code":"IN","latitude":"17.83841000","longitude":"76.62331000"},{"id":"134272","name":"Umarkhed","state_id":4008,"state_code":"MH","country_id":101,"country_code":"IN","latitude":"19.60144000","longitude":"77.68878000"},{"id":"134274","name":"Umred","state_id":4008,"state_code":"MH","country_id":101,"country_code":"IN","latitude":"20.85396000","longitude":"79.32466000"},{"id":"134291","name":"Uran","state_id":4008,"state_code":"MH","country_id":101,"country_code":"IN","latitude":"18.87813000","longitude":"72.93924000"},{"id":"134312","name":"Vaijapur","state_id":4008,"state_code":"MH","country_id":101,"country_code":"IN","latitude":"19.92672000","longitude":"74.72750000"},{"id":"134328","name":"Varangaon","state_id":4008,"state_code":"MH","country_id":101,"country_code":"IN","latitude":"21.01767000","longitude":"75.91042000"},{"id":"134334","name":"Vasind","state_id":4008,"state_code":"MH","country_id":101,"country_code":"IN","latitude":"19.40844000","longitude":"73.26285000"},{"id":"134379","name":"Vada","state_id":4008,"state_code":"MH","country_id":101,"country_code":"IN","latitude":"19.65347000","longitude":"73.14811000"},{"id":"134346","name":"Vengurla","state_id":4008,"state_code":"MH","country_id":101,"country_code":"IN","latitude":"15.86125000","longitude":"73.63182000"},{"id":"134368","name":"Virar","state_id":4008,"state_code":"MH","country_id":101,"country_code":"IN","latitude":"19.45591000","longitude":"72.81136000"},{"id":"134372","name":"Vite","state_id":4008,"state_code":"MH","country_id":101,"country_code":"IN","latitude":"17.27343000","longitude":"74.53792000"},{"id":"134388","name":"Wadgaon","state_id":4008,"state_code":"MH","country_id":101,"country_code":"IN","latitude":"18.73920000","longitude":"73.63945000"},{"id":"134390","name":"Wai","state_id":4008,"state_code":"MH","country_id":101,"country_code":"IN","latitude":"17.95276000","longitude":"73.89058000"},{"id":"134393","name":"Wani","state_id":4008,"state_code":"MH","country_id":101,"country_code":"IN","latitude":"20.05507000","longitude":"78.95313000"},{"id":"134396","name":"Wardha","state_id":4008,"state_code":"MH","country_id":101,"country_code":"IN","latitude":"20.73933000","longitude":"78.59784000"},{"id":"134397","name":"Warora","state_id":4008,"state_code":"MH","country_id":101,"country_code":"IN","latitude":"20.22885000","longitude":"79.00277000"},{"id":"134398","name":"Warud","state_id":4008,"state_code":"MH","country_id":101,"country_code":"IN","latitude":"21.47101000","longitude":"78.26965000"},{"id":"134399","name":"Washim","state_id":4008,"state_code":"MH","country_id":101,"country_code":"IN","latitude":"20.20000000","longitude":"77.20000000"},{"id":"134419","name":"Washim","state_id":4008,"state_code":"MH","country_id":101,"country_code":"IN","latitude":"20.11128000","longitude":"77.13300000"},{"id":"134427","name":"Yavatmal","state_id":4008,"state_code":"MH","country_id":101,"country_code":"IN","latitude":"20.15000000","longitude":"78.35000000"},{"id":"134428","name":"Yavatmal","state_id":4008,"state_code":"MH","country_id":101,"country_code":"IN","latitude":"20.39324000","longitude":"78.13201000"},{"id":"134438","name":"Yaval","state_id":4008,"state_code":"MH","country_id":101,"country_code":"IN","latitude":"21.16772000","longitude":"75.69762000"},{"id":"134434","name":"Yeola","state_id":4008,"state_code":"MH","country_id":101,"country_code":"IN","latitude":"20.04240000","longitude":"74.48944000"}]