[{"id":"57704","name":"Angul","state_id":4013,"state_code":"OR","country_id":101,"country_code":"IN","latitude":"20.84089000","longitude":"85.10192000"},{"id":"57705","name":"Angul District","state_id":4013,"state_code":"OR","country_id":101,"country_code":"IN","latitude":"20.84903000","longitude":"85.06079000"},{"id":"134465","name":"Asika","state_id":4013,"state_code":"OR","country_id":101,"country_code":"IN","latitude":"19.61114000","longitude":"84.65998000"},{"id":"134467","name":"Athagarh","state_id":4013,"state_code":"OR","country_id":101,"country_code":"IN","latitude":"20.51999000","longitude":"85.62965000"},{"id":"57785","name":"Bada Barabil","state_id":4013,"state_code":"OR","country_id":101,"country_code":"IN","latitude":"22.11186000","longitude":"85.38684000"},{"id":"57823","name":"Balasore","state_id":4013,"state_code":"OR","country_id":101,"country_code":"IN","latitude":"21.49266000","longitude":"86.93348000"},{"id":"57835","name":"Balangir","state_id":4013,"state_code":"OR","country_id":101,"country_code":"IN","latitude":"20.75000000","longitude":"83.25000000"},{"id":"57826","name":"Balimila","state_id":4013,"state_code":"OR","country_id":101,"country_code":"IN","latitude":"18.25167000","longitude":"82.10659000"},{"id":"57862","name":"Baragarh","state_id":4013,"state_code":"OR","country_id":101,"country_code":"IN","latitude":"21.33333000","longitude":"83.61667000"},{"id":"57866","name":"Barbil","state_id":4013,"state_code":"OR","country_id":101,"country_code":"IN","latitude":"22.10194000","longitude":"85.37752000"},{"id":"57869","name":"Bargarh","state_id":4013,"state_code":"OR","country_id":101,"country_code":"IN","latitude":"21.33348000","longitude":"83.61905000"},{"id":"57886","name":"Barpali","state_id":4013,"state_code":"OR","country_id":101,"country_code":"IN","latitude":"21.19005000","longitude":"83.58721000"},{"id":"57907","name":"Baud","state_id":4013,"state_code":"OR","country_id":101,"country_code":"IN","latitude":"20.83773000","longitude":"84.32618000"},{"id":"57908","name":"Baudh","state_id":4013,"state_code":"OR","country_id":101,"country_code":"IN","latitude":"20.83300000","longitude":"84.33300000"},{"id":"58114","name":"Baleshwar","state_id":4013,"state_code":"OR","country_id":101,"country_code":"IN","latitude":"21.50000000","longitude":"86.75000000"},{"id":"58117","name":"Balugaon","state_id":4013,"state_code":"OR","country_id":101,"country_code":"IN","latitude":"20.17838000","longitude":"85.11327000"},{"id":"58123","name":"Banapur","state_id":4013,"state_code":"OR","country_id":101,"country_code":"IN","latitude":"19.77889000","longitude":"85.17033000"},{"id":"58128","name":"Banki","state_id":4013,"state_code":"OR","country_id":101,"country_code":"IN","latitude":"20.37912000","longitude":"85.52953000"},{"id":"58129","name":"Banposh","state_id":4013,"state_code":"OR","country_id":101,"country_code":"IN","latitude":"22.24834000","longitude":"84.81044000"},{"id":"58149","name":"Basudebpur","state_id":4013,"state_code":"OR","country_id":101,"country_code":"IN","latitude":"21.11974000","longitude":"86.72896000"},{"id":"57921","name":"Belaguntha","state_id":4013,"state_code":"OR","country_id":101,"country_code":"IN","latitude":"19.88249000","longitude":"84.63801000"},{"id":"57953","name":"Bhadrak","state_id":4013,"state_code":"OR","country_id":101,"country_code":"IN","latitude":"21.00000000","longitude":"86.60000000"},{"id":"57954","name":"Bhadrakh","state_id":4013,"state_code":"OR","country_id":101,"country_code":"IN","latitude":"21.05447000","longitude":"86.51560000"},{"id":"57963","name":"Bhanjanagar","state_id":4013,"state_code":"OR","country_id":101,"country_code":"IN","latitude":"19.92719000","longitude":"84.58201000"},{"id":"57976","name":"Bhawanipatna","state_id":4013,"state_code":"OR","country_id":101,"country_code":"IN","latitude":"19.90717000","longitude":"83.16697000"},{"id":"57999","name":"Bhuban","state_id":4013,"state_code":"OR","country_id":101,"country_code":"IN","latitude":"20.88197000","longitude":"85.83334000"},{"id":"58000","name":"Bhubaneshwar","state_id":4013,"state_code":"OR","country_id":101,"country_code":"IN","latitude":"20.27241000","longitude":"85.83385000"},{"id":"58058","name":"Binka","state_id":4013,"state_code":"OR","country_id":101,"country_code":"IN","latitude":"21.02626000","longitude":"83.81197000"},{"id":"58060","name":"Birmitrapur","state_id":4013,"state_code":"OR","country_id":101,"country_code":"IN","latitude":"22.40000000","longitude":"84.76667000"},{"id":"58079","name":"Bolanikhodan","state_id":4013,"state_code":"OR","country_id":101,"country_code":"IN","latitude":"22.11312000","longitude":"85.33645000"},{"id":"58086","name":"Brahmapur","state_id":4013,"state_code":"OR","country_id":101,"country_code":"IN","latitude":"19.31151000","longitude":"84.79290000"},{"id":"58087","name":"Brajarajnagar","state_id":4013,"state_code":"OR","country_id":101,"country_code":"IN","latitude":"21.81667000","longitude":"83.91667000"},{"id":"58092","name":"Buguda","state_id":4013,"state_code":"OR","country_id":101,"country_code":"IN","latitude":"19.80806000","longitude":"84.79084000"},{"id":"58099","name":"Burla","state_id":4013,"state_code":"OR","country_id":101,"country_code":"IN","latitude":"21.50976000","longitude":"83.87259000"},{"id":"131510","name":"Chatrapur","state_id":4013,"state_code":"OR","country_id":101,"country_code":"IN","latitude":"19.35574000","longitude":"84.98359000"},{"id":"131594","name":"Champua","state_id":4013,"state_code":"OR","country_id":101,"country_code":"IN","latitude":"22.06734000","longitude":"85.66463000"},{"id":"131597","name":"Chandbali","state_id":4013,"state_code":"OR","country_id":101,"country_code":"IN","latitude":"20.77519000","longitude":"86.74139000"},{"id":"131550","name":"Chikitigarh","state_id":4013,"state_code":"OR","country_id":101,"country_code":"IN","latitude":"19.20233000","longitude":"84.61450000"},{"id":"131573","name":"Chittarkonda","state_id":4013,"state_code":"OR","country_id":101,"country_code":"IN","latitude":"18.12533000","longitude":"82.10890000"},{"id":"131633","name":"Cuttack","state_id":4013,"state_code":"OR","country_id":101,"country_code":"IN","latitude":"20.50000000","longitude":"86.25000000"},{"id":"131643","name":"Daitari","state_id":4013,"state_code":"OR","country_id":101,"country_code":"IN","latitude":"21.10000000","longitude":"85.75000000"},{"id":"131683","name":"Deogarh","state_id":4013,"state_code":"OR","country_id":101,"country_code":"IN","latitude":"21.53827000","longitude":"84.73337000"},{"id":"131735","name":"Dhenkanal","state_id":4013,"state_code":"OR","country_id":101,"country_code":"IN","latitude":"20.75000000","longitude":"85.50000000"},{"id":"131765","name":"Digapahandi","state_id":4013,"state_code":"OR","country_id":101,"country_code":"IN","latitude":"19.37275000","longitude":"84.57184000"},{"id":"131892","name":"Gajapati","state_id":4013,"state_code":"OR","country_id":101,"country_code":"IN","latitude":"18.91000000","longitude":"84.20000000"},{"id":"131914","name":"Ganjam","state_id":4013,"state_code":"OR","country_id":101,"country_code":"IN","latitude":"19.38705000","longitude":"85.05079000"},{"id":"131988","name":"Gopalpur","state_id":4013,"state_code":"OR","country_id":101,"country_code":"IN","latitude":"19.25861000","longitude":"84.90517000"},{"id":"132013","name":"Gudari","state_id":4013,"state_code":"OR","country_id":101,"country_code":"IN","latitude":"19.34762000","longitude":"83.78128000"},{"id":"132030","name":"Gunupur","state_id":4013,"state_code":"OR","country_id":101,"country_code":"IN","latitude":"19.08040000","longitude":"83.80879000"},{"id":"132148","name":"Hirakud","state_id":4013,"state_code":"OR","country_id":101,"country_code":"IN","latitude":"21.52502000","longitude":"83.87275000"},{"id":"132102","name":"Hinjilikatu","state_id":4013,"state_code":"OR","country_id":101,"country_code":"IN","latitude":"19.48166000","longitude":"84.74489000"},{"id":"132184","name":"Jagatsinghapur","state_id":4013,"state_code":"OR","country_id":101,"country_code":"IN","latitude":"20.25570000","longitude":"86.17112000"},{"id":"132185","name":"Jagatsinghpur","state_id":4013,"state_code":"OR","country_id":101,"country_code":"IN","latitude":"20.20000000","longitude":"86.30000000"},{"id":"132209","name":"Jajpur","state_id":4013,"state_code":"OR","country_id":101,"country_code":"IN","latitude":"20.84149000","longitude":"86.31237000"},{"id":"132213","name":"Jaleshwar","state_id":4013,"state_code":"OR","country_id":101,"country_code":"IN","latitude":"21.80176000","longitude":"87.22250000"},{"id":"132250","name":"Jatani","state_id":4013,"state_code":"OR","country_id":101,"country_code":"IN","latitude":"20.15975000","longitude":"85.70742000"},{"id":"132304","name":"Jajpur","state_id":4013,"state_code":"OR","country_id":101,"country_code":"IN","latitude":"20.84852000","longitude":"86.33729000"},{"id":"132265","name":"Jeypore","state_id":4013,"state_code":"OR","country_id":101,"country_code":"IN","latitude":"18.85630000","longitude":"82.57160000"},{"id":"132269","name":"Jharsuguda","state_id":4013,"state_code":"OR","country_id":101,"country_code":"IN","latitude":"21.85531000","longitude":"84.00698000"},{"id":"132270","name":"Jharsuguda District","state_id":4013,"state_code":"OR","country_id":101,"country_code":"IN","latitude":"21.85000000","longitude":"84.00000000"},{"id":"132338","name":"Kaintragarh","state_id":4013,"state_code":"OR","country_id":101,"country_code":"IN","latitude":"20.72115000","longitude":"84.53514000"},{"id":"132371","name":"Kandhamal","state_id":4013,"state_code":"OR","country_id":101,"country_code":"IN","latitude":"20.30000000","longitude":"84.00000000"},{"id":"132387","name":"Kantabanji","state_id":4013,"state_code":"OR","country_id":101,"country_code":"IN","latitude":"20.46709000","longitude":"82.92042000"},{"id":"132386","name":"Kantilo","state_id":4013,"state_code":"OR","country_id":101,"country_code":"IN","latitude":"20.36152000","longitude":"85.19212000"},{"id":"132687","name":"Kalahandi","state_id":4013,"state_code":"OR","country_id":101,"country_code":"IN","latitude":"19.75000000","longitude":"83.00000000"},{"id":"132695","name":"Kamakhyanagar","state_id":4013,"state_code":"OR","country_id":101,"country_code":"IN","latitude":"20.93385000","longitude":"85.54489000"},{"id":"132441","name":"Kendrapara","state_id":4013,"state_code":"OR","country_id":101,"country_code":"IN","latitude":"20.50000000","longitude":"86.50000000"},{"id":"132442","name":"Kendraparha","state_id":4013,"state_code":"OR","country_id":101,"country_code":"IN","latitude":"20.50166000","longitude":"86.42227000"},{"id":"132444","name":"Kendujhar","state_id":4013,"state_code":"OR","country_id":101,"country_code":"IN","latitude":"21.50000000","longitude":"85.50000000"},{"id":"132448","name":"Kesinga","state_id":4013,"state_code":"OR","country_id":101,"country_code":"IN","latitude":"20.18778000","longitude":"83.21949000"},{"id":"132458","name":"Khallikot","state_id":4013,"state_code":"OR","country_id":101,"country_code":"IN","latitude":"19.60908000","longitude":"85.08609000"},{"id":"132477","name":"Kharhial","state_id":4013,"state_code":"OR","country_id":101,"country_code":"IN","latitude":"20.28845000","longitude":"82.76060000"},{"id":"132501","name":"Khordha","state_id":4013,"state_code":"OR","country_id":101,"country_code":"IN","latitude":"20.20000000","longitude":"85.60000000"},{"id":"132508","name":"Khurda","state_id":4013,"state_code":"OR","country_id":101,"country_code":"IN","latitude":"20.18268000","longitude":"85.61629000"},{"id":"132527","name":"Kiri Buru","state_id":4013,"state_code":"OR","country_id":101,"country_code":"IN","latitude":"22.08333000","longitude":"85.35000000"},{"id":"132539","name":"Kodala","state_id":4013,"state_code":"OR","country_id":101,"country_code":"IN","latitude":"19.62425000","longitude":"84.94075000"},{"id":"132570","name":"Konarka","state_id":4013,"state_code":"OR","country_id":101,"country_code":"IN","latitude":"19.89758000","longitude":"86.11413000"},{"id":"132578","name":"Koraput","state_id":4013,"state_code":"OR","country_id":101,"country_code":"IN","latitude":"19.00000000","longitude":"83.00000000"},{"id":"132587","name":"Koraput","state_id":4013,"state_code":"OR","country_id":101,"country_code":"IN","latitude":"18.81199000","longitude":"82.71048000"},{"id":"132624","name":"Kuchaiburi","state_id":4013,"state_code":"OR","country_id":101,"country_code":"IN","latitude":"22.26675000","longitude":"86.17385000"},{"id":"132626","name":"Kuchinda","state_id":4013,"state_code":"OR","country_id":101,"country_code":"IN","latitude":"21.74356000","longitude":"84.34848000"},{"id":"132865","name":"Malakanagiri","state_id":4013,"state_code":"OR","country_id":101,"country_code":"IN","latitude":"18.36428000","longitude":"81.88800000"},{"id":"132871","name":"Malkangiri","state_id":4013,"state_code":"OR","country_id":101,"country_code":"IN","latitude":"18.25000000","longitude":"81.95000000"},{"id":"132954","name":"Mayurbhanj","state_id":4013,"state_code":"OR","country_id":101,"country_code":"IN","latitude":"21.75000000","longitude":"86.50000000"},{"id":"133104","name":"Nabarangpur","state_id":4013,"state_code":"OR","country_id":101,"country_code":"IN","latitude":"19.23330000","longitude":"82.55000000"},{"id":"133195","name":"Nayagarh District","state_id":4013,"state_code":"OR","country_id":101,"country_code":"IN","latitude":"20.13000000","longitude":"85.10000000"},{"id":"133196","name":"Nayagarh","state_id":4013,"state_code":"OR","country_id":101,"country_code":"IN","latitude":"20.12882000","longitude":"85.09626000"},{"id":"133285","name":"Nilgiri","state_id":4013,"state_code":"OR","country_id":101,"country_code":"IN","latitude":"21.46235000","longitude":"86.76794000"},{"id":"133219","name":"Nimaparha","state_id":4013,"state_code":"OR","country_id":101,"country_code":"IN","latitude":"20.05756000","longitude":"86.00436000"},{"id":"133245","name":"Nowrangapur","state_id":4013,"state_code":"OR","country_id":101,"country_code":"IN","latitude":"19.23114000","longitude":"82.54826000"},{"id":"133247","name":"Nuapada","state_id":4013,"state_code":"OR","country_id":101,"country_code":"IN","latitude":"20.60000000","longitude":"82.50000000"},{"id":"133312","name":"Padampur","state_id":4013,"state_code":"OR","country_id":101,"country_code":"IN","latitude":"20.99932000","longitude":"83.06325000"},{"id":"133370","name":"Paradip Garh","state_id":4013,"state_code":"OR","country_id":101,"country_code":"IN","latitude":"20.31641000","longitude":"86.60850000"},{"id":"133393","name":"Patamundai","state_id":4013,"state_code":"OR","country_id":101,"country_code":"IN","latitude":"20.57806000","longitude":"86.56063000"},{"id":"133387","name":"Patnagarh","state_id":4013,"state_code":"OR","country_id":101,"country_code":"IN","latitude":"20.70833000","longitude":"83.13263000"},{"id":"133441","name":"Phulbani","state_id":4013,"state_code":"OR","country_id":101,"country_code":"IN","latitude":"20.48101000","longitude":"84.23063000"},{"id":"133453","name":"Pipili","state_id":4013,"state_code":"OR","country_id":101,"country_code":"IN","latitude":"20.11357000","longitude":"85.83147000"},{"id":"133467","name":"Polasara","state_id":4013,"state_code":"OR","country_id":101,"country_code":"IN","latitude":"19.69386000","longitude":"84.81401000"},{"id":"133511","name":"Puri","state_id":4013,"state_code":"OR","country_id":101,"country_code":"IN","latitude":"19.90000000","longitude":"85.60000000"},{"id":"133513","name":"Purushottampur","state_id":4013,"state_code":"OR","country_id":101,"country_code":"IN","latitude":"19.52024000","longitude":"84.88514000"},{"id":"133602","name":"Rambha","state_id":4013,"state_code":"OR","country_id":101,"country_code":"IN","latitude":"19.51667000","longitude":"85.10000000"},{"id":"133620","name":"Raurkela","state_id":4013,"state_code":"OR","country_id":101,"country_code":"IN","latitude":"22.22496000","longitude":"84.86414000"},{"id":"133622","name":"Rayagada","state_id":4013,"state_code":"OR","country_id":101,"country_code":"IN","latitude":"19.40000000","longitude":"83.50000000"},{"id":"133625","name":"Remuna","state_id":4013,"state_code":"OR","country_id":101,"country_code":"IN","latitude":"21.52798000","longitude":"86.87156000"},{"id":"133626","name":"Rengali","state_id":4013,"state_code":"OR","country_id":101,"country_code":"IN","latitude":"21.64602000","longitude":"84.05311000"},{"id":"133769","name":"Sambalpur","state_id":4013,"state_code":"OR","country_id":101,"country_code":"IN","latitude":"21.40000000","longitude":"83.88333000"},{"id":"133994","name":"Sonepur","state_id":4013,"state_code":"OR","country_id":101,"country_code":"IN","latitude":"20.83333000","longitude":"83.91667000"},{"id":"134002","name":"Sorada","state_id":4013,"state_code":"OR","country_id":101,"country_code":"IN","latitude":"19.76082000","longitude":"84.42997000"},{"id":"134004","name":"Soro","state_id":4013,"state_code":"OR","country_id":101,"country_code":"IN","latitude":"21.27851000","longitude":"86.68833000"},{"id":"134034","name":"Subarnapur","state_id":4013,"state_code":"OR","country_id":101,"country_code":"IN","latitude":"20.93154000","longitude":"83.82486000"},{"id":"134044","name":"Sundargarh","state_id":4013,"state_code":"OR","country_id":101,"country_code":"IN","latitude":"22.25000000","longitude":"84.50000000"},{"id":"134115","name":"Tarabha","state_id":4013,"state_code":"OR","country_id":101,"country_code":"IN","latitude":"20.73252000","longitude":"83.67443000"},{"id":"134232","name":"Talcher","state_id":4013,"state_code":"OR","country_id":101,"country_code":"IN","latitude":"20.94927000","longitude":"85.23354000"},{"id":"134201","name":"Titlagarh","state_id":4013,"state_code":"OR","country_id":101,"country_code":"IN","latitude":"20.28961000","longitude":"83.15233000"},{"id":"134254","name":"Udayagiri","state_id":4013,"state_code":"OR","country_id":101,"country_code":"IN","latitude":"20.12416000","longitude":"84.36869000"}]