[{"id":"57593","name":"Addanki","state_id":4017,"state_code":"AP","country_id":101,"country_code":"IN","latitude":"15.81061000","longitude":"79.97338000"},{"id":"57620","name":"Akasahebpet","state_id":4017,"state_code":"AP","country_id":101,"country_code":"IN","latitude":"17.50455000","longitude":"82.56597000"},{"id":"57623","name":"Akividu","state_id":4017,"state_code":"AP","country_id":101,"country_code":"IN","latitude":"16.58225000","longitude":"81.38112000"},{"id":"57624","name":"Akkarampalle","state_id":4017,"state_code":"AP","country_id":101,"country_code":"IN","latitude":"13.65000000","longitude":"79.42000000"},{"id":"57658","name":"Amalapuram","state_id":4017,"state_code":"AP","country_id":101,"country_code":"IN","latitude":"16.57868000","longitude":"82.00609000"},{"id":"57690","name":"Amudalavalasa","state_id":4017,"state_code":"AP","country_id":101,"country_code":"IN","latitude":"18.41025000","longitude":"83.90295000"},{"id":"57693","name":"Anakapalle","state_id":4017,"state_code":"AP","country_id":101,"country_code":"IN","latitude":"17.69134000","longitude":"83.00395000"},{"id":"57698","name":"Anantapur","state_id":4017,"state_code":"AP","country_id":101,"country_code":"IN","latitude":"14.55000000","longitude":"77.41667000"},{"id":"57758","name":"Atmakur","state_id":4017,"state_code":"AP","country_id":101,"country_code":"IN","latitude":"15.88109000","longitude":"78.58704000"},{"id":"57761","name":"Attili","state_id":4017,"state_code":"AP","country_id":101,"country_code":"IN","latitude":"16.70000000","longitude":"81.60000000"},{"id":"57771","name":"Avanigadda","state_id":4017,"state_code":"AP","country_id":101,"country_code":"IN","latitude":"16.02148000","longitude":"80.91808000"},{"id":"134452","name":"Adoni","state_id":4017,"state_code":"AP","country_id":101,"country_code":"IN","latitude":"15.62788000","longitude":"77.27495000"},{"id":"57794","name":"Badvel","state_id":4017,"state_code":"AP","country_id":101,"country_code":"IN","latitude":"14.74510000","longitude":"79.06288000"},{"id":"57849","name":"Banganapalle","state_id":4017,"state_code":"AP","country_id":101,"country_code":"IN","latitude":"15.31771000","longitude":"78.22669000"},{"id":"58137","name":"Bapatla","state_id":4017,"state_code":"AP","country_id":101,"country_code":"IN","latitude":"15.90422000","longitude":"80.46743000"},{"id":"57939","name":"Betamcherla","state_id":4017,"state_code":"AP","country_id":101,"country_code":"IN","latitude":"15.45144000","longitude":"78.14797000"},{"id":"57971","name":"Bhattiprolu","state_id":4017,"state_code":"AP","country_id":101,"country_code":"IN","latitude":"16.10260000","longitude":"80.78074000"},{"id":"58021","name":"Bhimavaram","state_id":4017,"state_code":"AP","country_id":101,"country_code":"IN","latitude":"16.54078000","longitude":"81.52322000"},{"id":"58022","name":"Bhimunipatnam","state_id":4017,"state_code":"AP","country_id":101,"country_code":"IN","latitude":"17.89017000","longitude":"83.45203000"},{"id":"58070","name":"Bobbili","state_id":4017,"state_code":"AP","country_id":101,"country_code":"IN","latitude":"18.57366000","longitude":"83.35925000"},{"id":"58179","name":"Challapalle","state_id":4017,"state_code":"AP","country_id":101,"country_code":"IN","latitude":"16.11756000","longitude":"80.93139000"},{"id":"131611","name":"Chipurupalle","state_id":4017,"state_code":"AP","country_id":101,"country_code":"IN","latitude":"18.31142000","longitude":"83.56846000"},{"id":"131612","name":"Chirala","state_id":4017,"state_code":"AP","country_id":101,"country_code":"IN","latitude":"15.82385000","longitude":"80.35219000"},{"id":"131514","name":"Chemmumiahpet","state_id":4017,"state_code":"AP","country_id":101,"country_code":"IN","latitude":"15.89794000","longitude":"79.32129000"},{"id":"131556","name":"Chilakalurupet","state_id":4017,"state_code":"AP","country_id":101,"country_code":"IN","latitude":"16.08987000","longitude":"80.16705000"},{"id":"131563","name":"Chinnachowk","state_id":4017,"state_code":"AP","country_id":101,"country_code":"IN","latitude":"14.47516000","longitude":"78.83540000"},{"id":"131575","name":"Chittoor","state_id":4017,"state_code":"AP","country_id":101,"country_code":"IN","latitude":"13.41667000","longitude":"79.00000000"},{"id":"131577","name":"Chodavaram","state_id":4017,"state_code":"AP","country_id":101,"country_code":"IN","latitude":"17.82884000","longitude":"82.93526000"},{"id":"131627","name":"Cuddapah","state_id":4017,"state_code":"AP","country_id":101,"country_code":"IN","latitude":"14.41667000","longitude":"78.75000000"},{"id":"131628","name":"Cumbum","state_id":4017,"state_code":"AP","country_id":101,"country_code":"IN","latitude":"15.58171000","longitude":"79.11059000"},{"id":"131658","name":"Darsi","state_id":4017,"state_code":"AP","country_id":101,"country_code":"IN","latitude":"15.76978000","longitude":"79.67939000"},{"id":"131727","name":"Dharmavaram","state_id":4017,"state_code":"AP","country_id":101,"country_code":"IN","latitude":"14.41435000","longitude":"77.72035000"},{"id":"131740","name":"Dhone","state_id":4017,"state_code":"AP","country_id":101,"country_code":"IN","latitude":"15.39520000","longitude":"77.87150000"},{"id":"131769","name":"Diguvametta","state_id":4017,"state_code":"AP","country_id":101,"country_code":"IN","latitude":"15.39507000","longitude":"78.82930000"},{"id":"131823","name":"East Godavari","state_id":4017,"state_code":"AP","country_id":101,"country_code":"IN","latitude":"17.83333000","longitude":"81.83333000"},{"id":"131830","name":"Elamanchili","state_id":4017,"state_code":"AP","country_id":101,"country_code":"IN","latitude":"17.54907000","longitude":"82.85749000"},{"id":"131832","name":"Ellore","state_id":4017,"state_code":"AP","country_id":101,"country_code":"IN","latitude":"16.71311000","longitude":"81.10437000"},{"id":"131836","name":"Emmiganur","state_id":4017,"state_code":"AP","country_id":101,"country_code":"IN","latitude":"15.77203000","longitude":"77.48345000"},{"id":"131842","name":"Erraguntla","state_id":4017,"state_code":"AP","country_id":101,"country_code":"IN","latitude":"14.63853000","longitude":"78.53974000"},{"id":"131846","name":"Etikoppaka","state_id":4017,"state_code":"AP","country_id":101,"country_code":"IN","latitude":"17.50000000","longitude":"82.73333000"},{"id":"131895","name":"Gajuwaka","state_id":4017,"state_code":"AP","country_id":101,"country_code":"IN","latitude":"17.70000000","longitude":"83.21667000"},{"id":"131906","name":"Ganguvada","state_id":4017,"state_code":"AP","country_id":101,"country_code":"IN","latitude":"18.66667000","longitude":"84.11667000"},{"id":"131915","name":"Gannavaram","state_id":4017,"state_code":"AP","country_id":101,"country_code":"IN","latitude":"16.54092000","longitude":"80.80213000"},{"id":"132051","name":"Gudur","state_id":4017,"state_code":"AP","country_id":101,"country_code":"IN","latitude":"14.15093000","longitude":"79.85210000"},{"id":"131955","name":"Giddalur","state_id":4017,"state_code":"AP","country_id":101,"country_code":"IN","latitude":"15.37439000","longitude":"78.92609000"},{"id":"131972","name":"Gokavaram","state_id":4017,"state_code":"AP","country_id":101,"country_code":"IN","latitude":"17.25823000","longitude":"81.84985000"},{"id":"131993","name":"Gorantla","state_id":4017,"state_code":"AP","country_id":101,"country_code":"IN","latitude":"13.98411000","longitude":"77.77224000"},{"id":"132001","name":"Govindapuram,Chilakaluripet,Guntur","state_id":4017,"state_code":"AP","country_id":101,"country_code":"IN","latitude":"16.15477000","longitude":"80.10279000"},{"id":"132010","name":"Gudivada","state_id":4017,"state_code":"AP","country_id":101,"country_code":"IN","latitude":"16.43547000","longitude":"80.99555000"},{"id":"132012","name":"Gudlavalleru","state_id":4017,"state_code":"AP","country_id":101,"country_code":"IN","latitude":"16.35000000","longitude":"81.05000000"},{"id":"132027","name":"Guntakal Junction","state_id":4017,"state_code":"AP","country_id":101,"country_code":"IN","latitude":"15.17112000","longitude":"77.36244000"},{"id":"132029","name":"Guntur","state_id":4017,"state_code":"AP","country_id":101,"country_code":"IN","latitude":"16.41667000","longitude":"80.25000000"},{"id":"132028","name":"Guntur","state_id":4017,"state_code":"AP","country_id":101,"country_code":"IN","latitude":"16.29974000","longitude":"80.45729000"},{"id":"132099","name":"Hindupur","state_id":4017,"state_code":"AP","country_id":101,"country_code":"IN","latitude":"13.82807000","longitude":"77.49143000"},{"id":"132151","name":"Ichchapuram","state_id":4017,"state_code":"AP","country_id":101,"country_code":"IN","latitude":"19.11393000","longitude":"84.68721000"},{"id":"132189","name":"Jaggayyapeta","state_id":4017,"state_code":"AP","country_id":101,"country_code":"IN","latitude":"16.89380000","longitude":"80.09807000"},{"id":"132228","name":"Jammalamadugu","state_id":4017,"state_code":"AP","country_id":101,"country_code":"IN","latitude":"14.84677000","longitude":"78.38314000"},{"id":"132328","name":"Kadiri","state_id":4017,"state_code":"AP","country_id":101,"country_code":"IN","latitude":"14.11168000","longitude":"78.15982000"},{"id":"132332","name":"Kaikalur","state_id":4017,"state_code":"AP","country_id":101,"country_code":"IN","latitude":"16.55154000","longitude":"81.21400000"},{"id":"132358","name":"Kalyandurg","state_id":4017,"state_code":"AP","country_id":101,"country_code":"IN","latitude":"14.54519000","longitude":"77.10552000"},{"id":"132372","name":"Kandukur","state_id":4017,"state_code":"AP","country_id":101,"country_code":"IN","latitude":"15.21542000","longitude":"79.90390000"},{"id":"132374","name":"Kanigiri","state_id":4017,"state_code":"AP","country_id":101,"country_code":"IN","latitude":"15.40555000","longitude":"79.50694000"},{"id":"132376","name":"Kankipadu","state_id":4017,"state_code":"AP","country_id":101,"country_code":"IN","latitude":"16.43530000","longitude":"80.76715000"},{"id":"132388","name":"Kanuru","state_id":4017,"state_code":"AP","country_id":101,"country_code":"IN","latitude":"16.28584000","longitude":"81.25464000"},{"id":"132678","name":"Kakinada","state_id":4017,"state_code":"AP","country_id":101,"country_code":"IN","latitude":"16.96036000","longitude":"82.23809000"},{"id":"132691","name":"Kamalapuram","state_id":4017,"state_code":"AP","country_id":101,"country_code":"IN","latitude":"14.59830000","longitude":"78.66948000"},{"id":"132729","name":"Kavali","state_id":4017,"state_code":"AP","country_id":101,"country_code":"IN","latitude":"14.91630000","longitude":"79.99449000"},{"id":"132552","name":"Kolanukonda","state_id":4017,"state_code":"AP","country_id":101,"country_code":"IN","latitude":"16.45392000","longitude":"80.61046000"},{"id":"132567","name":"Kondapalle","state_id":4017,"state_code":"AP","country_id":101,"country_code":"IN","latitude":"16.61989000","longitude":"80.54244000"},{"id":"132584","name":"Korukollu","state_id":4017,"state_code":"AP","country_id":101,"country_code":"IN","latitude":"16.50000000","longitude":"81.25000000"},{"id":"132590","name":"Kosigi","state_id":4017,"state_code":"AP","country_id":101,"country_code":"IN","latitude":"15.85510000","longitude":"77.24463000"},{"id":"132617","name":"Kovur","state_id":4017,"state_code":"AP","country_id":101,"country_code":"IN","latitude":"14.50050000","longitude":"79.98518000"},{"id":"132616","name":"Kovvur","state_id":4017,"state_code":"AP","country_id":101,"country_code":"IN","latitude":"17.01620000","longitude":"81.72934000"},{"id":"132621","name":"Krishna","state_id":4017,"state_code":"AP","country_id":101,"country_code":"IN","latitude":"16.66667000","longitude":"81.00000000"},{"id":"132653","name":"Kuppam","state_id":4017,"state_code":"AP","country_id":101,"country_code":"IN","latitude":"12.74931000","longitude":"78.34189000"},{"id":"132660","name":"Kurnool","state_id":4017,"state_code":"AP","country_id":101,"country_code":"IN","latitude":"15.58333000","longitude":"78.33333000"},{"id":"132806","name":"Machilipatnam","state_id":4017,"state_code":"AP","country_id":101,"country_code":"IN","latitude":"16.18747000","longitude":"81.13888000"},{"id":"132808","name":"Madanapalle","state_id":4017,"state_code":"AP","country_id":101,"country_code":"IN","latitude":"13.55030000","longitude":"78.50288000"},{"id":"132890","name":"Mandapeta","state_id":4017,"state_code":"AP","country_id":101,"country_code":"IN","latitude":"16.86254000","longitude":"81.92921000"},{"id":"132891","name":"Mandasa","state_id":4017,"state_code":"AP","country_id":101,"country_code":"IN","latitude":"18.86830000","longitude":"84.46296000"},{"id":"132902","name":"Mangalagiri","state_id":4017,"state_code":"AP","country_id":101,"country_code":"IN","latitude":"16.43083000","longitude":"80.56815000"},{"id":"133055","name":"Macherla","state_id":4017,"state_code":"AP","country_id":101,"country_code":"IN","latitude":"16.47635000","longitude":"79.43533000"},{"id":"133059","name":"Madugula","state_id":4017,"state_code":"AP","country_id":101,"country_code":"IN","latitude":"17.91589000","longitude":"82.81578000"},{"id":"133088","name":"Markapur","state_id":4017,"state_code":"AP","country_id":101,"country_code":"IN","latitude":"15.73534000","longitude":"79.26848000"},{"id":"133114","name":"Nagari","state_id":4017,"state_code":"AP","country_id":101,"country_code":"IN","latitude":"13.32139000","longitude":"79.58557000"},{"id":"133143","name":"Nandigama","state_id":4017,"state_code":"AP","country_id":101,"country_code":"IN","latitude":"16.77170000","longitude":"80.28596000"},{"id":"133144","name":"Nandikotkur","state_id":4017,"state_code":"AP","country_id":101,"country_code":"IN","latitude":"15.85668000","longitude":"78.26569000"},{"id":"133146","name":"Nandyal","state_id":4017,"state_code":"AP","country_id":101,"country_code":"IN","latitude":"15.47799000","longitude":"78.48360000"},{"id":"133156","name":"Narasannapeta","state_id":4017,"state_code":"AP","country_id":101,"country_code":"IN","latitude":"18.41428000","longitude":"84.04463000"},{"id":"133157","name":"Narasapur","state_id":4017,"state_code":"AP","country_id":101,"country_code":"IN","latitude":"16.43425000","longitude":"81.69845000"},{"id":"133158","name":"Narasaraopet","state_id":4017,"state_code":"AP","country_id":101,"country_code":"IN","latitude":"16.23488000","longitude":"80.04927000"},{"id":"133160","name":"Narasingapuram","state_id":4017,"state_code":"AP","country_id":101,"country_code":"IN","latitude":"13.60759000","longitude":"79.31652000"},{"id":"133173","name":"Narsipatnam","state_id":4017,"state_code":"AP","country_id":101,"country_code":"IN","latitude":"17.66709000","longitude":"82.61245000"},{"id":"133258","name":"Nagireddipalli","state_id":4017,"state_code":"AP","country_id":101,"country_code":"IN","latitude":"14.27005000","longitude":"79.10131000"},{"id":"133275","name":"Narayanavanam","state_id":4017,"state_code":"AP","country_id":101,"country_code":"IN","latitude":"13.42565000","longitude":"79.58881000"},{"id":"133283","name":"Nayudupet","state_id":4017,"state_code":"AP","country_id":101,"country_code":"IN","latitude":"13.90742000","longitude":"79.89465000"},{"id":"133294","name":"Nuzvid","state_id":4017,"state_code":"AP","country_id":101,"country_code":"IN","latitude":"16.78854000","longitude":"80.84593000"},{"id":"133206","name":"Nellore","state_id":4017,"state_code":"AP","country_id":101,"country_code":"IN","latitude":"14.08333000","longitude":"79.58333000"},{"id":"133214","name":"Nidadavole","state_id":4017,"state_code":"AP","country_id":101,"country_code":"IN","latitude":"16.90572000","longitude":"81.67222000"},{"id":"133300","name":"Ongole","state_id":4017,"state_code":"AP","country_id":101,"country_code":"IN","latitude":"15.50357000","longitude":"80.04454000"},{"id":"133340","name":"Palasa","state_id":4017,"state_code":"AP","country_id":101,"country_code":"IN","latitude":"18.77257000","longitude":"84.41012000"},{"id":"133331","name":"Pallevada","state_id":4017,"state_code":"AP","country_id":101,"country_code":"IN","latitude":"16.57790000","longitude":"81.29463000"},{"id":"133336","name":"Palmaner","state_id":4017,"state_code":"AP","country_id":101,"country_code":"IN","latitude":"13.20000000","longitude":"78.74725000"},{"id":"133361","name":"Parlakimidi","state_id":4017,"state_code":"AP","country_id":101,"country_code":"IN","latitude":"18.78113000","longitude":"84.08836000"},{"id":"133395","name":"Pavuluru","state_id":4017,"state_code":"AP","country_id":101,"country_code":"IN","latitude":"15.85292000","longitude":"80.16468000"},{"id":"133521","name":"Pakala","state_id":4017,"state_code":"AP","country_id":101,"country_code":"IN","latitude":"13.44903000","longitude":"79.11493000"},{"id":"133523","name":"Palakollu","state_id":4017,"state_code":"AP","country_id":101,"country_code":"IN","latitude":"16.51670000","longitude":"81.73000000"},{"id":"133534","name":"Palkonda","state_id":4017,"state_code":"AP","country_id":101,"country_code":"IN","latitude":"18.60374000","longitude":"83.75568000"},{"id":"133549","name":"Parvatipuram","state_id":4017,"state_code":"AP","country_id":101,"country_code":"IN","latitude":"18.78392000","longitude":"83.42569000"},{"id":"133400","name":"Pedana","state_id":4017,"state_code":"AP","country_id":101,"country_code":"IN","latitude":"16.25582000","longitude":"81.14378000"},{"id":"134447","name":"pedda nakkalapalem","state_id":4017,"state_code":"AP","country_id":101,"country_code":"IN","latitude":"15.86680000","longitude":"80.16202000"},{"id":"133402","name":"Peddapuram","state_id":4017,"state_code":"AP","country_id":101,"country_code":"IN","latitude":"17.07701000","longitude":"82.13836000"},{"id":"133409","name":"Penugonda","state_id":4017,"state_code":"AP","country_id":101,"country_code":"IN","latitude":"16.65363000","longitude":"81.74550000"},{"id":"133410","name":"Penukonda","state_id":4017,"state_code":"AP","country_id":101,"country_code":"IN","latitude":"14.08286000","longitude":"77.59473000"},{"id":"133440","name":"Phirangipuram","state_id":4017,"state_code":"AP","country_id":101,"country_code":"IN","latitude":"16.29078000","longitude":"80.26233000"},{"id":"133455","name":"Pippara","state_id":4017,"state_code":"AP","country_id":101,"country_code":"IN","latitude":"16.71667000","longitude":"81.55000000"},{"id":"133465","name":"Pithapuram","state_id":4017,"state_code":"AP","country_id":101,"country_code":"IN","latitude":"17.11680000","longitude":"82.25284000"},{"id":"133468","name":"Polavaram","state_id":4017,"state_code":"AP","country_id":101,"country_code":"IN","latitude":"17.24754000","longitude":"81.64372000"},{"id":"133478","name":"Ponnuru","state_id":4017,"state_code":"AP","country_id":101,"country_code":"IN","latitude":"16.06547000","longitude":"80.55203000"},{"id":"133476","name":"Ponnur","state_id":4017,"state_code":"AP","country_id":101,"country_code":"IN","latitude":"16.07114000","longitude":"80.54944000"},{"id":"133485","name":"Prakasam","state_id":4017,"state_code":"AP","country_id":101,"country_code":"IN","latitude":"15.50000000","longitude":"79.50000000"},{"id":"133489","name":"Proddatur","state_id":4017,"state_code":"AP","country_id":101,"country_code":"IN","latitude":"14.75020000","longitude":"78.54813000"},{"id":"133497","name":"Pulivendla","state_id":4017,"state_code":"AP","country_id":101,"country_code":"IN","latitude":"14.42139000","longitude":"78.22502000"},{"id":"133506","name":"Punganuru","state_id":4017,"state_code":"AP","country_id":101,"country_code":"IN","latitude":"13.36672000","longitude":"78.57186000"},{"id":"133517","name":"Puttaparthi","state_id":4017,"state_code":"AP","country_id":101,"country_code":"IN","latitude":"14.16520000","longitude":"77.81170000"},{"id":"133519","name":"Puttur","state_id":4017,"state_code":"AP","country_id":101,"country_code":"IN","latitude":"13.44189000","longitude":"79.55314000"},{"id":"133600","name":"Ramanayyapeta","state_id":4017,"state_code":"AP","country_id":101,"country_code":"IN","latitude":"16.94516000","longitude":"82.23850000"},{"id":"133605","name":"Rampachodavaram","state_id":4017,"state_code":"AP","country_id":101,"country_code":"IN","latitude":"17.44088000","longitude":"81.77558000"},{"id":"133671","name":"Rajahmundry","state_id":4017,"state_code":"AP","country_id":101,"country_code":"IN","latitude":"17.00517000","longitude":"81.77784000"},{"id":"133691","name":"Ramachandrapuram","state_id":4017,"state_code":"AP","country_id":101,"country_code":"IN","latitude":"16.83636000","longitude":"82.02871000"},{"id":"133712","name":"Ramapuram","state_id":4017,"state_code":"AP","country_id":101,"country_code":"IN","latitude":"15.28749000","longitude":"77.86722000"},{"id":"133729","name":"Rayachoti","state_id":4017,"state_code":"AP","country_id":101,"country_code":"IN","latitude":"14.05723000","longitude":"78.75056000"},{"id":"133730","name":"Rayadrug","state_id":4017,"state_code":"AP","country_id":101,"country_code":"IN","latitude":"14.69971000","longitude":"76.85241000"},{"id":"133732","name":"Razampeta","state_id":4017,"state_code":"AP","country_id":101,"country_code":"IN","latitude":"14.19544000","longitude":"79.15896000"},{"id":"133734","name":"Razam","state_id":4017,"state_code":"AP","country_id":101,"country_code":"IN","latitude":"18.44909000","longitude":"83.65957000"},{"id":"133733","name":"Razole","state_id":4017,"state_code":"AP","country_id":101,"country_code":"IN","latitude":"16.47608000","longitude":"81.83912000"},{"id":"133627","name":"Renigunta","state_id":4017,"state_code":"AP","country_id":101,"country_code":"IN","latitude":"13.65143000","longitude":"79.51256000"},{"id":"133630","name":"Repalle","state_id":4017,"state_code":"AP","country_id":101,"country_code":"IN","latitude":"16.01840000","longitude":"80.82958000"},{"id":"133822","name":"Sattenapalle","state_id":4017,"state_code":"AP","country_id":101,"country_code":"IN","latitude":"16.39381000","longitude":"80.15221000"},{"id":"134065","name":"Salur","state_id":4017,"state_code":"AP","country_id":101,"country_code":"IN","latitude":"18.51716000","longitude":"83.20548000"},{"id":"134066","name":"Samalkot","state_id":4017,"state_code":"AP","country_id":101,"country_code":"IN","latitude":"17.05675000","longitude":"82.17639000"},{"id":"134093","name":"Suluru","state_id":4017,"state_code":"AP","country_id":101,"country_code":"IN","latitude":"13.70000000","longitude":"80.01667000"},{"id":"133946","name":"Singarayakonda","state_id":4017,"state_code":"AP","country_id":101,"country_code":"IN","latitude":"15.23046000","longitude":"80.02794000"},{"id":"133990","name":"Sompeta","state_id":4017,"state_code":"AP","country_id":101,"country_code":"IN","latitude":"18.94419000","longitude":"84.58449000"},{"id":"134025","name":"Srikakulam","state_id":4017,"state_code":"AP","country_id":101,"country_code":"IN","latitude":"18.50000000","longitude":"84.00000000"},{"id":"134032","name":"Srisailain","state_id":4017,"state_code":"AP","country_id":101,"country_code":"IN","latitude":"16.07217000","longitude":"78.86816000"},{"id":"134019","name":"Srikakulam","state_id":4017,"state_code":"AP","country_id":101,"country_code":"IN","latitude":"18.29890000","longitude":"83.89751000"},{"id":"134113","name":"Tanuku","state_id":4017,"state_code":"AP","country_id":101,"country_code":"IN","latitude":"16.75438000","longitude":"81.68143000"},{"id":"134226","name":"Tadepalle","state_id":4017,"state_code":"AP","country_id":101,"country_code":"IN","latitude":"16.48333000","longitude":"80.60000000"},{"id":"134227","name":"Tadepallegudem","state_id":4017,"state_code":"AP","country_id":101,"country_code":"IN","latitude":"16.81467000","longitude":"81.52717000"},{"id":"134228","name":"Tadpatri","state_id":4017,"state_code":"AP","country_id":101,"country_code":"IN","latitude":"14.90832000","longitude":"78.01031000"},{"id":"134126","name":"Tekkali","state_id":4017,"state_code":"AP","country_id":101,"country_code":"IN","latitude":"18.60570000","longitude":"84.23546000"},{"id":"134183","name":"Tirumala","state_id":4017,"state_code":"AP","country_id":101,"country_code":"IN","latitude":"13.68333000","longitude":"79.35000000"},{"id":"134187","name":"Tirupati","state_id":4017,"state_code":"AP","country_id":101,"country_code":"IN","latitude":"13.63551000","longitude":"79.41989000"},{"id":"134222","name":"Tuni","state_id":4017,"state_code":"AP","country_id":101,"country_code":"IN","latitude":"17.35905000","longitude":"82.54607000"},{"id":"134292","name":"Uravakonda","state_id":4017,"state_code":"AP","country_id":101,"country_code":"IN","latitude":"14.94348000","longitude":"77.25494000"},{"id":"134448","name":"vadlamuru","state_id":4017,"state_code":"AP","country_id":101,"country_code":"IN","latitude":"17.09545000","longitude":"82.16565000"},{"id":"134308","name":"Vadlapudi","state_id":4017,"state_code":"AP","country_id":101,"country_code":"IN","latitude":"14.31119000","longitude":"79.80430000"},{"id":"134347","name":"Venkatagiri","state_id":4017,"state_code":"AP","country_id":101,"country_code":"IN","latitude":"13.96005000","longitude":"79.58032000"},{"id":"134348","name":"Vepagunta","state_id":4017,"state_code":"AP","country_id":101,"country_code":"IN","latitude":"17.77844000","longitude":"83.21577000"},{"id":"134350","name":"Vetapalem","state_id":4017,"state_code":"AP","country_id":101,"country_code":"IN","latitude":"15.78502000","longitude":"80.30663000"},{"id":"134356","name":"Vijayawada","state_id":4017,"state_code":"AP","country_id":101,"country_code":"IN","latitude":"16.50745000","longitude":"80.64660000"},{"id":"134364","name":"Vinukonda","state_id":4017,"state_code":"AP","country_id":101,"country_code":"IN","latitude":"16.05310000","longitude":"79.73964000"},{"id":"134369","name":"Visakhapatnam","state_id":4017,"state_code":"AP","country_id":101,"country_code":"IN","latitude":"17.68009000","longitude":"83.20161000"},{"id":"134370","name":"Vishakhapatnam","state_id":4017,"state_code":"AP","country_id":101,"country_code":"IN","latitude":"17.73333000","longitude":"83.26667000"},{"id":"134373","name":"Vizianagaram","state_id":4017,"state_code":"AP","country_id":101,"country_code":"IN","latitude":"18.11692000","longitude":"83.41148000"},{"id":"134374","name":"Vizianagaram District","state_id":4017,"state_code":"AP","country_id":101,"country_code":"IN","latitude":"18.41102000","longitude":"83.37677000"},{"id":"134377","name":"Vuyyuru","state_id":4017,"state_code":"AP","country_id":101,"country_code":"IN","latitude":"16.36307000","longitude":"80.84406000"},{"id":"134407","name":"West Godavari","state_id":4017,"state_code":"AP","country_id":101,"country_code":"IN","latitude":"17.00000000","longitude":"81.16667000"},{"id":"134424","name":"Yanam","state_id":4017,"state_code":"AP","country_id":101,"country_code":"IN","latitude":"16.73308000","longitude":"82.21364000"},{"id":"134426","name":"Yanamalakuduru","state_id":4017,"state_code":"AP","country_id":101,"country_code":"IN","latitude":"16.48531000","longitude":"80.66746000"},{"id":"134437","name":"Yarada","state_id":4017,"state_code":"AP","country_id":101,"country_code":"IN","latitude":"17.65872000","longitude":"83.27419000"}]