[{"id":"57736","name":"Arki","state_id":4020,"state_code":"HP","country_id":101,"country_code":"IN","latitude":"31.15196000","longitude":"76.96675000"},{"id":"57789","name":"Baddi","state_id":4020,"state_code":"HP","country_id":101,"country_code":"IN","latitude":"30.95783000","longitude":"76.79136000"},{"id":"57853","name":"Banjar","state_id":4020,"state_code":"HP","country_id":101,"country_code":"IN","latitude":"31.63900000","longitude":"77.34055000"},{"id":"58041","name":"Bilaspur","state_id":4020,"state_code":"HP","country_id":101,"country_code":"IN","latitude":"31.33027000","longitude":"76.75663000"},{"id":"58056","name":"Bilaspur","state_id":4020,"state_code":"HP","country_id":101,"country_code":"IN","latitude":"31.33333000","longitude":"76.75000000"},{"id":"58181","name":"Chamba","state_id":4020,"state_code":"HP","country_id":101,"country_code":"IN","latitude":"32.57147000","longitude":"76.10229000"},{"id":"131512","name":"Chaupal","state_id":4020,"state_code":"HP","country_id":101,"country_code":"IN","latitude":"30.94647000","longitude":"77.58840000"},{"id":"131583","name":"Chowari","state_id":4020,"state_code":"HP","country_id":101,"country_code":"IN","latitude":"32.43190000","longitude":"76.01200000"},{"id":"131587","name":"Chuari Khas","state_id":4020,"state_code":"HP","country_id":101,"country_code":"IN","latitude":"32.43058000","longitude":"76.01428000"},{"id":"131641","name":"Dagshai","state_id":4020,"state_code":"HP","country_id":101,"country_code":"IN","latitude":"30.88431000","longitude":"77.05228000"},{"id":"131645","name":"Dalhousie","state_id":4020,"state_code":"HP","country_id":101,"country_code":"IN","latitude":"32.55219000","longitude":"75.94663000"},{"id":"131665","name":"Daulatpur","state_id":4020,"state_code":"HP","country_id":101,"country_code":"IN","latitude":"31.78871000","longitude":"75.99154000"},{"id":"131694","name":"Dera Gopipur","state_id":4020,"state_code":"HP","country_id":101,"country_code":"IN","latitude":"31.87919000","longitude":"76.21871000"},{"id":"131721","name":"Dharamsala","state_id":4020,"state_code":"HP","country_id":101,"country_code":"IN","latitude":"32.22006000","longitude":"76.32013000"},{"id":"131891","name":"Gagret","state_id":4020,"state_code":"HP","country_id":101,"country_code":"IN","latitude":"31.65846000","longitude":"76.06144000"},{"id":"131949","name":"Ghumarwin","state_id":4020,"state_code":"HP","country_id":101,"country_code":"IN","latitude":"31.44166000","longitude":"76.71509000"},{"id":"132063","name":"Hamirpur","state_id":4020,"state_code":"HP","country_id":101,"country_code":"IN","latitude":"31.75000000","longitude":"76.50000000"},{"id":"132255","name":"Jawala Mukhi","state_id":4020,"state_code":"HP","country_id":101,"country_code":"IN","latitude":"31.87456000","longitude":"76.32013000"},{"id":"132289","name":"Jogindarnagar","state_id":4020,"state_code":"HP","country_id":101,"country_code":"IN","latitude":"31.98727000","longitude":"76.78906000"},{"id":"132298","name":"Jubbal","state_id":4020,"state_code":"HP","country_id":101,"country_code":"IN","latitude":"31.10923000","longitude":"77.65085000"},{"id":"132302","name":"Jutogh","state_id":4020,"state_code":"HP","country_id":101,"country_code":"IN","latitude":"31.10000000","longitude":"77.11667000"},{"id":"132416","name":"Kasauli","state_id":4020,"state_code":"HP","country_id":101,"country_code":"IN","latitude":"30.89856000","longitude":"76.96587000"},{"id":"132681","name":"Kalka","state_id":4020,"state_code":"HP","country_id":101,"country_code":"IN","latitude":"30.83982000","longitude":"76.94065000"},{"id":"132701","name":"Kangar","state_id":4020,"state_code":"HP","country_id":101,"country_code":"IN","latitude":"32.09135000","longitude":"76.26267000"},{"id":"132702","name":"Kangra","state_id":4020,"state_code":"HP","country_id":101,"country_code":"IN","latitude":"32.16667000","longitude":"76.25000000"},{"id":"132523","name":"Kinnaur","state_id":4020,"state_code":"HP","country_id":101,"country_code":"IN","latitude":"31.58333000","longitude":"78.41667000"},{"id":"132601","name":"Kotkhai","state_id":4020,"state_code":"HP","country_id":101,"country_code":"IN","latitude":"31.11728000","longitude":"77.53936000"},{"id":"132602","name":"Kotla","state_id":4020,"state_code":"HP","country_id":101,"country_code":"IN","latitude":"32.25000000","longitude":"76.03333000"},{"id":"132636","name":"Kulu","state_id":4020,"state_code":"HP","country_id":101,"country_code":"IN","latitude":"32.00000000","longitude":"77.25000000"},{"id":"132675","name":"Kyelang","state_id":4020,"state_code":"HP","country_id":101,"country_code":"IN","latitude":"32.57170000","longitude":"77.02448000"},{"id":"132791","name":"Lahul and Spiti","state_id":4020,"state_code":"HP","country_id":101,"country_code":"IN","latitude":"32.50000000","longitude":"77.83333000"},{"id":"132929","name":"Manali","state_id":4020,"state_code":"HP","country_id":101,"country_code":"IN","latitude":"32.25740000","longitude":"77.17481000"},{"id":"132893","name":"Mandi","state_id":4020,"state_code":"HP","country_id":101,"country_code":"IN","latitude":"31.71194000","longitude":"76.93273000"},{"id":"133113","name":"Nagar","state_id":4020,"state_code":"HP","country_id":101,"country_code":"IN","latitude":"32.13808000","longitude":"77.17393000"},{"id":"133118","name":"Nagrota","state_id":4020,"state_code":"HP","country_id":101,"country_code":"IN","latitude":"32.05710000","longitude":"76.09139000"},{"id":"133251","name":"Nadaun","state_id":4020,"state_code":"HP","country_id":101,"country_code":"IN","latitude":"31.78303000","longitude":"76.34310000"},{"id":"133261","name":"Nahan","state_id":4020,"state_code":"HP","country_id":101,"country_code":"IN","latitude":"30.56029000","longitude":"77.29426000"},{"id":"133263","name":"Nalagarh","state_id":4020,"state_code":"HP","country_id":101,"country_code":"IN","latitude":"31.04168000","longitude":"76.72285000"},{"id":"133369","name":"Parwanoo","state_id":4020,"state_code":"HP","country_id":101,"country_code":"IN","latitude":"30.83716000","longitude":"76.96143000"},{"id":"133525","name":"Palampur","state_id":4020,"state_code":"HP","country_id":101,"country_code":"IN","latitude":"32.11453000","longitude":"76.55681000"},{"id":"133539","name":"Pandoh","state_id":4020,"state_code":"HP","country_id":101,"country_code":"IN","latitude":"31.66902000","longitude":"77.05359000"},{"id":"133544","name":"Paonta Sahib","state_id":4020,"state_code":"HP","country_id":101,"country_code":"IN","latitude":"30.43666000","longitude":"77.62462000"},{"id":"133676","name":"Rajgarh","state_id":4020,"state_code":"HP","country_id":101,"country_code":"IN","latitude":"30.85142000","longitude":"77.30066000"},{"id":"133706","name":"Rampur","state_id":4020,"state_code":"HP","country_id":101,"country_code":"IN","latitude":"31.44943000","longitude":"77.63087000"},{"id":"133646","name":"Rohru","state_id":4020,"state_code":"HP","country_id":101,"country_code":"IN","latitude":"31.20269000","longitude":"77.75484000"},{"id":"133741","name":"Sabathu","state_id":4020,"state_code":"HP","country_id":101,"country_code":"IN","latitude":"30.97494000","longitude":"76.99137000"},{"id":"133794","name":"Santokhgarh","state_id":4020,"state_code":"HP","country_id":101,"country_code":"IN","latitude":"31.35205000","longitude":"76.31775000"},{"id":"133811","name":"Sarahan","state_id":4020,"state_code":"HP","country_id":101,"country_code":"IN","latitude":"31.50988000","longitude":"77.79395000"},{"id":"133807","name":"Sarka Ghat","state_id":4020,"state_code":"HP","country_id":101,"country_code":"IN","latitude":"31.69887000","longitude":"76.73529000"},{"id":"133841","name":"Seoni","state_id":4020,"state_code":"HP","country_id":101,"country_code":"IN","latitude":"31.24188000","longitude":"77.12362000"},{"id":"133871","name":"Shimla","state_id":4020,"state_code":"HP","country_id":101,"country_code":"IN","latitude":"31.16667000","longitude":"77.58333000"},{"id":"133957","name":"Sirmaur","state_id":4020,"state_code":"HP","country_id":101,"country_code":"IN","latitude":"30.75000000","longitude":"77.50000000"},{"id":"133985","name":"Solan","state_id":4020,"state_code":"HP","country_id":101,"country_code":"IN","latitude":"31.08333000","longitude":"76.83333000"},{"id":"134045","name":"Sundarnagar","state_id":4020,"state_code":"HP","country_id":101,"country_code":"IN","latitude":"31.53523000","longitude":"76.90500000"},{"id":"134246","name":"Tira Sujanpur","state_id":4020,"state_code":"HP","country_id":101,"country_code":"IN","latitude":"31.83364000","longitude":"76.50539000"},{"id":"134149","name":"Theog","state_id":4020,"state_code":"HP","country_id":101,"country_code":"IN","latitude":"31.12155000","longitude":"77.35838000"},{"id":"134279","name":"Una","state_id":4020,"state_code":"HP","country_id":101,"country_code":"IN","latitude":"31.46493000","longitude":"76.26914000"},{"id":"134435","name":"Yol","state_id":4020,"state_code":"HP","country_id":101,"country_code":"IN","latitude":"32.16423000","longitude":"76.19622000"}]