[{"id":"57622","name":"Akhnur","state_id":4029,"state_code":"JK","country_id":101,"country_code":"IN","latitude":"32.86667000","longitude":"74.73333000"},{"id":"57699","name":"Anantnag","state_id":4029,"state_code":"JK","country_id":101,"country_code":"IN","latitude":"33.73068000","longitude":"75.15418000"},{"id":"57700","name":"Anantnag","state_id":4029,"state_code":"JK","country_id":101,"country_code":"IN","latitude":"33.83333000","longitude":"75.16667000"},{"id":"57774","name":"Awantipur","state_id":4029,"state_code":"JK","country_id":101,"country_code":"IN","latitude":"33.91978000","longitude":"75.01515000"},{"id":"57790","name":"Badgam","state_id":4029,"state_code":"JK","country_id":101,"country_code":"IN","latitude":"33.89001000","longitude":"74.66297000"},{"id":"57843","name":"Bandipore","state_id":4029,"state_code":"JK","country_id":101,"country_code":"IN","latitude":"34.50404000","longitude":"74.82832000"},{"id":"57844","name":"Bandipura","state_id":4029,"state_code":"JK","country_id":101,"country_code":"IN","latitude":"34.41728000","longitude":"74.64308000"},{"id":"57852","name":"Banihal","state_id":4029,"state_code":"JK","country_id":101,"country_code":"IN","latitude":"33.43647000","longitude":"75.19684000"},{"id":"57905","name":"Batoti","state_id":4029,"state_code":"JK","country_id":101,"country_code":"IN","latitude":"33.11826000","longitude":"75.30889000"},{"id":"58139","name":"Baramula","state_id":4029,"state_code":"JK","country_id":101,"country_code":"IN","latitude":"34.19287000","longitude":"74.36920000"},{"id":"57949","name":"Bhadarwah","state_id":4029,"state_code":"JK","country_id":101,"country_code":"IN","latitude":"32.97941000","longitude":"75.71723000"},{"id":"58033","name":"Bijbehara","state_id":4029,"state_code":"JK","country_id":101,"country_code":"IN","latitude":"33.79378000","longitude":"75.10700000"},{"id":"58065","name":"Bishnah","state_id":4029,"state_code":"JK","country_id":101,"country_code":"IN","latitude":"32.61060000","longitude":"74.85557000"},{"id":"131781","name":"Doda","state_id":4029,"state_code":"JK","country_id":101,"country_code":"IN","latitude":"33.14916000","longitude":"75.54746000"},{"id":"131898","name":"Ganderbal","state_id":4029,"state_code":"JK","country_id":101,"country_code":"IN","latitude":"34.29467000","longitude":"75.19996000"},{"id":"132044","name":"Gandarbal","state_id":4029,"state_code":"JK","country_id":101,"country_code":"IN","latitude":"34.22619000","longitude":"74.77478000"},{"id":"131942","name":"Gho Brahmanan de","state_id":4029,"state_code":"JK","country_id":101,"country_code":"IN","latitude":"32.55590000","longitude":"74.95390000"},{"id":"132135","name":"Hajan","state_id":4029,"state_code":"JK","country_id":101,"country_code":"IN","latitude":"34.29895000","longitude":"74.61681000"},{"id":"132105","name":"Hiranagar","state_id":4029,"state_code":"JK","country_id":101,"country_code":"IN","latitude":"32.45493000","longitude":"75.27187000"},{"id":"132229","name":"Jammu","state_id":4029,"state_code":"JK","country_id":101,"country_code":"IN","latitude":"32.75000000","longitude":"74.83333000"},{"id":"132253","name":"Jaurian","state_id":4029,"state_code":"JK","country_id":101,"country_code":"IN","latitude":"32.83255000","longitude":"74.57612000"},{"id":"132399","name":"Kargil","state_id":4029,"state_code":"JK","country_id":101,"country_code":"IN","latitude":"34.55765000","longitude":"76.12622000"},{"id":"132422","name":"Kathua","state_id":4029,"state_code":"JK","country_id":101,"country_code":"IN","latitude":"32.58333000","longitude":"75.50000000"},{"id":"132427","name":"Katra","state_id":4029,"state_code":"JK","country_id":101,"country_code":"IN","latitude":"32.99167000","longitude":"74.93195000"},{"id":"132735","name":"Kud","state_id":4029,"state_code":"JK","country_id":101,"country_code":"IN","latitude":"33.07246000","longitude":"75.28727000"},{"id":"132485","name":"Khaur","state_id":4029,"state_code":"JK","country_id":101,"country_code":"IN","latitude":"32.60270000","longitude":"74.80918000"},{"id":"132533","name":"Kishtwar","state_id":4029,"state_code":"JK","country_id":101,"country_code":"IN","latitude":"33.52958000","longitude":"76.01462000"},{"id":"132534","name":"Kishtwar","state_id":4029,"state_code":"JK","country_id":101,"country_code":"IN","latitude":"33.31346000","longitude":"75.76726000"},{"id":"132633","name":"Kulgam","state_id":4029,"state_code":"JK","country_id":101,"country_code":"IN","latitude":"33.64456000","longitude":"75.01923000"},{"id":"132654","name":"Kupwara","state_id":4029,"state_code":"JK","country_id":101,"country_code":"IN","latitude":"34.53193000","longitude":"74.26605000"},{"id":"132655","name":"Kupwara","state_id":4029,"state_code":"JK","country_id":101,"country_code":"IN","latitude":"34.03056000","longitude":"74.26417000"},{"id":"132740","name":"Ladakh","state_id":4029,"state_code":"JK","country_id":101,"country_code":"IN","latitude":"34.33333000","longitude":"77.41667000"},{"id":"132762","name":"Leh","state_id":4029,"state_code":"JK","country_id":101,"country_code":"IN","latitude":"34.16504000","longitude":"77.58402000"},{"id":"133061","name":"Magam","state_id":4029,"state_code":"JK","country_id":101,"country_code":"IN","latitude":"34.09256000","longitude":"74.59016000"},{"id":"133193","name":"Nawanshahr","state_id":4029,"state_code":"JK","country_id":101,"country_code":"IN","latitude":"32.76505000","longitude":"74.52772000"},{"id":"133244","name":"Noria","state_id":4029,"state_code":"JK","country_id":101,"country_code":"IN","latitude":"32.52095000","longitude":"74.79845000"},{"id":"133310","name":"Padam","state_id":4029,"state_code":"JK","country_id":101,"country_code":"IN","latitude":"33.46659000","longitude":"76.88488000"},{"id":"133317","name":"Pahlgam","state_id":4029,"state_code":"JK","country_id":101,"country_code":"IN","latitude":"34.01592000","longitude":"75.31899000"},{"id":"133363","name":"Parol","state_id":4029,"state_code":"JK","country_id":101,"country_code":"IN","latitude":"32.34598000","longitude":"75.43441000"},{"id":"133388","name":"Pattan","state_id":4029,"state_code":"JK","country_id":101,"country_code":"IN","latitude":"34.16125000","longitude":"74.55634000"},{"id":"133566","name":"Punch","state_id":4029,"state_code":"JK","country_id":101,"country_code":"IN","latitude":"33.77033000","longitude":"74.09254000"},{"id":"133501","name":"Pulwama","state_id":4029,"state_code":"JK","country_id":101,"country_code":"IN","latitude":"33.87405000","longitude":"74.89955000"},{"id":"133503","name":"Punch","state_id":4029,"state_code":"JK","country_id":101,"country_code":"IN","latitude":"33.70178000","longitude":"74.19916000"},{"id":"133576","name":"Qazigund","state_id":4029,"state_code":"JK","country_id":101,"country_code":"IN","latitude":"33.63828000","longitude":"75.14261000"},{"id":"133593","name":"Rajaori","state_id":4029,"state_code":"JK","country_id":101,"country_code":"IN","latitude":"33.37526000","longitude":"74.30920000"},{"id":"133601","name":"Ramban","state_id":4029,"state_code":"JK","country_id":101,"country_code":"IN","latitude":"33.32301000","longitude":"75.18610000"},{"id":"133673","name":"Rajauri","state_id":4029,"state_code":"JK","country_id":101,"country_code":"IN","latitude":"33.25000000","longitude":"74.25000000"},{"id":"133694","name":"Ramban","state_id":4029,"state_code":"JK","country_id":101,"country_code":"IN","latitude":"33.24278000","longitude":"75.23513000"},{"id":"133698","name":"Ramgarh","state_id":4029,"state_code":"JK","country_id":101,"country_code":"IN","latitude":"33.40379000","longitude":"74.22388000"},{"id":"133702","name":"Ramnagar","state_id":4029,"state_code":"JK","country_id":101,"country_code":"IN","latitude":"32.80728000","longitude":"75.31119000"},{"id":"133640","name":"Riasi","state_id":4029,"state_code":"JK","country_id":101,"country_code":"IN","latitude":"33.08115000","longitude":"74.83242000"},{"id":"133768","name":"Samba","state_id":4029,"state_code":"JK","country_id":101,"country_code":"IN","latitude":"32.57523000","longitude":"75.10929000"},{"id":"134067","name":"Samba","state_id":4029,"state_code":"JK","country_id":101,"country_code":"IN","latitude":"32.56245000","longitude":"75.11993000"},{"id":"133890","name":"Shupiyan","state_id":4029,"state_code":"JK","country_id":101,"country_code":"IN","latitude":"33.71723000","longitude":"74.83413000"},{"id":"133889","name":"Shupiyan","state_id":4029,"state_code":"JK","country_id":101,"country_code":"IN","latitude":"33.73067000","longitude":"74.81869000"},{"id":"134000","name":"Sopur","state_id":4029,"state_code":"JK","country_id":101,"country_code":"IN","latitude":"34.28671000","longitude":"74.47228000"},{"id":"134016","name":"Soyibug","state_id":4029,"state_code":"JK","country_id":101,"country_code":"IN","latitude":"34.07677000","longitude":"74.70570000"},{"id":"134028","name":"Srinagar","state_id":4029,"state_code":"JK","country_id":101,"country_code":"IN","latitude":"34.08333000","longitude":"74.83333000"},{"id":"134020","name":"Srinagar","state_id":4029,"state_code":"JK","country_id":101,"country_code":"IN","latitude":"34.08565000","longitude":"74.80555000"},{"id":"134043","name":"Sumbal","state_id":4029,"state_code":"JK","country_id":101,"country_code":"IN","latitude":"34.23072000","longitude":"74.64720000"},{"id":"134139","name":"Thang","state_id":4029,"state_code":"JK","country_id":101,"country_code":"IN","latitude":"34.92740000","longitude":"76.79336000"},{"id":"134141","name":"Thanna Mandi","state_id":4029,"state_code":"JK","country_id":101,"country_code":"IN","latitude":"33.54204000","longitude":"74.38100000"},{"id":"134213","name":"Tral","state_id":4029,"state_code":"JK","country_id":101,"country_code":"IN","latitude":"33.92708000","longitude":"75.11585000"},{"id":"134214","name":"Tsrar Sharif","state_id":4029,"state_code":"JK","country_id":101,"country_code":"IN","latitude":"33.86319000","longitude":"74.76524000"},{"id":"134257","name":"Udhampur","state_id":4029,"state_code":"JK","country_id":101,"country_code":"IN","latitude":"33.00000000","longitude":"75.16667000"},{"id":"134293","name":"Uri","state_id":4029,"state_code":"JK","country_id":101,"country_code":"IN","latitude":"34.08064000","longitude":"74.05088000"}]