[{"id":"57600","name":"Agartala","state_id":4038,"state_code":"TR","country_id":101,"country_code":"IN","latitude":"23.83605000","longitude":"91.27939000"},{"id":"57662","name":"Amarpur","state_id":4038,"state_code":"TR","country_id":101,"country_code":"IN","latitude":"23.52570000","longitude":"91.65879000"},{"id":"134458","name":"Ambasa","state_id":4038,"state_code":"TR","country_id":101,"country_code":"IN","latitude":"23.93600000","longitude":"91.85436000"},{"id":"57876","name":"Barjala","state_id":4038,"state_code":"TR","country_id":101,"country_code":"IN","latitude":"23.61820000","longitude":"91.35596000"},{"id":"57926","name":"Belonia","state_id":4038,"state_code":"TR","country_id":101,"country_code":"IN","latitude":"23.25178000","longitude":"91.45407000"},{"id":"131710","name":"Dhalai","state_id":4038,"state_code":"TR","country_id":101,"country_code":"IN","latitude":"23.84307000","longitude":"91.92591000"},{"id":"131725","name":"Dharmanagar","state_id":4038,"state_code":"TR","country_id":101,"country_code":"IN","latitude":"24.36667000","longitude":"92.16667000"},{"id":"131979","name":"Gomati","state_id":4038,"state_code":"TR","country_id":101,"country_code":"IN","latitude":"23.53399000","longitude":"91.48122000"},{"id":"132334","name":"Kailashahar","state_id":4038,"state_code":"TR","country_id":101,"country_code":"IN","latitude":"24.33199000","longitude":"92.00391000"},{"id":"132362","name":"Kamalpur","state_id":4038,"state_code":"TR","country_id":101,"country_code":"IN","latitude":"24.19593000","longitude":"91.83438000"},{"id":"132502","name":"Khowai","state_id":4038,"state_code":"TR","country_id":101,"country_code":"IN","latitude":"24.07964000","longitude":"91.59972000"},{"id":"133241","name":"North Tripura","state_id":4038,"state_code":"TR","country_id":101,"country_code":"IN","latitude":"24.13050000","longitude":"92.15552000"},{"id":"133721","name":"Ranir Bazar","state_id":4038,"state_code":"TR","country_id":101,"country_code":"IN","latitude":"23.83463000","longitude":"91.36614000"},{"id":"133740","name":"Sabrum","state_id":4038,"state_code":"TR","country_id":101,"country_code":"IN","latitude":"23.00153000","longitude":"91.72427000"},{"id":"133997","name":"Sonamura","state_id":4038,"state_code":"TR","country_id":101,"country_code":"IN","latitude":"23.47547000","longitude":"91.26590000"},{"id":"134011","name":"South Tripura","state_id":4038,"state_code":"TR","country_id":101,"country_code":"IN","latitude":"23.16710000","longitude":"91.60953000"},{"id":"134249","name":"Udaipur","state_id":4038,"state_code":"TR","country_id":101,"country_code":"IN","latitude":"23.53333000","longitude":"91.48333000"},{"id":"134281","name":"Unakoti","state_id":4038,"state_code":"TR","country_id":101,"country_code":"IN","latitude":"24.32781000","longitude":"92.00377000"},{"id":"134412","name":"West Tripura","state_id":4038,"state_code":"TR","country_id":101,"country_code":"IN","latitude":"23.91667000","longitude":"91.50000000"}]