[{"id":"65183","name":"Aoji","state_id":3995,"state_code":"09","country_id":115,"country_code":"KP","latitude":"42.52448000","longitude":"130.39718000"},{"id":"65189","name":"Chongjin","state_id":3995,"state_code":"09","country_id":115,"country_code":"KP","latitude":"41.79556000","longitude":"129.77583000"},{"id":"65195","name":"Hau-ri","state_id":3995,"state_code":"09","country_id":115,"country_code":"KP","latitude":"41.20056000","longitude":"129.47028000"},{"id":"65196","name":"Hoemul-li","state_id":3995,"state_code":"09","country_id":115,"country_code":"KP","latitude":"41.43389000","longitude":"129.67000000"},{"id":"65197","name":"Hoeryong","state_id":3995,"state_code":"09","country_id":115,"country_code":"KP","latitude":"42.44113000","longitude":"129.74601000"},{"id":"65210","name":"Kilju","state_id":3995,"state_code":"09","country_id":115,"country_code":"KP","latitude":"40.96417000","longitude":"129.32778000"},{"id":"65211","name":"Kimch\u2019aek-si","state_id":3995,"state_code":"09","country_id":115,"country_code":"KP","latitude":"40.66889000","longitude":"129.18972000"},{"id":"65213","name":"Komusan Il-tong","state_id":3995,"state_code":"09","country_id":115,"country_code":"KP","latitude":"42.10914000","longitude":"129.69997000"},{"id":"65219","name":"Kyongsong","state_id":3995,"state_code":"09","country_id":115,"country_code":"KP","latitude":"41.58778000","longitude":"129.60611000"},{"id":"65220","name":"Kyongwon","state_id":3995,"state_code":"09","country_id":115,"country_code":"KP","latitude":"42.81361000","longitude":"130.15278000"},{"id":"65222","name":"Musan-up","state_id":3995,"state_code":"09","country_id":115,"country_code":"KP","latitude":"42.22609000","longitude":"129.20776000"},{"id":"65224","name":"Namyang-dong","state_id":3995,"state_code":"09","country_id":115,"country_code":"KP","latitude":"42.95000000","longitude":"129.86667000"},{"id":"65225","name":"Nanam","state_id":3995,"state_code":"09","country_id":115,"country_code":"KP","latitude":"41.71361000","longitude":"129.68444000"},{"id":"65227","name":"Onsong","state_id":3995,"state_code":"09","country_id":115,"country_code":"KP","latitude":"42.95722000","longitude":"129.99333000"},{"id":"65230","name":"Puryong","state_id":3995,"state_code":"09","country_id":115,"country_code":"KP","latitude":"42.06056000","longitude":"129.71167000"},{"id":"65247","name":"Sungam-nodongjagu","state_id":3995,"state_code":"09","country_id":115,"country_code":"KP","latitude":"41.66972000","longitude":"129.66889000"}]