[{"id":"65194","name":"Hamhung","state_id":4000,"state_code":"08","country_id":115,"country_code":"KP","latitude":"39.91833000","longitude":"127.53639000"},{"id":"65204","name":"Hungnam","state_id":4000,"state_code":"08","country_id":115,"country_code":"KP","latitude":"39.83167000","longitude":"127.61861000"},{"id":"65199","name":"Hongwon","state_id":4000,"state_code":"08","country_id":115,"country_code":"KP","latitude":"40.02528000","longitude":"127.95583000"},{"id":"65205","name":"Iwon-up","state_id":4000,"state_code":"08","country_id":115,"country_code":"KP","latitude":"40.32306000","longitude":"128.65528000"},{"id":"65215","name":"Kowon-up","state_id":4000,"state_code":"08","country_id":115,"country_code":"KP","latitude":"39.43806000","longitude":"127.24306000"},{"id":"65235","name":"Samho-rodongjagu","state_id":4000,"state_code":"08","country_id":115,"country_code":"KP","latitude":"39.94750000","longitude":"127.87111000"},{"id":"65241","name":"Sinsang-ni","state_id":4000,"state_code":"08","country_id":115,"country_code":"KP","latitude":"39.65028000","longitude":"127.40583000"},{"id":"65258","name":"Yonggwang-up","state_id":4000,"state_code":"08","country_id":115,"country_code":"KP","latitude":"40.01833000","longitude":"127.45472000"},{"id":"65254","name":"Yuktae-dong","state_id":4000,"state_code":"08","country_id":115,"country_code":"KP","latitude":"40.02472000","longitude":"128.15972000"}]