[{"id":"130691","name":"Al Hada","state_id":1246,"state_code":"DH","country_id":245,"country_code":"YE","latitude":"14.80760000","longitude":"44.56790000"},{"id":"130718","name":"Al Manar","state_id":1246,"state_code":"DH","country_id":245,"country_code":"YE","latitude":"14.65300000","longitude":"44.11640000"},{"id":"130761","name":"Al-Medy Village, \u0642\u0631\u064a\u0629 \u0627\u0644\u0645\u062f\u064a","state_id":1246,"state_code":"DH","country_id":245,"country_code":"YE","latitude":"14.40152000","longitude":"43.79178000"},{"id":"131014","name":"\u2018Ans","state_id":1246,"state_code":"DH","country_id":245,"country_code":"YE","latitude":"14.43606000","longitude":"44.38889000"},{"id":"130833","name":"Dawran Aness","state_id":1246,"state_code":"DH","country_id":245,"country_code":"YE","latitude":"14.82880000","longitude":"44.11430000"},{"id":"130834","name":"Dhamar","state_id":1246,"state_code":"DH","country_id":245,"country_code":"YE","latitude":"14.54274000","longitude":"44.40514000"},{"id":"130873","name":"Jabal Ash sharq","state_id":1246,"state_code":"DH","country_id":245,"country_code":"YE","latitude":"14.72960000","longitude":"43.90620000"},{"id":"130878","name":"Jahran","state_id":1246,"state_code":"DH","country_id":245,"country_code":"YE","latitude":"14.73310000","longitude":"44.31430000"},{"id":"130904","name":"Maghirib Ans","state_id":1246,"state_code":"DH","country_id":245,"country_code":"YE","latitude":"14.46530000","longitude":"44.12330000"},{"id":"130919","name":"Mayfa'at Anss","state_id":1246,"state_code":"DH","country_id":245,"country_code":"YE","latitude":"14.51520000","longitude":"44.61060000"},{"id":"130994","name":"Utmah","state_id":1246,"state_code":"DH","country_id":245,"country_code":"YE","latitude":"14.47380000","longitude":"43.94830000"},{"id":"131000","name":"Wusab Al Ali","state_id":1246,"state_code":"DH","country_id":245,"country_code":"YE","latitude":"14.33440000","longitude":"43.79470000"},{"id":"131001","name":"Wusab As Safil","state_id":1246,"state_code":"DH","country_id":245,"country_code":"YE","latitude":"14.25480000","longitude":"43.63250000"}]