[{"id":"130687","name":"Al Ghaydah","state_id":1251,"state_code":"MR","country_id":245,"country_code":"YE","latitude":"16.26180000","longitude":"52.08160000"},{"id":"130689","name":"Al Ghayz\u0327ah","state_id":1251,"state_code":"MR","country_id":245,"country_code":"YE","latitude":"16.20787000","longitude":"52.17605000"},{"id":"130724","name":"Al Masilah","state_id":1251,"state_code":"MR","country_id":245,"country_code":"YE","latitude":"15.63990000","longitude":"50.64450000"},{"id":"130857","name":"Hat","state_id":1251,"state_code":"MR","country_id":245,"country_code":"YE","latitude":"17.80310000","longitude":"51.67500000"},{"id":"130859","name":"Hawf","state_id":1251,"state_code":"MR","country_id":245,"country_code":"YE","latitude":"16.69530000","longitude":"52.81820000"},{"id":"130870","name":"Huswain","state_id":1251,"state_code":"MR","country_id":245,"country_code":"YE","latitude":"15.72300000","longitude":"51.91240000"},{"id":"130908","name":"Man'ar","state_id":1251,"state_code":"MR","country_id":245,"country_code":"YE","latitude":"16.55050000","longitude":"50.98790000"},{"id":"130943","name":"Qishn","state_id":1251,"state_code":"MR","country_id":245,"country_code":"YE","latitude":"15.69990000","longitude":"51.32400000"},{"id":"130968","name":"Sayhut","state_id":1251,"state_code":"MR","country_id":245,"country_code":"YE","latitude":"15.53450000","longitude":"51.28690000"},{"id":"130974","name":"Shahan","state_id":1251,"state_code":"MR","country_id":245,"country_code":"YE","latitude":"17.59230000","longitude":"52.59400000"}]