[{"id":"130708","name":"Al Ma'afer","state_id":1231,"state_code":"TA","country_id":245,"country_code":"YE","latitude":"13.37420000","longitude":"43.92620000"},{"id":"130728","name":"Al Mawasit","state_id":1231,"state_code":"TA","country_id":245,"country_code":"YE","latitude":"13.30420000","longitude":"44.10050000"},{"id":"130734","name":"Al Misrakh","state_id":1231,"state_code":"TA","country_id":245,"country_code":"YE","latitude":"13.47020000","longitude":"44.03770000"},{"id":"130736","name":"Al Mudhaffar","state_id":1231,"state_code":"TA","country_id":245,"country_code":"YE","latitude":"13.58310000","longitude":"43.99270000"},{"id":"130739","name":"Al Mukha\u2019","state_id":1231,"state_code":"TA","country_id":245,"country_code":"YE","latitude":"13.51998000","longitude":"43.42798000"},{"id":"130747","name":"Al Qahirah","state_id":1231,"state_code":"TA","country_id":245,"country_code":"YE","latitude":"13.58490000","longitude":"44.01010000"},{"id":"130753","name":"Al Wazi'iyah","state_id":1231,"state_code":"TA","country_id":245,"country_code":"YE","latitude":"13.18460000","longitude":"43.72980000"},{"id":"130783","name":"As Silw","state_id":1231,"state_code":"TA","country_id":245,"country_code":"YE","latitude":"13.34590000","longitude":"44.20720000"},{"id":"130790","name":"Ash Shamayatayn","state_id":1231,"state_code":"TA","country_id":245,"country_code":"YE","latitude":"13.18220000","longitude":"43.98000000"},{"id":"130798","name":"At Ta\u2018izziyah","state_id":1231,"state_code":"TA","country_id":245,"country_code":"YE","latitude":"13.69479000","longitude":"44.00941000"},{"id":"130838","name":"Dhubab","state_id":1231,"state_code":"TA","country_id":245,"country_code":"YE","latitude":"12.96590000","longitude":"43.47240000"},{"id":"130840","name":"Dimnat Khadir","state_id":1231,"state_code":"TA","country_id":245,"country_code":"YE","latitude":"13.43860000","longitude":"44.25420000"},{"id":"130861","name":"Hayfan","state_id":1231,"state_code":"TA","country_id":245,"country_code":"YE","latitude":"13.29060000","longitude":"44.26070000"},{"id":"130874","name":"Jabal Habashy","state_id":1231,"state_code":"TA","country_id":245,"country_code":"YE","latitude":"13.46650000","longitude":"43.88100000"},{"id":"130911","name":"Maqbanah","state_id":1231,"state_code":"TA","country_id":245,"country_code":"YE","latitude":"13.62120000","longitude":"43.66740000"},{"id":"130914","name":"Mashra'a Wa Hadnan","state_id":1231,"state_code":"TA","country_id":245,"country_code":"YE","latitude":"13.54170000","longitude":"43.99830000"},{"id":"130917","name":"Mawza","state_id":1231,"state_code":"TA","country_id":245,"country_code":"YE","latitude":"13.37820000","longitude":"43.61450000"},{"id":"130932","name":"Mawiyah","state_id":1231,"state_code":"TA","country_id":245,"country_code":"YE","latitude":"13.58461000","longitude":"44.31912000"},{"id":"130960","name":"Sabir Al Mawadim","state_id":1231,"state_code":"TA","country_id":245,"country_code":"YE","latitude":"13.53180000","longitude":"44.04620000"},{"id":"130962","name":"Salh","state_id":1231,"state_code":"TA","country_id":245,"country_code":"YE","latitude":"13.58390000","longitude":"44.04020000"},{"id":"130963","name":"Sama","state_id":1231,"state_code":"TA","country_id":245,"country_code":"YE","latitude":"13.38090000","longitude":"44.11660000"},{"id":"130976","name":"Shara'b Ar Rawnah","state_id":1231,"state_code":"TA","country_id":245,"country_code":"YE","latitude":"13.73360000","longitude":"43.76720000"},{"id":"130977","name":"Shara'b As Salam","state_id":1231,"state_code":"TA","country_id":245,"country_code":"YE","latitude":"13.78320000","longitude":"43.88610000"},{"id":"130988","name":"Ta\u2018izz","state_id":1231,"state_code":"TA","country_id":245,"country_code":"YE","latitude":"13.57952000","longitude":"44.02091000"},{"id":"130995","name":"Village of ALAMRAH","state_id":1231,"state_code":"TA","country_id":245,"country_code":"YE","latitude":"13.74318000","longitude":"43.72992000"},{"id":"130759","name":"Al \u2018Udayn","state_id":1233,"state_code":"IB","country_id":245,"country_code":"YE","latitude":"13.96112000","longitude":"43.96608000"},{"id":"130685","name":"Al Dhihar","state_id":1233,"state_code":"IB","country_id":245,"country_code":"YE","latitude":"13.97900000","longitude":"44.15260000"},{"id":"130716","name":"Al Makhadir","state_id":1233,"state_code":"IB","country_id":245,"country_code":"YE","latitude":"14.13965000","longitude":"44.20330000"},{"id":"130723","name":"Al Mashannah","state_id":1233,"state_code":"IB","country_id":245,"country_code":"YE","latitude":"13.95730000","longitude":"44.17000000"},{"id":"130746","name":"Al Qafr","state_id":1233,"state_code":"IB","country_id":245,"country_code":"YE","latitude":"14.31290000","longitude":"44.03000000"},{"id":"130764","name":"An Nadirah","state_id":1233,"state_code":"IB","country_id":245,"country_code":"YE","latitude":"14.07398000","longitude":"44.49925000"},{"id":"130765","name":"Ar Radmah","state_id":1233,"state_code":"IB","country_id":245,"country_code":"YE","latitude":"14.21200000","longitude":"44.56420000"},{"id":"130772","name":"As Sabrah","state_id":1233,"state_code":"IB","country_id":245,"country_code":"YE","latitude":"13.84270000","longitude":"44.33860000"},{"id":"130773","name":"As Saddah","state_id":1233,"state_code":"IB","country_id":245,"country_code":"YE","latitude":"14.16610000","longitude":"44.37510000"},{"id":"130782","name":"As Sayyani","state_id":1233,"state_code":"IB","country_id":245,"country_code":"YE","latitude":"13.82240000","longitude":"44.21180000"},{"id":"130786","name":"Ash Sha'ir","state_id":1233,"state_code":"IB","country_id":245,"country_code":"YE","latitude":"14.03180000","longitude":"44.36190000"},{"id":"130810","name":"Ba'dan","state_id":1233,"state_code":"IB","country_id":245,"country_code":"YE","latitude":"13.98870000","longitude":"44.32360000"},{"id":"130839","name":"Dhi as Sufal","state_id":1233,"state_code":"IB","country_id":245,"country_code":"YE","latitude":"13.82137000","longitude":"44.07775000"},{"id":"130841","name":"Far Al Udayn","state_id":1233,"state_code":"IB","country_id":245,"country_code":"YE","latitude":"13.95780000","longitude":"43.78270000"},{"id":"130864","name":"Hazm Al Udayn","state_id":1233,"state_code":"IB","country_id":245,"country_code":"YE","latitude":"14.16984000","longitude":"43.93814000"},{"id":"130867","name":"Hubaysh","state_id":1233,"state_code":"IB","country_id":245,"country_code":"YE","latitude":"14.11600000","longitude":"44.08240000"},{"id":"130871","name":"Ibb","state_id":1233,"state_code":"IB","country_id":245,"country_code":"YE","latitude":"13.96667000","longitude":"44.18333000"},{"id":"130882","name":"Jiblah","state_id":1233,"state_code":"IB","country_id":245,"country_code":"YE","latitude":"13.91480000","longitude":"44.12130000"},{"id":"130927","name":"Mudhaykhirah","state_id":1233,"state_code":"IB","country_id":245,"country_code":"YE","latitude":"13.86608000","longitude":"43.96866000"},{"id":"131005","name":"Yarim","state_id":1233,"state_code":"IB","country_id":245,"country_code":"YE","latitude":"14.25388000","longitude":"44.31176000"},{"id":"130677","name":"Al Abdiyah","state_id":1234,"state_code":"MA","country_id":245,"country_code":"YE","latitude":"14.71700000","longitude":"45.39340000"},{"id":"130704","name":"Al Jubah","state_id":1234,"state_code":"MA","country_id":245,"country_code":"YE","latitude":"15.12490000","longitude":"45.28680000"},{"id":"131012","name":"\u1e28arib","state_id":1234,"state_code":"MA","country_id":245,"country_code":"YE","latitude":"14.93045000","longitude":"45.36820000"},{"id":"130824","name":"Bidbadah","state_id":1234,"state_code":"MA","country_id":245,"country_code":"YE","latitude":"15.39810000","longitude":"44.74730000"},{"id":"130856","name":"Harib Al Qaramish","state_id":1234,"state_code":"MA","country_id":245,"country_code":"YE","latitude":"15.47350000","longitude":"44.61530000"},{"id":"130876","name":"Jabal Murad","state_id":1234,"state_code":"MA","country_id":245,"country_code":"YE","latitude":"15.04740000","longitude":"45.18870000"},{"id":"130902","name":"Ma'rib","state_id":1234,"state_code":"MA","country_id":245,"country_code":"YE","latitude":"15.46253000","longitude":"45.32581000"},{"id":"130905","name":"Mahliyah","state_id":1234,"state_code":"MA","country_id":245,"country_code":"YE","latitude":"14.68210000","longitude":"45.18320000"},{"id":"130907","name":"Majzar","state_id":1234,"state_code":"MA","country_id":245,"country_code":"YE","latitude":"15.82770000","longitude":"44.79410000"},{"id":"130912","name":"Marib","state_id":1234,"state_code":"MA","country_id":245,"country_code":"YE","latitude":"15.62130000","longitude":"46.01110000"},{"id":"130913","name":"Marib City","state_id":1234,"state_code":"MA","country_id":245,"country_code":"YE","latitude":"15.41560000","longitude":"45.30340000"},{"id":"130921","name":"Medghal","state_id":1234,"state_code":"MA","country_id":245,"country_code":"YE","latitude":"15.63840000","longitude":"45.00380000"},{"id":"130948","name":"Raghwan","state_id":1234,"state_code":"MA","country_id":245,"country_code":"YE","latitude":"15.79020000","longitude":"45.06940000"},{"id":"130949","name":"Rahabah","state_id":1234,"state_code":"MA","country_id":245,"country_code":"YE","latitude":"14.95100000","longitude":"45.08850000"},{"id":"130982","name":"Sirwah","state_id":1234,"state_code":"MA","country_id":245,"country_code":"YE","latitude":"15.43690000","longitude":"45.01150000"},{"id":"130808","name":"At Tawilah","state_id":1235,"state_code":"MW","country_id":245,"country_code":"YE","latitude":"15.44165000","longitude":"43.77484000"},{"id":"130705","name":"Al Khabt","state_id":1235,"state_code":"MW","country_id":245,"country_code":"YE","latitude":"15.48170000","longitude":"43.36770000"},{"id":"130729","name":"Al Ma\u1e29wit","state_id":1235,"state_code":"MW","country_id":245,"country_code":"YE","latitude":"15.47007000","longitude":"43.54481000"},{"id":"130715","name":"Al Mahwait","state_id":1235,"state_code":"MW","country_id":245,"country_code":"YE","latitude":"15.41170000","longitude":"43.56630000"},{"id":"130768","name":"Ar Rujum","state_id":1235,"state_code":"MW","country_id":245,"country_code":"YE","latitude":"15.41010000","longitude":"43.66060000"},{"id":"130817","name":"Bani Sa'd","state_id":1235,"state_code":"MW","country_id":245,"country_code":"YE","latitude":"15.23550000","longitude":"43.51560000"},{"id":"130868","name":"Hufash","state_id":1235,"state_code":"MW","country_id":245,"country_code":"YE","latitude":"15.37470000","longitude":"43.42650000"},{"id":"130925","name":"Milhan","state_id":1235,"state_code":"MW","country_id":245,"country_code":"YE","latitude":"15.32240000","longitude":"43.33180000"},{"id":"130980","name":"Shibam Kawkaban","state_id":1235,"state_code":"MW","country_id":245,"country_code":"YE","latitude":"15.50277000","longitude":"43.84237000"},{"id":"130696","name":"Al Haymah Ad Dakhiliyah","state_id":1236,"state_code":"SN","country_id":245,"country_code":"YE","latitude":"15.27220000","longitude":"43.83930000"},{"id":"130697","name":"Al Haymah Al Kharijiyah","state_id":1236,"state_code":"SN","country_id":245,"country_code":"YE","latitude":"15.02670000","longitude":"43.85000000"},{"id":"130700","name":"Al Husn","state_id":1236,"state_code":"SN","country_id":245,"country_code":"YE","latitude":"15.02060000","longitude":"44.50440000"},{"id":"130707","name":"Al Khaniq","state_id":1236,"state_code":"SN","country_id":245,"country_code":"YE","latitude":"15.50253000","longitude":"44.18158000"},{"id":"130770","name":"Arhab","state_id":1236,"state_code":"SN","country_id":245,"country_code":"YE","latitude":"15.79950000","longitude":"44.24660000"},{"id":"130802","name":"Attyal","state_id":1236,"state_code":"SN","country_id":245,"country_code":"YE","latitude":"15.32931000","longitude":"44.57739000"},{"id":"130813","name":"Bani Dhabyan","state_id":1236,"state_code":"SN","country_id":245,"country_code":"YE","latitude":"15.04810000","longitude":"44.87180000"},{"id":"130814","name":"Bani Hushaysh","state_id":1236,"state_code":"SN","country_id":245,"country_code":"YE","latitude":"15.45050000","longitude":"44.37820000"},{"id":"130815","name":"Bani Matar","state_id":1236,"state_code":"SN","country_id":245,"country_code":"YE","latitude":"15.21500000","longitude":"44.04980000"},{"id":"130825","name":"Bilad Ar Rus","state_id":1236,"state_code":"SN","country_id":245,"country_code":"YE","latitude":"15.03510000","longitude":"44.25140000"},{"id":"130853","name":"Hamdan","state_id":1236,"state_code":"SN","country_id":245,"country_code":"YE","latitude":"15.50662000","longitude":"44.06030000"},{"id":"130883","name":"Jihanah","state_id":1236,"state_code":"SN","country_id":245,"country_code":"YE","latitude":"15.19190000","longitude":"44.51950000"},{"id":"130892","name":"Khwlan","state_id":1236,"state_code":"SN","country_id":245,"country_code":"YE","latitude":"15.27490000","longitude":"44.76860000"},{"id":"130909","name":"Manakhah","state_id":1236,"state_code":"SN","country_id":245,"country_code":"YE","latitude":"15.07170000","longitude":"43.68620000"},{"id":"130910","name":"Manakhah","state_id":1236,"state_code":"SN","country_id":245,"country_code":"YE","latitude":"15.07422000","longitude":"43.74156000"},{"id":"130937","name":"Nihm","state_id":1236,"state_code":"SN","country_id":245,"country_code":"YE","latitude":"15.75160000","longitude":"44.57460000"},{"id":"130958","name":"Sa'fan","state_id":1236,"state_code":"SN","country_id":245,"country_code":"YE","latitude":"15.07120000","longitude":"43.58270000"},{"id":"130971","name":"Sa\u1e29ar","state_id":1236,"state_code":"SN","country_id":245,"country_code":"YE","latitude":"15.31637000","longitude":"44.30880000"},{"id":"130964","name":"Sanaa","state_id":1236,"state_code":"SN","country_id":245,"country_code":"YE","latitude":"15.35472000","longitude":"44.20667000"},{"id":"130965","name":"Sanhan","state_id":1236,"state_code":"SN","country_id":245,"country_code":"YE","latitude":"15.22520000","longitude":"44.30570000"},{"id":"130970","name":"Sayyan","state_id":1236,"state_code":"SN","country_id":245,"country_code":"YE","latitude":"15.17177000","longitude":"44.32442000"},{"id":"130809","name":"A\u1e29war","state_id":1237,"state_code":"AB","country_id":245,"country_code":"YE","latitude":"13.52019000","longitude":"46.71367000"},{"id":"130673","name":"Ahwar","state_id":1237,"state_code":"AB","country_id":245,"country_code":"YE","latitude":"13.68530000","longitude":"46.75560000"},{"id":"130714","name":"Al Mahfad","state_id":1237,"state_code":"AB","country_id":245,"country_code":"YE","latitude":"13.97050000","longitude":"46.75600000"},{"id":"130752","name":"Al Wade'a","state_id":1237,"state_code":"AB","country_id":245,"country_code":"YE","latitude":"13.71360000","longitude":"46.01220000"},{"id":"130880","name":"Jawf al Maqbabah","state_id":1237,"state_code":"AB","country_id":245,"country_code":"YE","latitude":"13.83783000","longitude":"45.83488000"},{"id":"130881","name":"Jayshan","state_id":1237,"state_code":"AB","country_id":245,"country_code":"YE","latitude":"14.16620000","longitude":"46.17230000"},{"id":"130887","name":"Khanfir","state_id":1237,"state_code":"AB","country_id":245,"country_code":"YE","latitude":"13.42049000","longitude":"45.68707000"},{"id":"130900","name":"Lawdar","state_id":1237,"state_code":"AB","country_id":245,"country_code":"YE","latitude":"13.80590000","longitude":"45.80080000"},{"id":"130933","name":"Mudiyah","state_id":1237,"state_code":"AB","country_id":245,"country_code":"YE","latitude":"13.92840000","longitude":"46.08254000"},{"id":"130928","name":"Mudiyah","state_id":1237,"state_code":"AB","country_id":245,"country_code":"YE","latitude":"13.90960000","longitude":"46.21960000"},{"id":"130952","name":"Rasad","state_id":1237,"state_code":"AB","country_id":245,"country_code":"YE","latitude":"13.72310000","longitude":"45.28140000"},{"id":"130967","name":"Sarar","state_id":1237,"state_code":"AB","country_id":245,"country_code":"YE","latitude":"13.58300000","longitude":"45.35080000"},{"id":"130981","name":"Sibah","state_id":1237,"state_code":"AB","country_id":245,"country_code":"YE","latitude":"13.80910000","longitude":"45.40230000"},{"id":"131008","name":"Zingibar","state_id":1237,"state_code":"AB","country_id":245,"country_code":"YE","latitude":"13.13420000","longitude":"45.43040000"},{"id":"131009","name":"Zinjibar","state_id":1237,"state_code":"AB","country_id":245,"country_code":"YE","latitude":"13.12871000","longitude":"45.38073000"},{"id":"130668","name":"Ad Dis ash Sharqiyah","state_id":1238,"state_code":"HD","country_id":245,"country_code":"YE","latitude":"14.90840000","longitude":"49.94847000"},{"id":"130666","name":"Ad Dis","state_id":1238,"state_code":"HD","country_id":245,"country_code":"YE","latitude":"15.09490000","longitude":"50.01590000"},{"id":"130670","name":"Adh Dhlia'ah","state_id":1238,"state_code":"HD","country_id":245,"country_code":"YE","latitude":"15.01390000","longitude":"47.89720000"},{"id":"130678","name":"Al Abr","state_id":1238,"state_code":"HD","country_id":245,"country_code":"YE","latitude":"15.91370000","longitude":"47.22880000"},{"id":"130755","name":"Al \u1e28amdi","state_id":1238,"state_code":"HD","country_id":245,"country_code":"YE","latitude":"15.94727000","longitude":"48.77965000"},{"id":"130737","name":"Al Mukalla","state_id":1238,"state_code":"HD","country_id":245,"country_code":"YE","latitude":"14.72920000","longitude":"48.91990000"},{"id":"130738","name":"Al Mukalla City","state_id":1238,"state_code":"HD","country_id":245,"country_code":"YE","latitude":"14.62033000","longitude":"49.24800000"},{"id":"130744","name":"Al Qaf","state_id":1238,"state_code":"HD","country_id":245,"country_code":"YE","latitude":"17.42870000","longitude":"48.94050000"},{"id":"130749","name":"Al Qatn","state_id":1238,"state_code":"HD","country_id":245,"country_code":"YE","latitude":"15.92320000","longitude":"48.21460000"},{"id":"130763","name":"Amd","state_id":1238,"state_code":"HD","country_id":245,"country_code":"YE","latitude":"15.34860000","longitude":"47.92860000"},{"id":"130767","name":"Ar Raydah Wa Qusayar","state_id":1238,"state_code":"HD","country_id":245,"country_code":"YE","latitude":"15.18410000","longitude":"50.31330000"},{"id":"130780","name":"As Sawm","state_id":1238,"state_code":"HD","country_id":245,"country_code":"YE","latitude":"15.99800000","longitude":"49.66860000"},{"id":"130794","name":"Ash Shi\u1e29r","state_id":1238,"state_code":"HD","country_id":245,"country_code":"YE","latitude":"14.76026000","longitude":"49.60537000"},{"id":"130793","name":"Ash Shihr","state_id":1238,"state_code":"HD","country_id":245,"country_code":"YE","latitude":"14.97230000","longitude":"49.55260000"},{"id":"130797","name":"At Ta\u1e29aluf","state_id":1238,"state_code":"HD","country_id":245,"country_code":"YE","latitude":"15.93786000","longitude":"48.78641000"},{"id":"130827","name":"Brom Mayfa","state_id":1238,"state_code":"HD","country_id":245,"country_code":"YE","latitude":"14.34230000","longitude":"48.72810000"},{"id":"130832","name":"Daw'an","state_id":1238,"state_code":"HD","country_id":245,"country_code":"YE","latitude":"15.05070000","longitude":"48.30720000"},{"id":"130843","name":"Ghayl Ba Wazir","state_id":1238,"state_code":"HD","country_id":245,"country_code":"YE","latitude":"14.87780000","longitude":"49.02450000"},{"id":"130844","name":"Ghayl Bin Yamin","state_id":1238,"state_code":"HD","country_id":245,"country_code":"YE","latitude":"15.38960000","longitude":"49.28540000"},{"id":"130849","name":"Hagr As Sai'ar","state_id":1238,"state_code":"HD","country_id":245,"country_code":"YE","latitude":"16.30560000","longitude":"47.95370000"},{"id":"130851","name":"Hajr","state_id":1238,"state_code":"HD","country_id":245,"country_code":"YE","latitude":"14.47080000","longitude":"48.27740000"},{"id":"130869","name":"Huraidhah","state_id":1238,"state_code":"HD","country_id":245,"country_code":"YE","latitude":"15.55425000","longitude":"48.17505000"},{"id":"130893","name":"Kilmia","state_id":1238,"state_code":"HD","country_id":245,"country_code":"YE","latitude":"12.18576000","longitude":"52.23332000"},{"id":"130929","name":"Mukalla","state_id":1238,"state_code":"HD","country_id":245,"country_code":"YE","latitude":"14.54248000","longitude":"49.12424000"},{"id":"130951","name":"Rakhyah","state_id":1238,"state_code":"HD","country_id":245,"country_code":"YE","latitude":"15.46180000","longitude":"47.77280000"},{"id":"130955","name":"Rumah","state_id":1238,"state_code":"HD","country_id":245,"country_code":"YE","latitude":"17.81450000","longitude":"51.07590000"},{"id":"130961","name":"Sah","state_id":1238,"state_code":"HD","country_id":245,"country_code":"YE","latitude":"15.53420000","longitude":"48.89550000"},{"id":"130969","name":"Sayun","state_id":1238,"state_code":"HD","country_id":245,"country_code":"YE","latitude":"15.98310000","longitude":"48.83150000"},{"id":"130979","name":"Shibam","state_id":1238,"state_code":"HD","country_id":245,"country_code":"YE","latitude":"15.87030000","longitude":"48.65340000"},{"id":"130984","name":"Su\u1e29ayl Shibam","state_id":1238,"state_code":"HD","country_id":245,"country_code":"YE","latitude":"15.91448000","longitude":"48.63864000"},{"id":"130987","name":"Tarim","state_id":1238,"state_code":"HD","country_id":245,"country_code":"YE","latitude":"16.05694000","longitude":"48.99889000"},{"id":"130986","name":"Tarim","state_id":1238,"state_code":"HD","country_id":245,"country_code":"YE","latitude":"16.06600000","longitude":"49.02290000"},{"id":"130989","name":"Thamud","state_id":1238,"state_code":"HD","country_id":245,"country_code":"YE","latitude":"17.60310000","longitude":"49.73610000"},{"id":"130997","name":"Wadi Al Ayn","state_id":1238,"state_code":"HD","country_id":245,"country_code":"YE","latitude":"15.74033000","longitude":"48.14747000"},{"id":"131002","name":"Yabuth","state_id":1238,"state_code":"HD","country_id":245,"country_code":"YE","latitude":"14.71820000","longitude":"47.73580000"},{"id":"131007","name":"Zamakh wa Manwakh","state_id":1238,"state_code":"HD","country_id":245,"country_code":"YE","latitude":"17.20320000","longitude":"47.70330000"},{"id":"130848","name":"Hadibu","state_id":1239,"state_code":"SU","country_id":245,"country_code":"YE","latitude":"12.64881000","longitude":"54.01895000"},{"id":"130865","name":"Hidaybu","state_id":1239,"state_code":"SU","country_id":245,"country_code":"YE","latitude":"12.50250000","longitude":"54.00820000"},{"id":"130940","name":"Qalansiyah","state_id":1239,"state_code":"SU","country_id":245,"country_code":"YE","latitude":"12.68958000","longitude":"53.48709000"},{"id":"130944","name":"Qulensya Wa Abd Al Kuri","state_id":1239,"state_code":"SU","country_id":245,"country_code":"YE","latitude":"12.55479000","longitude":"53.58671000"},{"id":"130676","name":"Al A'rsh","state_id":1240,"state_code":"BA","country_id":245,"country_code":"YE","latitude":"14.36560000","longitude":"44.77780000"},{"id":"130682","name":"Al Bay\u1e11a\u2019","state_id":1240,"state_code":"BA","country_id":245,"country_code":"YE","latitude":"13.93666000","longitude":"45.54822000"},{"id":"130680","name":"Al Bayda","state_id":1240,"state_code":"BA","country_id":245,"country_code":"YE","latitude":"13.98523000","longitude":"45.57272000"},{"id":"130681","name":"Al Bayda City","state_id":1240,"state_code":"BA","country_id":245,"country_code":"YE","latitude":"13.98490000","longitude":"45.55660000"},{"id":"130717","name":"Al Malagim","state_id":1240,"state_code":"BA","country_id":245,"country_code":"YE","latitude":"14.36540000","longitude":"45.38510000"},{"id":"130750","name":"Al Quraishyah","state_id":1240,"state_code":"BA","country_id":245,"country_code":"YE","latitude":"14.60500000","longitude":"44.88960000"},{"id":"130769","name":"Ar Ryashyyah","state_id":1240,"state_code":"BA","country_id":245,"country_code":"YE","latitude":"14.24240000","longitude":"44.77540000"},{"id":"130778","name":"As Sawadiyah","state_id":1240,"state_code":"BA","country_id":245,"country_code":"YE","latitude":"14.45198000","longitude":"45.36973000"},{"id":"130781","name":"As Sawma'ah","state_id":1240,"state_code":"BA","country_id":245,"country_code":"YE","latitude":"14.16670000","longitude":"45.83110000"},{"id":"130791","name":"Ash Sharafayn","state_id":1240,"state_code":"BA","country_id":245,"country_code":"YE","latitude":"14.30697000","longitude":"45.12634000"},{"id":"130796","name":"At Taffah","state_id":1240,"state_code":"BA","country_id":245,"country_code":"YE","latitude":"14.19830000","longitude":"45.35810000"},{"id":"130804","name":"Az Zahir","state_id":1240,"state_code":"BA","country_id":245,"country_code":"YE","latitude":"13.99180000","longitude":"45.42180000"},{"id":"130837","name":"Dhi Na'im","state_id":1240,"state_code":"BA","country_id":245,"country_code":"YE","latitude":"14.11110000","longitude":"45.46420000"},{"id":"130916","name":"Maswarah","state_id":1240,"state_code":"BA","country_id":245,"country_code":"YE","latitude":"14.40270000","longitude":"45.70330000"},{"id":"130930","name":"Mukayras","state_id":1240,"state_code":"BA","country_id":245,"country_code":"YE","latitude":"14.03200000","longitude":"45.79640000"},{"id":"130934","name":"Na'man","state_id":1240,"state_code":"BA","country_id":245,"country_code":"YE","latitude":"14.59390000","longitude":"45.52860000"},{"id":"130936","name":"Nati'","state_id":1240,"state_code":"BA","country_id":245,"country_code":"YE","latitude":"14.55390000","longitude":"45.58500000"},{"id":"130947","name":"Rada\u2018","state_id":1240,"state_code":"BA","country_id":245,"country_code":"YE","latitude":"14.34000000","longitude":"44.90874000"},{"id":"130946","name":"Radman Al Awad","state_id":1240,"state_code":"BA","country_id":245,"country_code":"YE","latitude":"14.48360000","longitude":"45.27440000"},{"id":"130959","name":"Sabah","state_id":1240,"state_code":"BA","country_id":245,"country_code":"YE","latitude":"14.27590000","longitude":"44.67000000"},{"id":"130998","name":"Wald Rabi'","state_id":1240,"state_code":"BA","country_id":245,"country_code":"YE","latitude":"14.55574000","longitude":"44.90596000"},{"id":"130807","name":"As Salif","state_id":1241,"state_code":"HU","country_id":245,"country_code":"YE","latitude":"15.30755000","longitude":"42.67107000"},{"id":"130665","name":"Ad Dahi","state_id":1241,"state_code":"HU","country_id":245,"country_code":"YE","latitude":"15.22320000","longitude":"43.19350000"},{"id":"130667","name":"Ad Durayhimi","state_id":1241,"state_code":"HU","country_id":245,"country_code":"YE","latitude":"14.60460000","longitude":"43.07180000"},{"id":"130757","name":"Al \u1e28udaydah","state_id":1241,"state_code":"HU","country_id":245,"country_code":"YE","latitude":"14.79781000","longitude":"42.95452000"},{"id":"130686","name":"Al Garrahi","state_id":1241,"state_code":"HU","country_id":245,"country_code":"YE","latitude":"14.10580000","longitude":"43.40940000"},{"id":"130692","name":"Al Hajjaylah","state_id":1241,"state_code":"HU","country_id":245,"country_code":"YE","latitude":"14.99070000","longitude":"43.58230000"},{"id":"130693","name":"Al Hali","state_id":1241,"state_code":"HU","country_id":245,"country_code":"YE","latitude":"14.82500000","longitude":"43.00140000"},{"id":"130695","name":"Al Hawak","state_id":1241,"state_code":"HU","country_id":245,"country_code":"YE","latitude":"14.76010000","longitude":"42.99780000"},{"id":"130720","name":"Al Mansuriyah","state_id":1241,"state_code":"HU","country_id":245,"country_code":"YE","latitude":"14.69030000","longitude":"43.36820000"},{"id":"130722","name":"Al Marawi'ah","state_id":1241,"state_code":"HU","country_id":245,"country_code":"YE","latitude":"14.83460000","longitude":"43.19650000"},{"id":"130731","name":"Al Mighlaf","state_id":1241,"state_code":"HU","country_id":245,"country_code":"YE","latitude":"15.31110000","longitude":"43.18360000"},{"id":"130733","name":"Al Mina","state_id":1241,"state_code":"HU","country_id":245,"country_code":"YE","latitude":"14.80775000","longitude":"42.93732000"},{"id":"130740","name":"Al Munirah","state_id":1241,"state_code":"HU","country_id":245,"country_code":"YE","latitude":"15.35280000","longitude":"42.90620000"},{"id":"130748","name":"Al Qanawis","state_id":1241,"state_code":"HU","country_id":245,"country_code":"YE","latitude":"15.49206000","longitude":"43.13782000"},{"id":"130762","name":"Alluheyah","state_id":1241,"state_code":"HU","country_id":245,"country_code":"YE","latitude":"15.63628000","longitude":"42.87157000"},{"id":"130777","name":"As Salif","state_id":1241,"state_code":"HU","country_id":245,"country_code":"YE","latitude":"15.22882000","longitude":"42.72542000"},{"id":"130785","name":"As Sukhnah","state_id":1241,"state_code":"HU","country_id":245,"country_code":"YE","latitude":"14.74840000","longitude":"43.33420000"},{"id":"130799","name":"At Tuhayat","state_id":1241,"state_code":"HU","country_id":245,"country_code":"YE","latitude":"14.10994000","longitude":"43.15979000"},{"id":"130805","name":"Az Zaydiyah","state_id":1241,"state_code":"HU","country_id":245,"country_code":"YE","latitude":"15.29586000","longitude":"43.06452000"},{"id":"130806","name":"Az Zuhrah","state_id":1241,"state_code":"HU","country_id":245,"country_code":"YE","latitude":"15.71730000","longitude":"43.06370000"},{"id":"130823","name":"Bayt al Faqih","state_id":1241,"state_code":"HU","country_id":245,"country_code":"YE","latitude":"14.48738000","longitude":"43.27815000"},{"id":"130829","name":"Bajil","state_id":1241,"state_code":"HU","country_id":245,"country_code":"YE","latitude":"15.07561000","longitude":"43.17350000"},{"id":"130828","name":"Bura","state_id":1241,"state_code":"HU","country_id":245,"country_code":"YE","latitude":"14.89820000","longitude":"43.47530000"},{"id":"130863","name":"Hays","state_id":1241,"state_code":"HU","country_id":245,"country_code":"YE","latitude":"13.93320000","longitude":"43.49840000"},{"id":"130877","name":"Jabal Ra's","state_id":1241,"state_code":"HU","country_id":245,"country_code":"YE","latitude":"14.03090000","longitude":"43.62780000"},{"id":"130884","name":"Kamaran","state_id":1241,"state_code":"HU","country_id":245,"country_code":"YE","latitude":"15.36050000","longitude":"42.58540000"},{"id":"131006","name":"Zabid","state_id":1241,"state_code":"HU","country_id":245,"country_code":"YE","latitude":"14.27742000","longitude":"43.36841000"},{"id":"130669","name":"Aden","state_id":1242,"state_code":"AD","country_id":245,"country_code":"YE","latitude":"12.77944000","longitude":"45.03667000"},{"id":"130683","name":"Al Buraiqeh","state_id":1242,"state_code":"AD","country_id":245,"country_code":"YE","latitude":"12.80377000","longitude":"44.77615000"},{"id":"130719","name":"Al Mansura","state_id":1242,"state_code":"AD","country_id":245,"country_code":"YE","latitude":"12.85320000","longitude":"44.97240000"},{"id":"130735","name":"Al Mualla","state_id":1242,"state_code":"AD","country_id":245,"country_code":"YE","latitude":"12.65843000","longitude":"43.42743000"},{"id":"130789","name":"Ash Shaikh Outhman","state_id":1242,"state_code":"AD","country_id":245,"country_code":"YE","latitude":"12.88640000","longitude":"45.01560000"},{"id":"130801","name":"Attawahi","state_id":1242,"state_code":"AD","country_id":245,"country_code":"YE","latitude":"12.77410000","longitude":"44.99410000"},{"id":"130830","name":"Craiter","state_id":1242,"state_code":"AD","country_id":245,"country_code":"YE","latitude":"12.77310000","longitude":"45.03810000"},{"id":"130831","name":"Dar Sad","state_id":1242,"state_code":"AD","country_id":245,"country_code":"YE","latitude":"12.90700000","longitude":"44.97840000"},{"id":"130756","name":"Al \u1e28azm","state_id":1243,"state_code":"JA","country_id":245,"country_code":"YE","latitude":"16.16406000","longitude":"44.77692000"},{"id":"130758","name":"Al \u2018Inan","state_id":1243,"state_code":"JA","country_id":245,"country_code":"YE","latitude":"16.72189000","longitude":"44.31252000"},{"id":"130688","name":"Al Ghayl","state_id":1243,"state_code":"JA","country_id":245,"country_code":"YE","latitude":"16.09140000","longitude":"44.68520000"},{"id":"130698","name":"Al Hazm","state_id":1243,"state_code":"JA","country_id":245,"country_code":"YE","latitude":"16.03780000","longitude":"44.95850000"},{"id":"130699","name":"Al Humaydat","state_id":1243,"state_code":"JA","country_id":245,"country_code":"YE","latitude":"16.46670000","longitude":"44.42990000"},{"id":"130706","name":"Al Khalq","state_id":1243,"state_code":"JA","country_id":245,"country_code":"YE","latitude":"16.06810000","longitude":"44.79700000"},{"id":"130725","name":"Al Maslub","state_id":1243,"state_code":"JA","country_id":245,"country_code":"YE","latitude":"16.09610000","longitude":"44.56670000"},{"id":"130726","name":"Al Matammah","state_id":1243,"state_code":"JA","country_id":245,"country_code":"YE","latitude":"16.19840000","longitude":"44.39020000"},{"id":"130727","name":"Al Maton","state_id":1243,"state_code":"JA","country_id":245,"country_code":"YE","latitude":"16.28720000","longitude":"44.63890000"},{"id":"130803","name":"Az Zahir","state_id":1243,"state_code":"JA","country_id":245,"country_code":"YE","latitude":"16.33080000","longitude":"44.52440000"},{"id":"130821","name":"Bart al \u2018Anan","state_id":1243,"state_code":"JA","country_id":245,"country_code":"YE","latitude":"16.91972000","longitude":"44.51882000"},{"id":"130885","name":"Khabb wa ash Sha'af","state_id":1243,"state_code":"JA","country_id":245,"country_code":"YE","latitude":"16.59750000","longitude":"45.78530000"},{"id":"130888","name":"Kharab Al Marashi","state_id":1243,"state_code":"JA","country_id":245,"country_code":"YE","latitude":"16.61070000","longitude":"44.22550000"},{"id":"130950","name":"Rajuzah","state_id":1243,"state_code":"JA","country_id":245,"country_code":"YE","latitude":"16.63420000","longitude":"44.50420000"},{"id":"130664","name":"Abs","state_id":1244,"state_code":"HJ","country_id":245,"country_code":"YE","latitude":"16.02150000","longitude":"43.04850000"},{"id":"130671","name":"Aflah Al Yaman","state_id":1244,"state_code":"HJ","country_id":245,"country_code":"YE","latitude":"15.97890000","longitude":"43.41110000"},{"id":"130672","name":"Aflah Ash Shawm","state_id":1244,"state_code":"HJ","country_id":245,"country_code":"YE","latitude":"16.05280000","longitude":"43.41200000"},{"id":"130703","name":"Al Jamimah","state_id":1244,"state_code":"HJ","country_id":245,"country_code":"YE","latitude":"16.02840000","longitude":"43.52970000"},{"id":"130712","name":"Al Maghrabah","state_id":1244,"state_code":"HJ","country_id":245,"country_code":"YE","latitude":"15.89370000","longitude":"43.60910000"},{"id":"130713","name":"Al Mahabishah","state_id":1244,"state_code":"HJ","country_id":245,"country_code":"YE","latitude":"15.92870000","longitude":"43.44800000"},{"id":"130730","name":"Al Miftah","state_id":1244,"state_code":"HJ","country_id":245,"country_code":"YE","latitude":"15.96100000","longitude":"43.51470000"},{"id":"130787","name":"Ash Shaghadirah","state_id":1244,"state_code":"HJ","country_id":245,"country_code":"YE","latitude":"15.60610000","longitude":"43.49920000"},{"id":"130788","name":"Ash Shahil","state_id":1244,"state_code":"HJ","country_id":245,"country_code":"YE","latitude":"15.85530000","longitude":"43.45160000"},{"id":"130795","name":"Aslem","state_id":1244,"state_code":"HJ","country_id":245,"country_code":"YE","latitude":"16.06000000","longitude":"43.29390000"},{"id":"131011","name":"\u1e28ajjah","state_id":1244,"state_code":"HJ","country_id":245,"country_code":"YE","latitude":"15.69425000","longitude":"43.60582000"},{"id":"130811","name":"Bakil Al Mir","state_id":1244,"state_code":"HJ","country_id":245,"country_code":"YE","latitude":"16.50690000","longitude":"43.36150000"},{"id":"130819","name":"Bani al \u2018Awwam","state_id":1244,"state_code":"HJ","country_id":245,"country_code":"YE","latitude":"15.58119000","longitude":"43.58727000"},{"id":"130812","name":"Bani Al Awam","state_id":1244,"state_code":"HJ","country_id":245,"country_code":"YE","latitude":"15.58100000","longitude":"43.60790000"},{"id":"130816","name":"Bani Qa'is","state_id":1244,"state_code":"HJ","country_id":245,"country_code":"YE","latitude":"15.63460000","longitude":"43.33720000"},{"id":"130850","name":"Hajjah","state_id":1244,"state_code":"HJ","country_id":245,"country_code":"YE","latitude":"15.68160000","longitude":"43.44996000"},{"id":"130854","name":"Harad District","state_id":1244,"state_code":"HJ","country_id":245,"country_code":"YE","latitude":"16.40447000","longitude":"43.07739000"},{"id":"130862","name":"Hayran","state_id":1244,"state_code":"HJ","country_id":245,"country_code":"YE","latitude":"16.25080000","longitude":"43.05990000"},{"id":"130890","name":"Khayran Al Muharraq","state_id":1244,"state_code":"HJ","country_id":245,"country_code":"YE","latitude":"16.08964000","longitude":"43.35755000"},{"id":"130895","name":"Ku'aydinah","state_id":1244,"state_code":"HJ","country_id":245,"country_code":"YE","latitude":"15.81830000","longitude":"43.35990000"},{"id":"130896","name":"Kuhlan Affar","state_id":1244,"state_code":"HJ","country_id":245,"country_code":"YE","latitude":"15.75540000","longitude":"43.69700000"},{"id":"130897","name":"Kuhlan Ash Sharaf","state_id":1244,"state_code":"HJ","country_id":245,"country_code":"YE","latitude":"16.02310000","longitude":"43.48630000"},{"id":"130898","name":"Kushar","state_id":1244,"state_code":"HJ","country_id":245,"country_code":"YE","latitude":"16.17090000","longitude":"43.47200000"},{"id":"130903","name":"Mabyan","state_id":1244,"state_code":"HJ","country_id":245,"country_code":"YE","latitude":"15.77170000","longitude":"43.55100000"},{"id":"130924","name":"Midi","state_id":1244,"state_code":"HJ","country_id":245,"country_code":"YE","latitude":"16.19202000","longitude":"42.88913000"},{"id":"130931","name":"Mustaba","state_id":1244,"state_code":"HJ","country_id":245,"country_code":"YE","latitude":"16.27360000","longitude":"43.26850000"},{"id":"130935","name":"Najrah","state_id":1244,"state_code":"HJ","country_id":245,"country_code":"YE","latitude":"15.65270000","longitude":"43.54520000"},{"id":"130939","name":"Qafl Shamer","state_id":1244,"state_code":"HJ","country_id":245,"country_code":"YE","latitude":"15.90870000","longitude":"43.36400000"},{"id":"130941","name":"Qarah","state_id":1244,"state_code":"HJ","country_id":245,"country_code":"YE","latitude":"16.40190000","longitude":"43.47400000"},{"id":"130978","name":"Sharas","state_id":1244,"state_code":"HJ","country_id":245,"country_code":"YE","latitude":"15.72860000","longitude":"43.65460000"},{"id":"130996","name":"Wadhrah","state_id":1244,"state_code":"HJ","country_id":245,"country_code":"YE","latitude":"15.71420000","longitude":"43.46670000"},{"id":"130999","name":"Wash\u1e29ah","state_id":1244,"state_code":"HJ","country_id":245,"country_code":"YE","latitude":"16.32158000","longitude":"43.37555000"},{"id":"130675","name":"Al Hawtah","state_id":1245,"state_code":"LA","country_id":245,"country_code":"YE","latitude":"13.06240000","longitude":"44.88160000"},{"id":"130754","name":"Al \u1e28abilayn","state_id":1245,"state_code":"LA","country_id":245,"country_code":"YE","latitude":"13.52002000","longitude":"44.85076000"},{"id":"130690","name":"Al Had","state_id":1245,"state_code":"LA","country_id":245,"country_code":"YE","latitude":"13.97830000","longitude":"45.25530000"},{"id":"130710","name":"Al Madaribah Wa Al Arah","state_id":1245,"state_code":"LA","country_id":245,"country_code":"YE","latitude":"12.85690000","longitude":"43.99060000"},{"id":"130711","name":"Al Maflahy","state_id":1245,"state_code":"LA","country_id":245,"country_code":"YE","latitude":"13.77670000","longitude":"45.10880000"},{"id":"130721","name":"Al Maqatirah","state_id":1245,"state_code":"LA","country_id":245,"country_code":"YE","latitude":"13.13720000","longitude":"44.14040000"},{"id":"130732","name":"Al Milah","state_id":1245,"state_code":"LA","country_id":245,"country_code":"YE","latitude":"13.32020000","longitude":"44.92670000"},{"id":"130742","name":"Al Musaymir","state_id":1245,"state_code":"LA","country_id":245,"country_code":"YE","latitude":"13.44389000","longitude":"44.61528000"},{"id":"130741","name":"Al Musaymir","state_id":1245,"state_code":"LA","country_id":245,"country_code":"YE","latitude":"13.42910000","longitude":"44.59140000"},{"id":"130743","name":"Al Qabbaytah","state_id":1245,"state_code":"LA","country_id":245,"country_code":"YE","latitude":"13.32750000","longitude":"44.50250000"},{"id":"130846","name":"Habil Jabr","state_id":1245,"state_code":"LA","country_id":245,"country_code":"YE","latitude":"13.59210000","longitude":"45.07370000"},{"id":"130852","name":"Halimayn","state_id":1245,"state_code":"LA","country_id":245,"country_code":"YE","latitude":"13.70880000","longitude":"44.94430000"},{"id":"130901","name":"La\u1e29ij","state_id":1245,"state_code":"LA","country_id":245,"country_code":"YE","latitude":"13.05667000","longitude":"44.88194000"},{"id":"130945","name":"Radfan","state_id":1245,"state_code":"LA","country_id":245,"country_code":"YE","latitude":"13.46670000","longitude":"44.99000000"},{"id":"130991","name":"Tuban","state_id":1245,"state_code":"LA","country_id":245,"country_code":"YE","latitude":"13.09210000","longitude":"44.87840000"},{"id":"130992","name":"Tur Al Bahah","state_id":1245,"state_code":"LA","country_id":245,"country_code":"YE","latitude":"13.04269000","longitude":"44.41154000"},{"id":"131003","name":"Yafa'a","state_id":1245,"state_code":"LA","country_id":245,"country_code":"YE","latitude":"13.86200000","longitude":"45.20140000"},{"id":"131004","name":"Yahr","state_id":1245,"state_code":"LA","country_id":245,"country_code":"YE","latitude":"13.72270000","longitude":"45.13050000"},{"id":"130691","name":"Al Hada","state_id":1246,"state_code":"DH","country_id":245,"country_code":"YE","latitude":"14.80760000","longitude":"44.56790000"},{"id":"130718","name":"Al Manar","state_id":1246,"state_code":"DH","country_id":245,"country_code":"YE","latitude":"14.65300000","longitude":"44.11640000"},{"id":"130761","name":"Al-Medy Village, \u0642\u0631\u064a\u0629 \u0627\u0644\u0645\u062f\u064a","state_id":1246,"state_code":"DH","country_id":245,"country_code":"YE","latitude":"14.40152000","longitude":"43.79178000"},{"id":"131014","name":"\u2018Ans","state_id":1246,"state_code":"DH","country_id":245,"country_code":"YE","latitude":"14.43606000","longitude":"44.38889000"},{"id":"130833","name":"Dawran Aness","state_id":1246,"state_code":"DH","country_id":245,"country_code":"YE","latitude":"14.82880000","longitude":"44.11430000"},{"id":"130834","name":"Dhamar","state_id":1246,"state_code":"DH","country_id":245,"country_code":"YE","latitude":"14.54274000","longitude":"44.40514000"},{"id":"130873","name":"Jabal Ash sharq","state_id":1246,"state_code":"DH","country_id":245,"country_code":"YE","latitude":"14.72960000","longitude":"43.90620000"},{"id":"130878","name":"Jahran","state_id":1246,"state_code":"DH","country_id":245,"country_code":"YE","latitude":"14.73310000","longitude":"44.31430000"},{"id":"130904","name":"Maghirib Ans","state_id":1246,"state_code":"DH","country_id":245,"country_code":"YE","latitude":"14.46530000","longitude":"44.12330000"},{"id":"130919","name":"Mayfa'at Anss","state_id":1246,"state_code":"DH","country_id":245,"country_code":"YE","latitude":"14.51520000","longitude":"44.61060000"},{"id":"130994","name":"Utmah","state_id":1246,"state_code":"DH","country_id":245,"country_code":"YE","latitude":"14.47380000","longitude":"43.94830000"},{"id":"131000","name":"Wusab Al Ali","state_id":1246,"state_code":"DH","country_id":245,"country_code":"YE","latitude":"14.33440000","longitude":"43.79470000"},{"id":"131001","name":"Wusab As Safil","state_id":1246,"state_code":"DH","country_id":245,"country_code":"YE","latitude":"14.25480000","longitude":"43.63250000"},{"id":"130674","name":"Ain","state_id":1247,"state_code":"SH","country_id":245,"country_code":"YE","latitude":"14.95030000","longitude":"45.60040000"},{"id":"130760","name":"Al \u2018Aqir","state_id":1247,"state_code":"SH","country_id":245,"country_code":"YE","latitude":"14.56816000","longitude":"45.91156000"},{"id":"130751","name":"Al Talh","state_id":1247,"state_code":"SH","country_id":245,"country_code":"YE","latitude":"15.08260000","longitude":"47.35140000"},{"id":"130663","name":"AL-khasha upper","state_id":1247,"state_code":"SH","country_id":245,"country_code":"YE","latitude":"14.34044000","longitude":"46.71365000"},{"id":"130766","name":"Ar Rawdah","state_id":1247,"state_code":"SH","country_id":245,"country_code":"YE","latitude":"14.49560000","longitude":"47.27460000"},{"id":"130771","name":"Arma","state_id":1247,"state_code":"SH","country_id":245,"country_code":"YE","latitude":"15.41270000","longitude":"47.23450000"},{"id":"130775","name":"As Said","state_id":1247,"state_code":"SH","country_id":245,"country_code":"YE","latitude":"14.27660000","longitude":"46.86930000"},{"id":"130800","name":"Ataq","state_id":1247,"state_code":"SH","country_id":245,"country_code":"YE","latitude":"14.53767000","longitude":"46.83187000"},{"id":"130822","name":"Bayhan","state_id":1247,"state_code":"SH","country_id":245,"country_code":"YE","latitude":"14.76190000","longitude":"45.74820000"},{"id":"130835","name":"Dhar","state_id":1247,"state_code":"SH","country_id":245,"country_code":"YE","latitude":"15.50360000","longitude":"47.60580000"},{"id":"130845","name":"Habban","state_id":1247,"state_code":"SH","country_id":245,"country_code":"YE","latitude":"14.28780000","longitude":"47.13610000"},{"id":"130858","name":"Hatib","state_id":1247,"state_code":"SH","country_id":245,"country_code":"YE","latitude":"14.18020000","longitude":"46.44390000"},{"id":"130879","name":"Jardan","state_id":1247,"state_code":"SH","country_id":245,"country_code":"YE","latitude":"15.19000000","longitude":"46.73380000"},{"id":"130891","name":"Khimar","state_id":1247,"state_code":"SH","country_id":245,"country_code":"YE","latitude":"14.31980000","longitude":"46.73922000"},{"id":"130918","name":"Mayfa'a","state_id":1247,"state_code":"SH","country_id":245,"country_code":"YE","latitude":"14.39780000","longitude":"47.74040000"},{"id":"130922","name":"Merkhah Al Ulya","state_id":1247,"state_code":"SH","country_id":245,"country_code":"YE","latitude":"14.48470000","longitude":"45.92990000"},{"id":"130923","name":"Merkhah As Sufla","state_id":1247,"state_code":"SH","country_id":245,"country_code":"YE","latitude":"14.69990000","longitude":"46.15630000"},{"id":"130938","name":"Nisab","state_id":1247,"state_code":"SH","country_id":245,"country_code":"YE","latitude":"14.52570000","longitude":"46.44770000"},{"id":"130954","name":"Rudum","state_id":1247,"state_code":"SH","country_id":245,"country_code":"YE","latitude":"14.03759000","longitude":"47.83824000"},{"id":"130993","name":"Usaylan","state_id":1247,"state_code":"SH","country_id":245,"country_code":"YE","latitude":"15.17030000","longitude":"46.02740000"},{"id":"130701","name":"Al Jabin","state_id":1248,"state_code":"RA","country_id":245,"country_code":"YE","latitude":"14.68990000","longitude":"43.61960000"},{"id":"130702","name":"Al Jafariyah","state_id":1248,"state_code":"RA","country_id":245,"country_code":"YE","latitude":"14.51960000","longitude":"43.58170000"},{"id":"130776","name":"As Salafiyah","state_id":1248,"state_code":"RA","country_id":245,"country_code":"YE","latitude":"14.68660000","longitude":"43.82160000"},{"id":"130826","name":"Bilad At Ta'am","state_id":1248,"state_code":"RA","country_id":245,"country_code":"YE","latitude":"14.83820000","longitude":"43.60780000"},{"id":"130899","name":"Kusmah","state_id":1248,"state_code":"RA","country_id":245,"country_code":"YE","latitude":"14.54740000","longitude":"43.68330000"},{"id":"130920","name":"Mazhar","state_id":1248,"state_code":"RA","country_id":245,"country_code":"YE","latitude":"14.57090000","longitude":"43.76070000"},{"id":"130684","name":"Al Dhaher","state_id":1249,"state_code":"SD","country_id":245,"country_code":"YE","latitude":"16.73140000","longitude":"43.27530000"},{"id":"130694","name":"Al Hashwah","state_id":1249,"state_code":"SD","country_id":245,"country_code":"YE","latitude":"16.88840000","longitude":"44.27380000"},{"id":"130774","name":"As Safra","state_id":1249,"state_code":"SD","country_id":245,"country_code":"YE","latitude":"17.01420000","longitude":"43.85660000"},{"id":"130792","name":"Ash Shawati","state_id":1249,"state_code":"SD","country_id":245,"country_code":"YE","latitude":"16.78314000","longitude":"43.81265000"},{"id":"131010","name":"Sa\u2018dah","state_id":1249,"state_code":"SD","country_id":245,"country_code":"YE","latitude":"16.91733000","longitude":"43.76000000"},{"id":"130820","name":"Baqim","state_id":1249,"state_code":"SD","country_id":245,"country_code":"YE","latitude":"17.37810000","longitude":"43.46350000"},{"id":"130842","name":"Ghamr","state_id":1249,"state_code":"SD","country_id":245,"country_code":"YE","latitude":"16.98301000","longitude":"43.31608000"},{"id":"130860","name":"Haydan","state_id":1249,"state_code":"SD","country_id":245,"country_code":"YE","latitude":"16.72870000","longitude":"43.48490000"},{"id":"130894","name":"Kitaf wa Al Boqe'e","state_id":1249,"state_code":"SD","country_id":245,"country_code":"YE","latitude":"17.08080000","longitude":"44.39620000"},{"id":"130906","name":"Majz","state_id":1249,"state_code":"SD","country_id":245,"country_code":"YE","latitude":"17.09230000","longitude":"43.51040000"},{"id":"130926","name":"Monabbih","state_id":1249,"state_code":"SD","country_id":245,"country_code":"YE","latitude":"17.16930000","longitude":"43.27910000"},{"id":"130942","name":"Qatabir","state_id":1249,"state_code":"SD","country_id":245,"country_code":"YE","latitude":"17.33680000","longitude":"43.33110000"},{"id":"130956","name":"Razi\u1e29","state_id":1249,"state_code":"SD","country_id":245,"country_code":"YE","latitude":"16.93704000","longitude":"43.26080000"},{"id":"130957","name":"Sa'dah","state_id":1249,"state_code":"SD","country_id":245,"country_code":"YE","latitude":"16.94021000","longitude":"43.76393000"},{"id":"130972","name":"Sa\u1e29ar","state_id":1249,"state_code":"SD","country_id":245,"country_code":"YE","latitude":"16.88522000","longitude":"43.68306000"},{"id":"130966","name":"Saqayn","state_id":1249,"state_code":"SD","country_id":245,"country_code":"YE","latitude":"16.86010000","longitude":"43.47160000"},{"id":"130985","name":"Saqayn","state_id":1249,"state_code":"SD","country_id":245,"country_code":"YE","latitude":"16.87700000","longitude":"43.52499000"},{"id":"130973","name":"Shada'a","state_id":1249,"state_code":"SD","country_id":245,"country_code":"YE","latitude":"16.89130000","longitude":"43.18710000"},{"id":"130679","name":"Al Ashah","state_id":1250,"state_code":"AM","country_id":245,"country_code":"YE","latitude":"16.32400000","longitude":"43.78740000"},{"id":"130709","name":"Al Madan","state_id":1250,"state_code":"AM","country_id":245,"country_code":"YE","latitude":"16.23280000","longitude":"43.63900000"},{"id":"130745","name":"Al Qaflah","state_id":1250,"state_code":"AM","country_id":245,"country_code":"YE","latitude":"16.33859000","longitude":"43.70361000"},{"id":"130779","name":"As Sawd","state_id":1250,"state_code":"AM","country_id":245,"country_code":"YE","latitude":"15.81340000","longitude":"43.77700000"},{"id":"130784","name":"As Sudah","state_id":1250,"state_code":"AM","country_id":245,"country_code":"YE","latitude":"15.96640000","longitude":"43.77560000"},{"id":"131013","name":"\u2018Amran","state_id":1250,"state_code":"AM","country_id":245,"country_code":"YE","latitude":"15.65940000","longitude":"43.94385000"},{"id":"130818","name":"Bani Suraim","state_id":1250,"state_code":"AM","country_id":245,"country_code":"YE","latitude":"16.12530000","longitude":"43.96020000"},{"id":"130836","name":"Dhi Bin","state_id":1250,"state_code":"AM","country_id":245,"country_code":"YE","latitude":"16.02760000","longitude":"44.15150000"},{"id":"130847","name":"Habur Zulaymah","state_id":1250,"state_code":"AM","country_id":245,"country_code":"YE","latitude":"16.03500000","longitude":"43.73380000"},{"id":"130855","name":"Harf Sufyan","state_id":1250,"state_code":"AM","country_id":245,"country_code":"YE","latitude":"16.41389000","longitude":"43.98571000"},{"id":"130866","name":"Hooth","state_id":1250,"state_code":"AM","country_id":245,"country_code":"YE","latitude":"16.28397000","longitude":"43.97811000"},{"id":"130872","name":"Iyal Surayh","state_id":1250,"state_code":"AM","country_id":245,"country_code":"YE","latitude":"15.71460000","longitude":"43.99740000"},{"id":"130875","name":"Jabal Iyal Yazid","state_id":1250,"state_code":"AM","country_id":245,"country_code":"YE","latitude":"15.77170000","longitude":"43.90510000"},{"id":"130886","name":"Khamir","state_id":1250,"state_code":"AM","country_id":245,"country_code":"YE","latitude":"15.97653000","longitude":"43.93371000"},{"id":"130889","name":"Kharif","state_id":1250,"state_code":"AM","country_id":245,"country_code":"YE","latitude":"15.84700000","longitude":"44.08220000"},{"id":"130915","name":"Maswar","state_id":1250,"state_code":"AM","country_id":245,"country_code":"YE","latitude":"15.59860000","longitude":"43.69250000"},{"id":"130953","name":"Raydah","state_id":1250,"state_code":"AM","country_id":245,"country_code":"YE","latitude":"15.74056000","longitude":"44.05634000"},{"id":"130975","name":"Shaharah","state_id":1250,"state_code":"AM","country_id":245,"country_code":"YE","latitude":"16.18000000","longitude":"43.70942000"},{"id":"130983","name":"Suwayr","state_id":1250,"state_code":"AM","country_id":245,"country_code":"YE","latitude":"16.06110000","longitude":"43.62120000"},{"id":"130990","name":"Thula","state_id":1250,"state_code":"AM","country_id":245,"country_code":"YE","latitude":"15.60100000","longitude":"43.82520000"},{"id":"130687","name":"Al Ghaydah","state_id":1251,"state_code":"MR","country_id":245,"country_code":"YE","latitude":"16.26180000","longitude":"52.08160000"},{"id":"130689","name":"Al Ghayz\u0327ah","state_id":1251,"state_code":"MR","country_id":245,"country_code":"YE","latitude":"16.20787000","longitude":"52.17605000"},{"id":"130724","name":"Al Masilah","state_id":1251,"state_code":"MR","country_id":245,"country_code":"YE","latitude":"15.63990000","longitude":"50.64450000"},{"id":"130857","name":"Hat","state_id":1251,"state_code":"MR","country_id":245,"country_code":"YE","latitude":"17.80310000","longitude":"51.67500000"},{"id":"130859","name":"Hawf","state_id":1251,"state_code":"MR","country_id":245,"country_code":"YE","latitude":"16.69530000","longitude":"52.81820000"},{"id":"130870","name":"Huswain","state_id":1251,"state_code":"MR","country_id":245,"country_code":"YE","latitude":"15.72300000","longitude":"51.91240000"},{"id":"130908","name":"Man'ar","state_id":1251,"state_code":"MR","country_id":245,"country_code":"YE","latitude":"16.55050000","longitude":"50.98790000"},{"id":"130943","name":"Qishn","state_id":1251,"state_code":"MR","country_id":245,"country_code":"YE","latitude":"15.69990000","longitude":"51.32400000"},{"id":"130968","name":"Sayhut","state_id":1251,"state_code":"MR","country_id":245,"country_code":"YE","latitude":"15.53450000","longitude":"51.28690000"},{"id":"130974","name":"Shahan","state_id":1251,"state_code":"MR","country_id":245,"country_code":"YE","latitude":"17.59230000","longitude":"52.59400000"}]