[{"id":"19319","name":"Baoying","state_id":2255,"state_code":"TW","country_id":45,"country_code":"CN","latitude":"33.22917000","longitude":"119.30917000"},{"id":"19376","name":"Changshu City","state_id":2255,"state_code":"TW","country_id":45,"country_code":"CN","latitude":"31.64615000","longitude":"120.74221000"},{"id":"19379","name":"Changzhou","state_id":2255,"state_code":"TW","country_id":45,"country_code":"CN","latitude":"31.77359000","longitude":"119.95401000"},{"id":"19394","name":"Chengxiang","state_id":2255,"state_code":"TW","country_id":45,"country_code":"CN","latitude":"31.44778000","longitude":"121.09389000"},{"id":"19442","name":"Dazhong","state_id":2255,"state_code":"TW","country_id":45,"country_code":"CN","latitude":"33.19973000","longitude":"120.45780000"},{"id":"19470","name":"Dongkan","state_id":2255,"state_code":"TW","country_id":45,"country_code":"CN","latitude":"33.99972000","longitude":"119.83083000"},{"id":"19477","name":"Dongtai","state_id":2255,"state_code":"TW","country_id":45,"country_code":"CN","latitude":"32.85231000","longitude":"120.30947000"},{"id":"19510","name":"Fengxian","state_id":2255,"state_code":"TW","country_id":45,"country_code":"CN","latitude":"34.70388000","longitude":"116.58717000"},{"id":"19540","name":"Gaogou","state_id":2255,"state_code":"TW","country_id":45,"country_code":"CN","latitude":"34.01750000","longitude":"119.18861000"},{"id":"19548","name":"Gaoyou","state_id":2255,"state_code":"TW","country_id":45,"country_code":"CN","latitude":"32.78933000","longitude":"119.44182000"},{"id":"19573","name":"Guiren","state_id":2255,"state_code":"TW","country_id":45,"country_code":"CN","latitude":"33.66972000","longitude":"118.18889000"},{"id":"19592","name":"Haizhou","state_id":2255,"state_code":"TW","country_id":45,"country_code":"CN","latitude":"34.58167000","longitude":"119.12889000"},{"id":"19606","name":"Hede","state_id":2255,"state_code":"TW","country_id":45,"country_code":"CN","latitude":"33.77220000","longitude":"120.26176000"},{"id":"19635","name":"Huai'an","state_id":2255,"state_code":"TW","country_id":45,"country_code":"CN","latitude":"33.58861000","longitude":"119.01917000"},{"id":"19644","name":"Huai\u2019an Shi","state_id":2255,"state_code":"TW","country_id":45,"country_code":"CN","latitude":"33.31162000","longitude":"119.04559000"},{"id":"19673","name":"Huilong","state_id":2255,"state_code":"TW","country_id":45,"country_code":"CN","latitude":"31.81111000","longitude":"121.65500000"},{"id":"19688","name":"Hutang","state_id":2255,"state_code":"TW","country_id":45,"country_code":"CN","latitude":"31.53429000","longitude":"119.49000000"},{"id":"19702","name":"Jiangyan","state_id":2255,"state_code":"TW","country_id":45,"country_code":"CN","latitude":"32.50611000","longitude":"120.14278000"},{"id":"19703","name":"Jiangyin","state_id":2255,"state_code":"TW","country_id":45,"country_code":"CN","latitude":"31.91102000","longitude":"120.26302000"},{"id":"19734","name":"Jingjiang","state_id":2255,"state_code":"TW","country_id":45,"country_code":"CN","latitude":"32.01417000","longitude":"120.26250000"},{"id":"19747","name":"Jinsha","state_id":2255,"state_code":"TW","country_id":45,"country_code":"CN","latitude":"32.08982000","longitude":"121.07355000"},{"id":"19764","name":"Juegang","state_id":2255,"state_code":"TW","country_id":45,"country_code":"CN","latitude":"32.31737000","longitude":"121.18552000"},{"id":"19784","name":"Kunshan","state_id":2255,"state_code":"TW","country_id":45,"country_code":"CN","latitude":"31.37762000","longitude":"120.95431000"},{"id":"19825","name":"Lianyungang Shi","state_id":2255,"state_code":"TW","country_id":45,"country_code":"CN","latitude":"34.54844000","longitude":"119.11228000"},{"id":"19832","name":"Licheng","state_id":2255,"state_code":"TW","country_id":45,"country_code":"CN","latitude":"31.42813000","longitude":"119.48353000"},{"id":"19930","name":"Mudu","state_id":2255,"state_code":"TW","country_id":45,"country_code":"CN","latitude":"31.25597000","longitude":"120.51857000"},{"id":"19941","name":"Nanjing","state_id":2255,"state_code":"TW","country_id":45,"country_code":"CN","latitude":"32.06167000","longitude":"118.77778000"},{"id":"19949","name":"Nantong","state_id":2255,"state_code":"TW","country_id":45,"country_code":"CN","latitude":"32.03028000","longitude":"120.87472000"},{"id":"19987","name":"Pizhou","state_id":2255,"state_code":"TW","country_id":45,"country_code":"CN","latitude":"34.31139000","longitude":"117.95028000"},{"id":"20030","name":"Qinnan","state_id":2255,"state_code":"TW","country_id":45,"country_code":"CN","latitude":"33.25306000","longitude":"119.91333000"},{"id":"20044","name":"Rucheng","state_id":2255,"state_code":"TW","country_id":45,"country_code":"CN","latitude":"32.38833000","longitude":"120.55528000"},{"id":"20054","name":"Sanmao","state_id":2255,"state_code":"TW","country_id":45,"country_code":"CN","latitude":"32.23931000","longitude":"119.81536000"},{"id":"20136","name":"Songling","state_id":2255,"state_code":"TW","country_id":45,"country_code":"CN","latitude":"31.19330000","longitude":"120.71758000"},{"id":"20139","name":"Suicheng","state_id":2255,"state_code":"TW","country_id":45,"country_code":"CN","latitude":"33.89630000","longitude":"117.93307000"},{"id":"20150","name":"Suzhou","state_id":2255,"state_code":"TW","country_id":45,"country_code":"CN","latitude":"31.30408000","longitude":"120.59538000"},{"id":"20161","name":"Taixing","state_id":2255,"state_code":"TW","country_id":45,"country_code":"CN","latitude":"32.16667000","longitude":"120.01361000"},{"id":"20163","name":"Taizhou","state_id":2255,"state_code":"TW","country_id":45,"country_code":"CN","latitude":"32.49069000","longitude":"119.90812000"},{"id":"20195","name":"Tongshan","state_id":2255,"state_code":"TW","country_id":45,"country_code":"CN","latitude":"34.18045000","longitude":"117.15707000"},{"id":"20239","name":"Wuxi","state_id":2255,"state_code":"TW","country_id":45,"country_code":"CN","latitude":"31.56887000","longitude":"120.28857000"},{"id":"20263","name":"Xiann\u00fc","state_id":2255,"state_code":"TW","country_id":45,"country_code":"CN","latitude":"32.42806000","longitude":"119.56048000"},{"id":"20271","name":"Xiaolingwei","state_id":2255,"state_code":"TW","country_id":45,"country_code":"CN","latitude":"32.03244000","longitude":"118.85400000"},{"id":"20294","name":"Xinghua","state_id":2255,"state_code":"TW","country_id":45,"country_code":"CN","latitude":"32.93917000","longitude":"119.83417000"},{"id":"20303","name":"Xinpu","state_id":2255,"state_code":"TW","country_id":45,"country_code":"CN","latitude":"34.59972000","longitude":"119.15944000"},{"id":"20340","name":"Yancheng","state_id":2255,"state_code":"TW","country_id":45,"country_code":"CN","latitude":"33.35750000","longitude":"120.15730000"},{"id":"20349","name":"Yangzhou","state_id":2255,"state_code":"TW","country_id":45,"country_code":"CN","latitude":"32.39722000","longitude":"119.43583000"},{"id":"20368","name":"Yicheng","state_id":2255,"state_code":"TW","country_id":45,"country_code":"CN","latitude":"31.36059000","longitude":"119.82016000"},{"id":"20405","name":"Yushan","state_id":2255,"state_code":"TW","country_id":45,"country_code":"CN","latitude":"31.67748000","longitude":"120.80134000"},{"id":"20420","name":"Zhangjiagang","state_id":2255,"state_code":"TW","country_id":45,"country_code":"CN","latitude":"31.86500000","longitude":"120.53889000"},{"id":"20441","name":"Zhenjiang","state_id":2255,"state_code":"TW","country_id":45,"country_code":"CN","latitude":"32.21086000","longitude":"119.45508000"},{"id":"20443","name":"Zhenzhou","state_id":2255,"state_code":"TW","country_id":45,"country_code":"CN","latitude":"32.28034000","longitude":"119.16999000"},{"id":"20456","name":"Zhongxing","state_id":2255,"state_code":"TW","country_id":45,"country_code":"CN","latitude":"33.70389000","longitude":"118.67917000"},{"id":"20462","name":"Zhouzhuang","state_id":2255,"state_code":"TW","country_id":45,"country_code":"CN","latitude":"31.11788000","longitude":"120.84427000"}]