[{"id":"19287","name":"Anshan","state_id":2268,"state_code":"LN","country_id":45,"country_code":"CN","latitude":"41.12361000","longitude":"122.99000000"},{"id":"19333","name":"Beipiao","state_id":2268,"state_code":"LN","country_id":45,"country_code":"CN","latitude":"41.79194000","longitude":"120.77917000"},{"id":"19339","name":"Benxi","state_id":2268,"state_code":"LN","country_id":45,"country_code":"CN","latitude":"41.28861000","longitude":"123.76500000"},{"id":"19377","name":"Changtu","state_id":2268,"state_code":"LN","country_id":45,"country_code":"CN","latitude":"42.77884000","longitude":"124.09545000"},{"id":"19382","name":"Chaoyang","state_id":2268,"state_code":"LN","country_id":45,"country_code":"CN","latitude":"41.57028000","longitude":"120.45861000"},{"id":"19421","name":"Dalian","state_id":2268,"state_code":"LN","country_id":45,"country_code":"CN","latitude":"38.91222000","longitude":"121.60222000"},{"id":"19423","name":"Dalianwan","state_id":2268,"state_code":"LN","country_id":45,"country_code":"CN","latitude":"39.02861000","longitude":"121.69500000"},{"id":"19424","name":"Dandong","state_id":2268,"state_code":"LN","country_id":45,"country_code":"CN","latitude":"40.12917000","longitude":"124.39472000"},{"id":"19433","name":"Dashiqiao","state_id":2268,"state_code":"LN","country_id":45,"country_code":"CN","latitude":"40.63732000","longitude":"122.50251000"},{"id":"19472","name":"Dongling","state_id":2268,"state_code":"LN","country_id":45,"country_code":"CN","latitude":"41.81444000","longitude":"123.57583000"},{"id":"19504","name":"Fengcheng","state_id":2268,"state_code":"LN","country_id":45,"country_code":"CN","latitude":"40.45361000","longitude":"124.07167000"},{"id":"19523","name":"Fushun","state_id":2268,"state_code":"LN","country_id":45,"country_code":"CN","latitude":"41.88669000","longitude":"123.94363000"},{"id":"19524","name":"Fuxin","state_id":2268,"state_code":"LN","country_id":45,"country_code":"CN","latitude":"42.01556000","longitude":"121.65889000"},{"id":"19533","name":"Gaizhou","state_id":2268,"state_code":"LN","country_id":45,"country_code":"CN","latitude":"40.39417000","longitude":"122.36861000"},{"id":"19556","name":"Gongchangling","state_id":2268,"state_code":"LN","country_id":45,"country_code":"CN","latitude":"41.11667000","longitude":"123.45000000"},{"id":"19583","name":"Haicheng","state_id":2268,"state_code":"LN","country_id":45,"country_code":"CN","latitude":"40.85158000","longitude":"122.74754000"},{"id":"19611","name":"Heishan","state_id":2268,"state_code":"LN","country_id":45,"country_code":"CN","latitude":"41.68917000","longitude":"122.11278000"},{"id":"19664","name":"Huanren","state_id":2268,"state_code":"LN","country_id":45,"country_code":"CN","latitude":"41.26472000","longitude":"125.36667000"},{"id":"19678","name":"Huludao","state_id":2268,"state_code":"LN","country_id":45,"country_code":"CN","latitude":"40.75243000","longitude":"120.83552000"},{"id":"19679","name":"Huludao Shi","state_id":2268,"state_code":"LN","country_id":45,"country_code":"CN","latitude":"40.74528000","longitude":"120.21972000"},{"id":"19687","name":"Hushitai","state_id":2268,"state_code":"LN","country_id":45,"country_code":"CN","latitude":"41.94175000","longitude":"123.50266000"},{"id":"19752","name":"Jinzhou","state_id":2268,"state_code":"LN","country_id":45,"country_code":"CN","latitude":"41.10778000","longitude":"121.14167000"},{"id":"19757","name":"Jiupu","state_id":2268,"state_code":"LN","country_id":45,"country_code":"CN","latitude":"41.06667000","longitude":"122.95000000"},{"id":"19771","name":"Kaiyuan","state_id":2268,"state_code":"LN","country_id":45,"country_code":"CN","latitude":"42.53306000","longitude":"124.04028000"},{"id":"19781","name":"Kuandian","state_id":2268,"state_code":"LN","country_id":45,"country_code":"CN","latitude":"40.72861000","longitude":"124.78472000"},{"id":"19796","name":"Langtoucun","state_id":2268,"state_code":"LN","country_id":45,"country_code":"CN","latitude":"40.04068000","longitude":"124.33525000"},{"id":"19897","name":"L\u00fcshun","state_id":2268,"state_code":"LN","country_id":45,"country_code":"CN","latitude":"38.80000000","longitude":"121.26667000"},{"id":"19823","name":"Lianshan","state_id":2268,"state_code":"LN","country_id":45,"country_code":"CN","latitude":"40.76432000","longitude":"120.85327000"},{"id":"19829","name":"Liaoyang","state_id":2268,"state_code":"LN","country_id":45,"country_code":"CN","latitude":"41.27194000","longitude":"123.17306000"},{"id":"19831","name":"Liaozhong","state_id":2268,"state_code":"LN","country_id":45,"country_code":"CN","latitude":"41.50611000","longitude":"122.72417000"},{"id":"19842","name":"Linghai","state_id":2268,"state_code":"LN","country_id":45,"country_code":"CN","latitude":"41.16528000","longitude":"121.36667000"},{"id":"19843","name":"Lingyuan","state_id":2268,"state_code":"LN","country_id":45,"country_code":"CN","latitude":"41.24000000","longitude":"119.40111000"},{"id":"19946","name":"Nanpiao","state_id":2268,"state_code":"LN","country_id":45,"country_code":"CN","latitude":"41.09822000","longitude":"120.74792000"},{"id":"19948","name":"Nantai","state_id":2268,"state_code":"LN","country_id":45,"country_code":"CN","latitude":"40.92410000","longitude":"122.80437000"},{"id":"19972","name":"Panjin Shi","state_id":2268,"state_code":"LN","country_id":45,"country_code":"CN","latitude":"41.13167000","longitude":"121.99361000"},{"id":"19973","name":"Panshan","state_id":2268,"state_code":"LN","country_id":45,"country_code":"CN","latitude":"41.18806000","longitude":"122.04944000"},{"id":"19994","name":"Pulandian","state_id":2268,"state_code":"LN","country_id":45,"country_code":"CN","latitude":"39.39528000","longitude":"121.96694000"},{"id":"20090","name":"Shenyang","state_id":2268,"state_code":"LN","country_id":45,"country_code":"CN","latitude":"41.79222000","longitude":"123.43278000"},{"id":"20146","name":"Sujiatun","state_id":2268,"state_code":"LN","country_id":45,"country_code":"CN","latitude":"41.65917000","longitude":"123.33917000"},{"id":"20183","name":"Tieling","state_id":2268,"state_code":"LN","country_id":45,"country_code":"CN","latitude":"42.29306000","longitude":"123.84139000"},{"id":"20184","name":"Tieling Shi","state_id":2268,"state_code":"LN","country_id":45,"country_code":"CN","latitude":"42.62583000","longitude":"124.32361000"},{"id":"20206","name":"Wafangdian","state_id":2268,"state_code":"LN","country_id":45,"country_code":"CN","latitude":"39.61833000","longitude":"122.00806000"},{"id":"20275","name":"Xiaoshi","state_id":2268,"state_code":"LN","country_id":45,"country_code":"CN","latitude":"41.29711000","longitude":"124.12092000"},{"id":"20281","name":"Xifeng","state_id":2268,"state_code":"LN","country_id":45,"country_code":"CN","latitude":"42.73722000","longitude":"124.72222000"},{"id":"20293","name":"Xingcheng","state_id":2268,"state_code":"LN","country_id":45,"country_code":"CN","latitude":"40.61667000","longitude":"120.71667000"},{"id":"20302","name":"Xinmin","state_id":2268,"state_code":"LN","country_id":45,"country_code":"CN","latitude":"41.99083000","longitude":"122.82528000"},{"id":"20310","name":"Xinxing","state_id":2268,"state_code":"LN","country_id":45,"country_code":"CN","latitude":"39.86694000","longitude":"124.12304000"},{"id":"20324","name":"Xiuyan","state_id":2268,"state_code":"LN","country_id":45,"country_code":"CN","latitude":"40.29278000","longitude":"123.27444000"},{"id":"20364","name":"Yebaishou","state_id":2268,"state_code":"LN","country_id":45,"country_code":"CN","latitude":"41.39750000","longitude":"119.64083000"},{"id":"20378","name":"Yingkou","state_id":2268,"state_code":"LN","country_id":45,"country_code":"CN","latitude":"40.63897000","longitude":"122.24762000"},{"id":"20464","name":"Zhuanghe","state_id":2268,"state_code":"LN","country_id":45,"country_code":"CN","latitude":"39.70083000","longitude":"122.99111000"}]