[{"id":"19321","name":"Basuo","state_id":2273,"state_code":"HI","country_id":45,"country_code":"CN","latitude":"19.09390000","longitude":"108.65456000"},{"id":"19406","name":"Chongshan","state_id":2273,"state_code":"HI","country_id":45,"country_code":"CN","latitude":"18.78229000","longitude":"109.50130000"},{"id":"19415","name":"Dadonghai","state_id":2273,"state_code":"HI","country_id":45,"country_code":"CN","latitude":"18.22056000","longitude":"109.51028000"},{"id":"19584","name":"Haikou","state_id":2273,"state_code":"HI","country_id":45,"country_code":"CN","latitude":"20.04583000","longitude":"110.34167000"},{"id":"19745","name":"Jinjiang","state_id":2273,"state_code":"HI","country_id":45,"country_code":"CN","latitude":"19.72878000","longitude":"110.00851000"},{"id":"19837","name":"Lincheng","state_id":2273,"state_code":"HI","country_id":45,"country_code":"CN","latitude":"19.90778000","longitude":"109.68583000"},{"id":"19932","name":"Nada","state_id":2273,"state_code":"HI","country_id":45,"country_code":"CN","latitude":"19.52257000","longitude":"109.57860000"},{"id":"20032","name":"Qionghai","state_id":2273,"state_code":"HI","country_id":45,"country_code":"CN","latitude":"19.24250000","longitude":"110.46417000"},{"id":"20034","name":"Qiongshan","state_id":2273,"state_code":"HI","country_id":45,"country_code":"CN","latitude":"20.00583000","longitude":"110.35417000"},{"id":"20056","name":"Sansha","state_id":2273,"state_code":"HI","country_id":45,"country_code":"CN","latitude":"16.83387000","longitude":"112.33435000"},{"id":"20058","name":"Sanya","state_id":2273,"state_code":"HI","country_id":45,"country_code":"CN","latitude":"18.24306000","longitude":"109.50500000"},{"id":"20209","name":"Wanning","state_id":2273,"state_code":"HI","country_id":45,"country_code":"CN","latitude":"18.79931000","longitude":"110.38410000"},{"id":"20217","name":"Wenchang","state_id":2273,"state_code":"HI","country_id":45,"country_code":"CN","latitude":"19.61570000","longitude":"110.74894000"},{"id":"20325","name":"Xiuying","state_id":2273,"state_code":"HI","country_id":45,"country_code":"CN","latitude":"20.00073000","longitude":"110.29359000"}]