[{"id":"19309","name":"Baiyin","state_id":2275,"state_code":"GS","country_id":45,"country_code":"CN","latitude":"36.54696000","longitude":"104.17023000"},{"id":"19330","name":"Beidao","state_id":2275,"state_code":"GS","country_id":45,"country_code":"CN","latitude":"34.56861000","longitude":"105.89333000"},{"id":"19460","name":"Dingxi Shi","state_id":2275,"state_code":"GS","country_id":45,"country_code":"CN","latitude":"35.03710000","longitude":"104.38623000"},{"id":"19622","name":"Hezuo","state_id":2275,"state_code":"GS","country_id":45,"country_code":"CN","latitude":"34.98556000","longitude":"102.90944000"},{"id":"19716","name":"Jiayuguan","state_id":2275,"state_code":"GS","country_id":45,"country_code":"CN","latitude":"39.81121000","longitude":"98.28618000"},{"id":"19728","name":"Jinchang","state_id":2275,"state_code":"GS","country_id":45,"country_code":"CN","latitude":"38.50062000","longitude":"102.19379000"},{"id":"19758","name":"Jiuquan","state_id":2275,"state_code":"GS","country_id":45,"country_code":"CN","latitude":"39.74318000","longitude":"98.51736000"},{"id":"19803","name":"Lanzhou","state_id":2275,"state_code":"GS","country_id":45,"country_code":"CN","latitude":"36.05701000","longitude":"103.83987000"},{"id":"19806","name":"Laojunmiao","state_id":2275,"state_code":"GS","country_id":45,"country_code":"CN","latitude":"39.83333000","longitude":"97.73333000"},{"id":"19854","name":"Linxia Chengguanzhen","state_id":2275,"state_code":"GS","country_id":45,"country_code":"CN","latitude":"35.60028000","longitude":"103.20639000"},{"id":"19855","name":"Linxia Huizu Zizhizhou","state_id":2275,"state_code":"GS","country_id":45,"country_code":"CN","latitude":"35.66597000","longitude":"103.24080000"},{"id":"19871","name":"Longnan Shi","state_id":2275,"state_code":"GS","country_id":45,"country_code":"CN","latitude":"33.53451000","longitude":"105.34947000"},{"id":"19908","name":"Mawu","state_id":2275,"state_code":"GS","country_id":45,"country_code":"CN","latitude":"34.42639000","longitude":"104.91472000"},{"id":"19980","name":"Pingliang","state_id":2275,"state_code":"GS","country_id":45,"country_code":"CN","latitude":"35.53917000","longitude":"106.68611000"},{"id":"20015","name":"Qincheng","state_id":2275,"state_code":"GS","country_id":45,"country_code":"CN","latitude":"34.58028000","longitude":"105.72722000"},{"id":"20026","name":"Qingyang Shi","state_id":2275,"state_code":"GS","country_id":45,"country_code":"CN","latitude":"36.23598000","longitude":"107.58113000"},{"id":"20181","name":"Tianshui","state_id":2275,"state_code":"GS","country_id":45,"country_code":"CN","latitude":"34.57952000","longitude":"105.74238000"},{"id":"20237","name":"Wuwei","state_id":2275,"state_code":"GS","country_id":45,"country_code":"CN","latitude":"37.92672000","longitude":"102.63202000"},{"id":"20426","name":"Zhangye","state_id":2275,"state_code":"GS","country_id":45,"country_code":"CN","latitude":"38.93417000","longitude":"100.45167000"},{"id":"20427","name":"Zhangye Shi","state_id":2275,"state_code":"GS","country_id":45,"country_code":"CN","latitude":"39.12183000","longitude":"99.92495000"}]