[{"id":"19295","name":"Babu","state_id":2278,"state_code":"GX","country_id":45,"country_code":"CN","latitude":"24.41667000","longitude":"111.51667000"},{"id":"19299","name":"Baihe","state_id":2278,"state_code":"GX","country_id":45,"country_code":"CN","latitude":"22.13430000","longitude":"107.23200000"},{"id":"19303","name":"Baise City","state_id":2278,"state_code":"GX","country_id":45,"country_code":"CN","latitude":"23.89972000","longitude":"106.61333000"},{"id":"19304","name":"Baise Shi","state_id":2278,"state_code":"GX","country_id":45,"country_code":"CN","latitude":"23.90000000","longitude":"106.61667000"},{"id":"19331","name":"Beihai","state_id":2278,"state_code":"GX","country_id":45,"country_code":"CN","latitude":"21.48333000","longitude":"109.10000000"},{"id":"19407","name":"Chongzuo Shi","state_id":2278,"state_code":"GX","country_id":45,"country_code":"CN","latitude":"22.46541000","longitude":"107.39622000"},{"id":"19441","name":"Dazhai","state_id":2278,"state_code":"GX","country_id":45,"country_code":"CN","latitude":"25.80980000","longitude":"110.15000000"},{"id":"19498","name":"Fangchenggang Shi","state_id":2278,"state_code":"GX","country_id":45,"country_code":"CN","latitude":"21.93580000","longitude":"107.95932000"},{"id":"19569","name":"Guigang","state_id":2278,"state_code":"GX","country_id":45,"country_code":"CN","latitude":"23.09639000","longitude":"109.60917000"},{"id":"19570","name":"Guilin","state_id":2278,"state_code":"GX","country_id":45,"country_code":"CN","latitude":"25.28194000","longitude":"110.28639000"},{"id":"19571","name":"Guilin Shi","state_id":2278,"state_code":"GX","country_id":45,"country_code":"CN","latitude":"25.28333000","longitude":"110.28333000"},{"id":"19572","name":"Guiping","state_id":2278,"state_code":"GX","country_id":45,"country_code":"CN","latitude":"23.39336000","longitude":"110.07437000"},{"id":"19603","name":"Hechi Shi","state_id":2278,"state_code":"GX","country_id":45,"country_code":"CN","latitude":"24.70000000","longitude":"108.03000000"},{"id":"19743","name":"Jinji","state_id":2278,"state_code":"GX","country_id":45,"country_code":"CN","latitude":"23.22806000","longitude":"110.82611000"},{"id":"19789","name":"Laibin","state_id":2278,"state_code":"GX","country_id":45,"country_code":"CN","latitude":"23.70000000","longitude":"109.26667000"},{"id":"19827","name":"Lianzhou","state_id":2278,"state_code":"GX","country_id":45,"country_code":"CN","latitude":"21.66621000","longitude":"109.20116000"},{"id":"19840","name":"Lingcheng","state_id":2278,"state_code":"GX","country_id":45,"country_code":"CN","latitude":"22.70722000","longitude":"110.34917000"},{"id":"19863","name":"Liuzhou Shi","state_id":2278,"state_code":"GX","country_id":45,"country_code":"CN","latitude":"24.31667000","longitude":"109.40000000"},{"id":"19887","name":"Luorong","state_id":2278,"state_code":"GX","country_id":45,"country_code":"CN","latitude":"24.40583000","longitude":"109.60861000"},{"id":"19938","name":"Nandu","state_id":2278,"state_code":"GX","country_id":45,"country_code":"CN","latitude":"22.85250000","longitude":"110.82333000"},{"id":"19945","name":"Nanning","state_id":2278,"state_code":"GX","country_id":45,"country_code":"CN","latitude":"22.81667000","longitude":"108.31667000"},{"id":"19981","name":"Pingnan","state_id":2278,"state_code":"GX","country_id":45,"country_code":"CN","latitude":"23.54218000","longitude":"110.38946000"},{"id":"19995","name":"Pumiao","state_id":2278,"state_code":"GX","country_id":45,"country_code":"CN","latitude":"22.75867000","longitude":"108.48111000"},{"id":"20031","name":"Qinzhou","state_id":2278,"state_code":"GX","country_id":45,"country_code":"CN","latitude":"21.97296000","longitude":"108.62612000"},{"id":"20247","name":"Wuzhou","state_id":2278,"state_code":"GX","country_id":45,"country_code":"CN","latitude":"23.48333000","longitude":"111.31667000"},{"id":"20346","name":"Yangshuo","state_id":2278,"state_code":"GX","country_id":45,"country_code":"CN","latitude":"24.78081000","longitude":"110.48967000"},{"id":"20361","name":"Yashan","state_id":2278,"state_code":"GX","country_id":45,"country_code":"CN","latitude":"22.19750000","longitude":"109.94194000"},{"id":"20398","name":"Yulin","state_id":2278,"state_code":"GX","country_id":45,"country_code":"CN","latitude":"22.63333000","longitude":"110.15000000"}]