[{"id":"19278","name":"Anbu","state_id":2279,"state_code":"GD","country_id":45,"country_code":"CN","latitude":"23.44895000","longitude":"116.68092000"},{"id":"19383","name":"Chaozhou","state_id":2279,"state_code":"GD","country_id":45,"country_code":"CN","latitude":"23.65396000","longitude":"116.62262000"},{"id":"19389","name":"Chenghua","state_id":2279,"state_code":"GD","country_id":45,"country_code":"CN","latitude":"23.46132000","longitude":"116.77007000"},{"id":"19422","name":"Daliang","state_id":2279,"state_code":"GD","country_id":45,"country_code":"CN","latitude":"22.84067000","longitude":"113.25030000"},{"id":"19426","name":"Danshui","state_id":2279,"state_code":"GD","country_id":45,"country_code":"CN","latitude":"22.79840000","longitude":"114.46716000"},{"id":"19432","name":"Dasha","state_id":2279,"state_code":"GD","country_id":45,"country_code":"CN","latitude":"23.11037000","longitude":"113.44180000"},{"id":"19467","name":"Dongguan","state_id":2279,"state_code":"GD","country_id":45,"country_code":"CN","latitude":"23.01797000","longitude":"113.74866000"},{"id":"19468","name":"Donghai","state_id":2279,"state_code":"GD","country_id":45,"country_code":"CN","latitude":"22.94593000","longitude":"115.64204000"},{"id":"19483","name":"Ducheng","state_id":2279,"state_code":"GD","country_id":45,"country_code":"CN","latitude":"23.24212000","longitude":"111.52840000"},{"id":"19490","name":"Encheng","state_id":2279,"state_code":"GD","country_id":45,"country_code":"CN","latitude":"22.18659000","longitude":"112.30424000"},{"id":"19514","name":"Foshan","state_id":2279,"state_code":"GD","country_id":45,"country_code":"CN","latitude":"23.02677000","longitude":"113.13148000"},{"id":"19515","name":"Foshan Shi","state_id":2279,"state_code":"GD","country_id":45,"country_code":"CN","latitude":"23.02264000","longitude":"112.96302000"},{"id":"19546","name":"Gaoyao","state_id":2279,"state_code":"GD","country_id":45,"country_code":"CN","latitude":"23.02432000","longitude":"112.44555000"},{"id":"19550","name":"Gaozhou","state_id":2279,"state_code":"GD","country_id":45,"country_code":"CN","latitude":"21.93924000","longitude":"110.84607000"},{"id":"19562","name":"Guangzhou","state_id":2279,"state_code":"GD","country_id":45,"country_code":"CN","latitude":"23.11667000","longitude":"113.25000000"},{"id":"19563","name":"Guangzhou Shi","state_id":2279,"state_code":"GD","country_id":45,"country_code":"CN","latitude":"23.37327000","longitude":"113.51219000"},{"id":"19586","name":"Haikuotiankong","state_id":2279,"state_code":"GD","country_id":45,"country_code":"CN","latitude":"22.52881000","longitude":"113.93990000"},{"id":"19590","name":"Haimen","state_id":2279,"state_code":"GD","country_id":45,"country_code":"CN","latitude":"23.19346000","longitude":"116.61219000"},{"id":"19617","name":"Hepo","state_id":2279,"state_code":"GD","country_id":45,"country_code":"CN","latitude":"23.43077000","longitude":"115.82991000"},{"id":"19620","name":"Heyuan","state_id":2279,"state_code":"GD","country_id":45,"country_code":"CN","latitude":"23.73333000","longitude":"114.68333000"},{"id":"19637","name":"Huaicheng","state_id":2279,"state_code":"GD","country_id":45,"country_code":"CN","latitude":"23.91952000","longitude":"112.17629000"},{"id":"19646","name":"Huanggang","state_id":2279,"state_code":"GD","country_id":45,"country_code":"CN","latitude":"23.67704000","longitude":"116.99961000"},{"id":"19669","name":"Huazhou","state_id":2279,"state_code":"GD","country_id":45,"country_code":"CN","latitude":"21.63333000","longitude":"110.58333000"},{"id":"19672","name":"Huicheng","state_id":2279,"state_code":"GD","country_id":45,"country_code":"CN","latitude":"23.03845000","longitude":"116.28988000"},{"id":"19675","name":"Huizhou","state_id":2279,"state_code":"GD","country_id":45,"country_code":"CN","latitude":"23.11147000","longitude":"114.41523000"},{"id":"19681","name":"Humen","state_id":2279,"state_code":"GD","country_id":45,"country_code":"CN","latitude":"22.81899000","longitude":"113.67306000"},{"id":"19699","name":"Jiangmen","state_id":2279,"state_code":"GD","country_id":45,"country_code":"CN","latitude":"22.58333000","longitude":"113.08333000"},{"id":"19717","name":"Jiazi","state_id":2279,"state_code":"GD","country_id":45,"country_code":"CN","latitude":"22.87932000","longitude":"116.07318000"},{"id":"19720","name":"Jieshi","state_id":2279,"state_code":"GD","country_id":45,"country_code":"CN","latitude":"22.81027000","longitude":"115.83058000"},{"id":"19723","name":"Jieyang","state_id":2279,"state_code":"GD","country_id":45,"country_code":"CN","latitude":"23.54180000","longitude":"116.36581000"},{"id":"19807","name":"Lecheng","state_id":2279,"state_code":"GD","country_id":45,"country_code":"CN","latitude":"25.12800000","longitude":"113.35041000"},{"id":"19821","name":"Lianjiang","state_id":2279,"state_code":"GD","country_id":45,"country_code":"CN","latitude":"21.64673000","longitude":"110.28172000"},{"id":"19826","name":"Lianzhou","state_id":2279,"state_code":"GD","country_id":45,"country_code":"CN","latitude":"24.78186000","longitude":"112.37120000"},{"id":"19833","name":"Licheng","state_id":2279,"state_code":"GD","country_id":45,"country_code":"CN","latitude":"23.29549000","longitude":"113.82465000"},{"id":"19879","name":"Lubu","state_id":2279,"state_code":"GD","country_id":45,"country_code":"CN","latitude":"23.17233000","longitude":"112.28298000"},{"id":"19881","name":"Luocheng","state_id":2279,"state_code":"GD","country_id":45,"country_code":"CN","latitude":"22.76953000","longitude":"111.56882000"},{"id":"19888","name":"Luoyang","state_id":2279,"state_code":"GD","country_id":45,"country_code":"CN","latitude":"23.16244000","longitude":"114.27342000"},{"id":"19898","name":"Maba","state_id":2279,"state_code":"GD","country_id":45,"country_code":"CN","latitude":"24.68413000","longitude":"113.59839000"},{"id":"19904","name":"Maoming","state_id":2279,"state_code":"GD","country_id":45,"country_code":"CN","latitude":"21.65000000","longitude":"110.90000000"},{"id":"19913","name":"Meizhou","state_id":2279,"state_code":"GD","country_id":45,"country_code":"CN","latitude":"24.28859000","longitude":"116.11768000"},{"id":"19939","name":"Nanfeng","state_id":2279,"state_code":"GD","country_id":45,"country_code":"CN","latitude":"23.72695000","longitude":"111.79723000"},{"id":"19982","name":"Pingshan","state_id":2279,"state_code":"GD","country_id":45,"country_code":"CN","latitude":"22.99376000","longitude":"114.71311000"},{"id":"19996","name":"Puning","state_id":2279,"state_code":"GD","country_id":45,"country_code":"CN","latitude":"23.31072000","longitude":"116.16869000"},{"id":"20027","name":"Qingyuan","state_id":2279,"state_code":"GD","country_id":45,"country_code":"CN","latitude":"23.70000000","longitude":"113.03333000"},{"id":"20057","name":"Sanshui","state_id":2279,"state_code":"GD","country_id":45,"country_code":"CN","latitude":"23.15486000","longitude":"112.89161000"},{"id":"20076","name":"Shantou","state_id":2279,"state_code":"GD","country_id":45,"country_code":"CN","latitude":"23.36814000","longitude":"116.71479000"},{"id":"20077","name":"Shanwei","state_id":2279,"state_code":"GD","country_id":45,"country_code":"CN","latitude":"22.78199000","longitude":"115.34750000"},{"id":"20080","name":"Shaoguan","state_id":2279,"state_code":"GD","country_id":45,"country_code":"CN","latitude":"24.80000000","longitude":"113.58333000"},{"id":"20083","name":"Shaping","state_id":2279,"state_code":"GD","country_id":45,"country_code":"CN","latitude":"22.77019000","longitude":"112.95776000"},{"id":"20091","name":"Shenzhen","state_id":2279,"state_code":"GD","country_id":45,"country_code":"CN","latitude":"22.55653000","longitude":"113.98590000"},{"id":"20101","name":"Shilong","state_id":2279,"state_code":"GD","country_id":45,"country_code":"CN","latitude":"23.11444000","longitude":"113.84722000"},{"id":"20103","name":"Shiqi","state_id":2279,"state_code":"GD","country_id":45,"country_code":"CN","latitude":"22.51682000","longitude":"113.38521000"},{"id":"20105","name":"Shiqiao","state_id":2279,"state_code":"GD","country_id":45,"country_code":"CN","latitude":"22.94640000","longitude":"113.35769000"},{"id":"20107","name":"Shiwan","state_id":2279,"state_code":"GD","country_id":45,"country_code":"CN","latitude":"23.00107000","longitude":"113.07700000"},{"id":"20108","name":"Shixing","state_id":2279,"state_code":"GD","country_id":45,"country_code":"CN","latitude":"24.94824000","longitude":"114.06572000"},{"id":"20160","name":"Taishan","state_id":2279,"state_code":"GD","country_id":45,"country_code":"CN","latitude":"22.25135000","longitude":"112.77990000"},{"id":"20170","name":"Tangping","state_id":2279,"state_code":"GD","country_id":45,"country_code":"CN","latitude":"22.03177000","longitude":"111.93537000"},{"id":"20230","name":"Wuchuan","state_id":2279,"state_code":"GD","country_id":45,"country_code":"CN","latitude":"21.45713000","longitude":"110.76591000"},{"id":"20296","name":"Xingning","state_id":2279,"state_code":"GD","country_id":45,"country_code":"CN","latitude":"24.14830000","longitude":"115.72272000"},{"id":"20299","name":"Xinhui","state_id":2279,"state_code":"GD","country_id":45,"country_code":"CN","latitude":"22.45600000","longitude":"113.04820000"},{"id":"20312","name":"Xinyi","state_id":2279,"state_code":"GD","country_id":45,"country_code":"CN","latitude":"22.37303000","longitude":"110.94746000"},{"id":"20319","name":"Xiongzhou","state_id":2279,"state_code":"GD","country_id":45,"country_code":"CN","latitude":"25.11667000","longitude":"114.30000000"},{"id":"20333","name":"Xucheng","state_id":2279,"state_code":"GD","country_id":45,"country_code":"CN","latitude":"20.32917000","longitude":"110.16712000"},{"id":"20341","name":"Yangchun","state_id":2279,"state_code":"GD","country_id":45,"country_code":"CN","latitude":"22.16667000","longitude":"111.78333000"},{"id":"20344","name":"Yangjiang","state_id":2279,"state_code":"GD","country_id":45,"country_code":"CN","latitude":"21.85563000","longitude":"111.96272000"},{"id":"20375","name":"Yingcheng","state_id":2279,"state_code":"GD","country_id":45,"country_code":"CN","latitude":"24.16588000","longitude":"113.41267000"},{"id":"20401","name":"Yunfu","state_id":2279,"state_code":"GD","country_id":45,"country_code":"CN","latitude":"22.92833000","longitude":"112.03954000"},{"id":"20429","name":"Zhanjiang","state_id":2279,"state_code":"GD","country_id":45,"country_code":"CN","latitude":"21.28145000","longitude":"110.34271000"},{"id":"20433","name":"Zhaoqing","state_id":2279,"state_code":"GD","country_id":45,"country_code":"CN","latitude":"23.04893000","longitude":"112.46091000"},{"id":"20451","name":"Zhongshan","state_id":2279,"state_code":"GD","country_id":45,"country_code":"CN","latitude":"21.31992000","longitude":"110.57230000"},{"id":"20452","name":"Zhongshan Prefecture","state_id":2279,"state_code":"GD","country_id":45,"country_code":"CN","latitude":"22.55358000","longitude":"113.37550000"},{"id":"20466","name":"Zhuhai","state_id":2279,"state_code":"GD","country_id":45,"country_code":"CN","latitude":"22.27694000","longitude":"113.56778000"}]