[{"id":"67588","name":"Banamba","state_id":250,"state_code":"2","country_id":134,"country_code":"ML","latitude":"13.54773000","longitude":"-7.44808000"},{"id":"67606","name":"Kangaba","state_id":250,"state_code":"2","country_id":134,"country_code":"ML","latitude":"11.93333000","longitude":"-8.41667000"},{"id":"67607","name":"Kati","state_id":250,"state_code":"2","country_id":134,"country_code":"ML","latitude":"12.74409000","longitude":"-8.07257000"},{"id":"67613","name":"Kolokani","state_id":250,"state_code":"2","country_id":134,"country_code":"ML","latitude":"13.57280000","longitude":"-8.03390000"},{"id":"67615","name":"Koulikoro","state_id":250,"state_code":"2","country_id":134,"country_code":"ML","latitude":"12.86273000","longitude":"-7.55985000"}]