[{"id":"67591","name":"Bougouni","state_id":254,"state_code":"3","country_id":134,"country_code":"ML","latitude":"11.41769000","longitude":"-7.48323000"},{"id":"67614","name":"Kolondi\u00e9ba","state_id":254,"state_code":"3","country_id":134,"country_code":"ML","latitude":"11.08943000","longitude":"-6.89290000"},{"id":"67616","name":"Koutiala","state_id":254,"state_code":"3","country_id":134,"country_code":"ML","latitude":"12.39173000","longitude":"-5.46421000"},{"id":"67617","name":"Koutiala Cercle","state_id":254,"state_code":"3","country_id":134,"country_code":"ML","latitude":"12.35311000","longitude":"-5.58390000"},{"id":"67622","name":"Ntossoni","state_id":254,"state_code":"3","country_id":134,"country_code":"ML","latitude":"12.53040000","longitude":"-5.77003000"},{"id":"67625","name":"Sikasso","state_id":254,"state_code":"3","country_id":134,"country_code":"ML","latitude":"11.31755000","longitude":"-5.66654000"},{"id":"67630","name":"Yorosso","state_id":254,"state_code":"3","country_id":134,"country_code":"ML","latitude":"12.35811000","longitude":"-4.77688000"}]