[{"id":"65931","name":"Ain Ebel","state_id":2288,"state_code":"NA","country_id":121,"country_code":"LB","latitude":"33.11023000","longitude":"35.40251000"},{"id":"65942","name":"Caza de Bent Jba\u00efl","state_id":2288,"state_code":"NA","country_id":121,"country_code":"LB","latitude":"33.15964000","longitude":"35.41137000"},{"id":"65943","name":"Caza de Nabat\u00eey\u00e9","state_id":2288,"state_code":"NA","country_id":121,"country_code":"LB","latitude":"33.39435000","longitude":"35.44483000"},{"id":"65946","name":"Habbo\u00fbch","state_id":2288,"state_code":"NA","country_id":121,"country_code":"LB","latitude":"33.40729000","longitude":"35.48169000"},{"id":"65949","name":"Marjayo\u00fbn","state_id":2288,"state_code":"NA","country_id":121,"country_code":"LB","latitude":"33.36028000","longitude":"35.59111000"},{"id":"65950","name":"Nabat\u00eey\u00e9 et Tahta","state_id":2288,"state_code":"NA","country_id":121,"country_code":"LB","latitude":"33.37889000","longitude":"35.48389000"}]