[{"id":"65944","name":"En N\u00e2qo\u00fbra","state_id":2281,"state_code":"JA","country_id":121,"country_code":"LB","latitude":"33.11806000","longitude":"35.13972000"},{"id":"65945","name":"Ghazieh","state_id":2281,"state_code":"JA","country_id":121,"country_code":"LB","latitude":"33.51750000","longitude":"35.36889000"},{"id":"65952","name":"Sidon","state_id":2281,"state_code":"JA","country_id":121,"country_code":"LB","latitude":"33.55751000","longitude":"35.37148000"},{"id":"65954","name":"Tyre","state_id":2281,"state_code":"JA","country_id":121,"country_code":"LB","latitude":"33.27333000","longitude":"35.19389000"},{"id":"65932","name":"Baabda","state_id":2282,"state_code":"JL","country_id":121,"country_code":"LB","latitude":"33.83389000","longitude":"35.54417000"},{"id":"65938","name":"Bhamdo\u00fbn el Mhatta","state_id":2282,"state_code":"JL","country_id":121,"country_code":"LB","latitude":"33.80861000","longitude":"35.65972000"},{"id":"65937","name":"Bhamdoun","state_id":2282,"state_code":"JL","country_id":121,"country_code":"LB","latitude":"33.79500000","longitude":"35.65111000"},{"id":"65940","name":"Caza de Baabda","state_id":2282,"state_code":"JL","country_id":121,"country_code":"LB","latitude":"33.84592000","longitude":"35.66791000"},{"id":"65947","name":"Jba\u00efl","state_id":2282,"state_code":"JL","country_id":121,"country_code":"LB","latitude":"34.12111000","longitude":"35.64806000"},{"id":"65948","name":"Jounieh","state_id":2282,"state_code":"JL","country_id":121,"country_code":"LB","latitude":"33.98083000","longitude":"35.61778000"},{"id":"65933","name":"Baalbek","state_id":2283,"state_code":"BH","country_id":121,"country_code":"LB","latitude":"34.00583000","longitude":"36.21806000"},{"id":"65941","name":"Caza de Baalbek","state_id":2283,"state_code":"BH","country_id":121,"country_code":"LB","latitude":"34.09822000","longitude":"36.27157000"},{"id":"65934","name":"Batro\u00fbn","state_id":2284,"state_code":"AS","country_id":121,"country_code":"LB","latitude":"34.25528000","longitude":"35.65806000"},{"id":"65935","name":"Bcharr\u00e9","state_id":2284,"state_code":"AS","country_id":121,"country_code":"LB","latitude":"34.25083000","longitude":"36.01056000"},{"id":"65953","name":"Tripoli","state_id":2284,"state_code":"AS","country_id":121,"country_code":"LB","latitude":"34.43352000","longitude":"35.84415000"},{"id":"65939","name":"Caza de Aakkar","state_id":2285,"state_code":"AK","country_id":121,"country_code":"LB","latitude":"34.53333000","longitude":"36.16667000"},{"id":"65936","name":"Beirut","state_id":2286,"state_code":"BA","country_id":121,"country_code":"LB","latitude":"33.89332000","longitude":"35.50157000"},{"id":"65951","name":"Ra\u2019s Bayrut","state_id":2286,"state_code":"BA","country_id":121,"country_code":"LB","latitude":"33.90000000","longitude":"35.48333000"},{"id":"65930","name":"Aanjar","state_id":2287,"state_code":"BI","country_id":121,"country_code":"LB","latitude":"33.72778000","longitude":"35.93111000"},{"id":"65955","name":"Zahl\u00e9","state_id":2287,"state_code":"BI","country_id":121,"country_code":"LB","latitude":"33.84675000","longitude":"35.90203000"},{"id":"65931","name":"Ain Ebel","state_id":2288,"state_code":"NA","country_id":121,"country_code":"LB","latitude":"33.11023000","longitude":"35.40251000"},{"id":"65942","name":"Caza de Bent Jba\u00efl","state_id":2288,"state_code":"NA","country_id":121,"country_code":"LB","latitude":"33.15964000","longitude":"35.41137000"},{"id":"65943","name":"Caza de Nabat\u00eey\u00e9","state_id":2288,"state_code":"NA","country_id":121,"country_code":"LB","latitude":"33.39435000","longitude":"35.44483000"},{"id":"65946","name":"Habbo\u00fbch","state_id":2288,"state_code":"NA","country_id":121,"country_code":"LB","latitude":"33.40729000","longitude":"35.48169000"},{"id":"65949","name":"Marjayo\u00fbn","state_id":2288,"state_code":"NA","country_id":121,"country_code":"LB","latitude":"33.36028000","longitude":"35.59111000"},{"id":"65950","name":"Nabat\u00eey\u00e9 et Tahta","state_id":2288,"state_code":"NA","country_id":121,"country_code":"LB","latitude":"33.37889000","longitude":"35.48389000"}]