[{"id":"106918","name":"Banbalah","state_id":2553,"state_code":"52","country_id":224,"country_code":"TN","latitude":"35.70000000","longitude":"10.80000000"},{"id":"106919","name":"Bekalta","state_id":2553,"state_code":"52","country_id":224,"country_code":"TN","latitude":"35.61739000","longitude":"10.99466000"},{"id":"106922","name":"Beni Hassane","state_id":2553,"state_code":"52","country_id":224,"country_code":"TN","latitude":"35.56720000","longitude":"10.80869000"},{"id":"106937","name":"Djemmal","state_id":2553,"state_code":"52","country_id":224,"country_code":"TN","latitude":"35.62231000","longitude":"10.75696000"},{"id":"106972","name":"Ksar Hellal","state_id":2553,"state_code":"52","country_id":224,"country_code":"TN","latitude":"35.64773000","longitude":"10.89046000"},{"id":"106973","name":"Ksibet el Mediouni","state_id":2553,"state_code":"52","country_id":224,"country_code":"TN","latitude":"35.68561000","longitude":"10.84256000"},{"id":"106979","name":"Lemta","state_id":2553,"state_code":"52","country_id":224,"country_code":"TN","latitude":"35.66667000","longitude":"10.88333000"},{"id":"106991","name":"Menzel Kamel","state_id":2553,"state_code":"52","country_id":224,"country_code":"TN","latitude":"35.62477000","longitude":"10.66727000"},{"id":"106993","name":"Mesdour","state_id":2553,"state_code":"52","country_id":224,"country_code":"TN","latitude":"35.68206000","longitude":"10.72746000"},{"id":"106997","name":"Monastir","state_id":2553,"state_code":"52","country_id":224,"country_code":"TN","latitude":"35.77799000","longitude":"10.82617000"},{"id":"107003","name":"Ouardenine","state_id":2553,"state_code":"52","country_id":224,"country_code":"TN","latitude":"35.70915000","longitude":"10.67397000"},{"id":"107012","name":"Sahline","state_id":2553,"state_code":"52","country_id":224,"country_code":"TN","latitude":"35.75166000","longitude":"10.71109000"},{"id":"107018","name":"Se\u00efada","state_id":2553,"state_code":"52","country_id":224,"country_code":"TN","latitude":"35.66887000","longitude":"10.89246000"},{"id":"107021","name":"Sidi Ben Nour","state_id":2553,"state_code":"52","country_id":224,"country_code":"TN","latitude":"35.53333000","longitude":"10.91667000"},{"id":"107027","name":"Skanes","state_id":2553,"state_code":"52","country_id":224,"country_code":"TN","latitude":"35.78333000","longitude":"10.80000000"},{"id":"107037","name":"Touza","state_id":2553,"state_code":"52","country_id":224,"country_code":"TN","latitude":"35.63544000","longitude":"10.82732000"}]