[{"id":"106912","name":"Al Mars\u00e1","state_id":2554,"state_code":"11","country_id":224,"country_code":"TN","latitude":"36.87818000","longitude":"10.32466000"},{"id":"106931","name":"Carthage","state_id":2554,"state_code":"11","country_id":224,"country_code":"TN","latitude":"36.85961000","longitude":"10.32978000"},{"id":"106975","name":"La Goulette","state_id":2554,"state_code":"11","country_id":224,"country_code":"TN","latitude":"36.81825000","longitude":"10.30520000"},{"id":"106976","name":"La Mohammedia","state_id":2554,"state_code":"11","country_id":224,"country_code":"TN","latitude":"36.67446000","longitude":"10.15633000"},{"id":"107023","name":"Sidi Bou Sa\u00efd","state_id":2554,"state_code":"11","country_id":224,"country_code":"TN","latitude":"36.86870000","longitude":"10.34174000"},{"id":"107039","name":"Tunis","state_id":2554,"state_code":"11","country_id":224,"country_code":"TN","latitude":"36.81897000","longitude":"10.16579000"}]