[{"id":"106933","name":"Chebika","state_id":2569,"state_code":"72","country_id":224,"country_code":"TN","latitude":"34.31909000","longitude":"7.93519000"},{"id":"106935","name":"Degache","state_id":2569,"state_code":"72","country_id":224,"country_code":"TN","latitude":"33.97606000","longitude":"8.20810000"},{"id":"107001","name":"Nefta","state_id":2569,"state_code":"72","country_id":224,"country_code":"TN","latitude":"33.87309000","longitude":"7.87765000"},{"id":"107033","name":"Tamaghzah","state_id":2569,"state_code":"72","country_id":224,"country_code":"TN","latitude":"34.38849000","longitude":"7.94313000"},{"id":"107038","name":"Tozeur","state_id":2569,"state_code":"72","country_id":224,"country_code":"TN","latitude":"33.91968000","longitude":"8.13352000"}]