[{"id":"31483","name":"Atuntaqui","state_id":2911,"state_code":"I","country_id":64,"country_code":"EC","latitude":"0.33247000","longitude":"-78.21371000"},{"id":"31500","name":"Cotacachi","state_id":2911,"state_code":"I","country_id":64,"country_code":"EC","latitude":"0.30107000","longitude":"-78.26428000"},{"id":"31513","name":"Ibarra","state_id":2911,"state_code":"I","country_id":64,"country_code":"EC","latitude":"0.35171000","longitude":"-78.12233000"},{"id":"31536","name":"Otavalo","state_id":2911,"state_code":"I","country_id":64,"country_code":"EC","latitude":"0.23457000","longitude":"-78.26248000"},{"id":"31546","name":"Pimampiro","state_id":2911,"state_code":"I","country_id":64,"country_code":"EC","latitude":"0.39116000","longitude":"-77.94068000"}]