[{"id":"31517","name":"La Man\u00e1","state_id":2921,"state_code":"X","country_id":64,"country_code":"EC","latitude":"-0.94094000","longitude":"-79.22506000"},{"id":"31520","name":"Latacunga","state_id":2921,"state_code":"X","country_id":64,"country_code":"EC","latitude":"-0.93521000","longitude":"-78.61554000"},{"id":"31556","name":"Pujil\u00ed","state_id":2921,"state_code":"X","country_id":64,"country_code":"EC","latitude":"-0.95759000","longitude":"-78.69636000"},{"id":"31570","name":"San Miguel de Salcedo","state_id":2921,"state_code":"X","country_id":64,"country_code":"EC","latitude":"-1.04547000","longitude":"-78.59063000"},{"id":"31578","name":"Saquisil\u00ed","state_id":2921,"state_code":"X","country_id":64,"country_code":"EC","latitude":"-0.83990000","longitude":"-78.66700000"}]