[{"id":"31512","name":"Huaquillas","state_id":2924,"state_code":"O","country_id":64,"country_code":"EC","latitude":"-3.47523000","longitude":"-80.23084000"},{"id":"31526","name":"Machala","state_id":2924,"state_code":"O","country_id":64,"country_code":"EC","latitude":"-3.25861000","longitude":"-79.96053000"},{"id":"31542","name":"Pasaje","state_id":2924,"state_code":"O","country_id":64,"country_code":"EC","latitude":"-3.32561000","longitude":"-79.80697000"},{"id":"31547","name":"Pi\u00f1as","state_id":2924,"state_code":"O","country_id":64,"country_code":"EC","latitude":"-3.68107000","longitude":"-79.68083000"},{"id":"31549","name":"Portovelo","state_id":2924,"state_code":"O","country_id":64,"country_code":"EC","latitude":"-3.72145000","longitude":"-79.62187000"},{"id":"31553","name":"Puerto Bol\u00edvar","state_id":2924,"state_code":"O","country_id":64,"country_code":"EC","latitude":"-3.26649000","longitude":"-79.99749000"},{"id":"31576","name":"Santa Rosa","state_id":2924,"state_code":"O","country_id":64,"country_code":"EC","latitude":"-3.44882000","longitude":"-79.95952000"},{"id":"31592","name":"Zaruma","state_id":2924,"state_code":"O","country_id":64,"country_code":"EC","latitude":"-3.69132000","longitude":"-79.61174000"}]