[{"id":"131017","name":"Alberton","state_id":936,"state_code":"GT","country_id":204,"country_code":"ZA","latitude":"-26.26786000","longitude":"28.12225000"},{"id":"131032","name":"Benoni","state_id":936,"state_code":"GT","country_id":204,"country_code":"ZA","latitude":"-26.18848000","longitude":"28.32078000"},{"id":"131042","name":"Boksburg","state_id":936,"state_code":"GT","country_id":204,"country_code":"ZA","latitude":"-26.21197000","longitude":"28.25958000"},{"id":"131045","name":"Brakpan","state_id":936,"state_code":"GT","country_id":204,"country_code":"ZA","latitude":"-26.23656000","longitude":"28.36938000"},{"id":"131051","name":"Bronkhorstspruit","state_id":936,"state_code":"GT","country_id":204,"country_code":"ZA","latitude":"-25.81015000","longitude":"28.74248000"},{"id":"131062","name":"Carletonville","state_id":936,"state_code":"GT","country_id":204,"country_code":"ZA","latitude":"-26.36094000","longitude":"27.39767000"},{"id":"131066","name":"Centurion","state_id":936,"state_code":"GT","country_id":204,"country_code":"ZA","latitude":"-25.85891000","longitude":"28.18577000"},{"id":"131071","name":"City of Johannesburg Metropolitan Municipality","state_id":936,"state_code":"GT","country_id":204,"country_code":"ZA","latitude":"-26.17673000","longitude":"27.96353000"},{"id":"131072","name":"City of Tshwane Metropolitan Municipality","state_id":936,"state_code":"GT","country_id":204,"country_code":"ZA","latitude":"-25.65985000","longitude":"28.44343000"},{"id":"131079","name":"Cullinan","state_id":936,"state_code":"GT","country_id":204,"country_code":"ZA","latitude":"-25.67088000","longitude":"28.52364000"},{"id":"131085","name":"Diepsloot","state_id":936,"state_code":"GT","country_id":204,"country_code":"ZA","latitude":"-25.93312000","longitude":"28.01213000"},{"id":"131094","name":"Eastleigh","state_id":936,"state_code":"GT","country_id":204,"country_code":"ZA","latitude":"-26.12965000","longitude":"28.15541000"},{"id":"131096","name":"Eden Glen","state_id":936,"state_code":"GT","country_id":204,"country_code":"ZA","latitude":"-26.13230000","longitude":"28.16859000"},{"id":"131097","name":"Eden Glen Ext 60","state_id":936,"state_code":"GT","country_id":204,"country_code":"ZA","latitude":"-26.12593000","longitude":"28.16500000"},{"id":"131098","name":"Edenvale","state_id":936,"state_code":"GT","country_id":204,"country_code":"ZA","latitude":"-26.14095000","longitude":"28.15247000"},{"id":"131100","name":"Ekangala","state_id":936,"state_code":"GT","country_id":204,"country_code":"ZA","latitude":"-25.69619000","longitude":"28.74918000"},{"id":"131101","name":"Ekurhuleni Metropolitan Municipality","state_id":936,"state_code":"GT","country_id":204,"country_code":"ZA","latitude":"-26.19890000","longitude":"28.31262000"},{"id":"131125","name":"Heidelberg","state_id":936,"state_code":"GT","country_id":204,"country_code":"ZA","latitude":"-26.50476000","longitude":"28.35921000"},{"id":"131136","name":"Johannesburg","state_id":936,"state_code":"GT","country_id":204,"country_code":"ZA","latitude":"-26.20227000","longitude":"28.04363000"},{"id":"131151","name":"Krugersdorp","state_id":936,"state_code":"GT","country_id":204,"country_code":"ZA","latitude":"-26.08577000","longitude":"27.77515000"},{"id":"131166","name":"Mabopane","state_id":936,"state_code":"GT","country_id":204,"country_code":"ZA","latitude":"-25.49768000","longitude":"28.10065000"},{"id":"131176","name":"Midrand","state_id":936,"state_code":"GT","country_id":204,"country_code":"ZA","latitude":"-25.98953000","longitude":"28.12843000"},{"id":"131177","name":"Midstream","state_id":936,"state_code":"GT","country_id":204,"country_code":"ZA","latitude":"-25.91849000","longitude":"28.19881000"},{"id":"131179","name":"Modderfontein","state_id":936,"state_code":"GT","country_id":204,"country_code":"ZA","latitude":"-26.08909000","longitude":"28.16534000"},{"id":"131193","name":"Muldersdriseloop","state_id":936,"state_code":"GT","country_id":204,"country_code":"ZA","latitude":"-26.03673000","longitude":"27.83798000"},{"id":"131202","name":"Nigel","state_id":936,"state_code":"GT","country_id":204,"country_code":"ZA","latitude":"-26.43138000","longitude":"28.47713000"},{"id":"131207","name":"Orange Farm","state_id":936,"state_code":"GT","country_id":204,"country_code":"ZA","latitude":"-26.48333000","longitude":"27.86667000"},{"id":"131230","name":"Pretoria","state_id":936,"state_code":"GT","country_id":204,"country_code":"ZA","latitude":"-25.74486000","longitude":"28.18783000"},{"id":"131235","name":"Randburg","state_id":936,"state_code":"GT","country_id":204,"country_code":"ZA","latitude":"-26.09410000","longitude":"28.00123000"},{"id":"131236","name":"Randfontein","state_id":936,"state_code":"GT","country_id":204,"country_code":"ZA","latitude":"-26.18440000","longitude":"27.70203000"},{"id":"131245","name":"Roodepoort","state_id":936,"state_code":"GT","country_id":204,"country_code":"ZA","latitude":"-26.16250000","longitude":"27.87250000"},{"id":"131253","name":"Sedibeng District Municipality","state_id":936,"state_code":"GT","country_id":204,"country_code":"ZA","latitude":"-26.56686000","longitude":"28.18277000"},{"id":"131260","name":"Soweto","state_id":936,"state_code":"GT","country_id":204,"country_code":"ZA","latitude":"-26.26781000","longitude":"27.85849000"},{"id":"131262","name":"Springs","state_id":936,"state_code":"GT","country_id":204,"country_code":"ZA","latitude":"-26.25000000","longitude":"28.40000000"},{"id":"131270","name":"Tembisa","state_id":936,"state_code":"GT","country_id":204,"country_code":"ZA","latitude":"-25.99636000","longitude":"28.22680000"},{"id":"131284","name":"Vanderbijlpark","state_id":936,"state_code":"GT","country_id":204,"country_code":"ZA","latitude":"-26.71171000","longitude":"27.83795000"},{"id":"131286","name":"Vereeniging","state_id":936,"state_code":"GT","country_id":204,"country_code":"ZA","latitude":"-26.67313000","longitude":"27.92615000"},{"id":"131305","name":"West Rand District Municipality","state_id":936,"state_code":"GT","country_id":204,"country_code":"ZA","latitude":"-26.24565000","longitude":"27.55538000"},{"id":"131306","name":"Westonaria","state_id":936,"state_code":"GT","country_id":204,"country_code":"ZA","latitude":"-26.31905000","longitude":"27.64860000"}]