[{"id":"135240","name":"Abbateggio","state_id":1679,"state_code":"65","country_id":107,"country_code":"IT","latitude":"42.22421000","longitude":"14.01001000"},{"id":"135250","name":"Acciano","state_id":1679,"state_code":"65","country_id":107,"country_code":"IT","latitude":"42.17677000","longitude":"13.71783000"},{"id":"135325","name":"Aielli","state_id":1679,"state_code":"65","country_id":107,"country_code":"IT","latitude":"42.08146000","longitude":"13.59113000"},{"id":"135342","name":"Alanno","state_id":1679,"state_code":"65","country_id":107,"country_code":"IT","latitude":"42.29552000","longitude":"13.97084000"},{"id":"135347","name":"Alba Adriatica","state_id":1679,"state_code":"65","country_id":107,"country_code":"IT","latitude":"42.83176000","longitude":"13.92590000"},{"id":"135400","name":"Alfedena","state_id":1679,"state_code":"65","country_id":107,"country_code":"IT","latitude":"41.73545000","longitude":"14.03500000"},{"id":"135440","name":"Altino","state_id":1679,"state_code":"65","country_id":107,"country_code":"IT","latitude":"42.09954000","longitude":"14.33267000"},{"id":"135477","name":"Ancarano","state_id":1679,"state_code":"65","country_id":107,"country_code":"IT","latitude":"42.83767000","longitude":"13.74662000"},{"id":"135523","name":"Anversa degli Abruzzi","state_id":1679,"state_code":"65","country_id":107,"country_code":"IT","latitude":"41.99478000","longitude":"13.80379000"},{"id":"135565","name":"Archi","state_id":1679,"state_code":"65","country_id":107,"country_code":"IT","latitude":"42.09135000","longitude":"14.38270000"},{"id":"135597","name":"Ari","state_id":1679,"state_code":"65","country_id":107,"country_code":"IT","latitude":"42.28967000","longitude":"14.25856000"},{"id":"135602","name":"Arielli","state_id":1679,"state_code":"65","country_id":107,"country_code":"IT","latitude":"42.26003000","longitude":"14.31004000"},{"id":"135638","name":"Arsita","state_id":1679,"state_code":"65","country_id":107,"country_code":"IT","latitude":"42.50266000","longitude":"13.78516000"},{"id":"135672","name":"Ateleta","state_id":1679,"state_code":"65","country_id":107,"country_code":"IT","latitude":"41.85435000","longitude":"14.19806000"},{"id":"135675","name":"Atessa","state_id":1679,"state_code":"65","country_id":107,"country_code":"IT","latitude":"42.07018000","longitude":"14.45049000"},{"id":"135679","name":"Atri","state_id":1679,"state_code":"65","country_id":107,"country_code":"IT","latitude":"42.57642000","longitude":"13.98899000"},{"id":"135704","name":"Avezzano","state_id":1679,"state_code":"65","country_id":107,"country_code":"IT","latitude":"42.02896000","longitude":"13.42641000"},{"id":"135795","name":"Balsorano","state_id":1679,"state_code":"65","country_id":107,"country_code":"IT","latitude":"41.80982000","longitude":"13.55980000"},{"id":"135796","name":"Balsorano Nuovo","state_id":1679,"state_code":"65","country_id":107,"country_code":"IT","latitude":"41.80881000","longitude":"13.56069000"},{"id":"135826","name":"Barberi","state_id":1679,"state_code":"65","country_id":107,"country_code":"IT","latitude":"42.44072000","longitude":"14.04268000"},{"id":"135847","name":"Barete","state_id":1679,"state_code":"65","country_id":107,"country_code":"IT","latitude":"42.45009000","longitude":"13.28061000"},{"id":"135858","name":"Barisciano","state_id":1679,"state_code":"65","country_id":107,"country_code":"IT","latitude":"42.32465000","longitude":"13.59036000"},{"id":"135870","name":"Barrea","state_id":1679,"state_code":"65","country_id":107,"country_code":"IT","latitude":"41.75543000","longitude":"13.99095000"},{"id":"135881","name":"Basciano","state_id":1679,"state_code":"65","country_id":107,"country_code":"IT","latitude":"42.59639000","longitude":"13.73561000"},{"id":"135938","name":"Bellante","state_id":1679,"state_code":"65","country_id":107,"country_code":"IT","latitude":"42.74421000","longitude":"13.80234000"},{"id":"135939","name":"Bellante Stazione","state_id":1679,"state_code":"65","country_id":107,"country_code":"IT","latitude":"42.70650000","longitude":"13.83953000"},{"id":"136062","name":"Bisegna","state_id":1679,"state_code":"65","country_id":107,"country_code":"IT","latitude":"41.92113000","longitude":"13.75760000"},{"id":"136063","name":"Bisenti","state_id":1679,"state_code":"65","country_id":107,"country_code":"IT","latitude":"42.52883000","longitude":"13.79950000"},{"id":"136108","name":"Bolognano","state_id":1679,"state_code":"65","country_id":107,"country_code":"IT","latitude":"42.21814000","longitude":"13.96011000"},{"id":"136119","name":"Bomba","state_id":1679,"state_code":"65","country_id":107,"country_code":"IT","latitude":"42.03343000","longitude":"14.36656000"},{"id":"136189","name":"Borgo Santa Maria Immacolata","state_id":1679,"state_code":"65","country_id":107,"country_code":"IT","latitude":"42.61172000","longitude":"14.04553000"},{"id":"136227","name":"Borrello","state_id":1679,"state_code":"65","country_id":107,"country_code":"IT","latitude":"41.91730000","longitude":"14.30535000"},{"id":"136343","name":"Brittoli","state_id":1679,"state_code":"65","country_id":107,"country_code":"IT","latitude":"42.31518000","longitude":"13.86026000"},{"id":"136385","name":"Bucchianico","state_id":1679,"state_code":"65","country_id":107,"country_code":"IT","latitude":"42.30368000","longitude":"14.18377000"},{"id":"136397","name":"Bugnara","state_id":1679,"state_code":"65","country_id":107,"country_code":"IT","latitude":"42.02383000","longitude":"13.86141000"},{"id":"136430","name":"Bussi sul Tirino","state_id":1679,"state_code":"65","country_id":107,"country_code":"IT","latitude":"42.21321000","longitude":"13.82511000"},{"id":"136470","name":"Cagnano Amiterno","state_id":1679,"state_code":"65","country_id":107,"country_code":"IT","latitude":"42.45744000","longitude":"13.22789000"},{"id":"136494","name":"Calascio","state_id":1679,"state_code":"65","country_id":107,"country_code":"IT","latitude":"42.32595000","longitude":"13.69699000"},{"id":"136625","name":"Campli","state_id":1679,"state_code":"65","country_id":107,"country_code":"IT","latitude":"42.72679000","longitude":"13.68692000"},{"id":"136635","name":"Campo di Giove","state_id":1679,"state_code":"65","country_id":107,"country_code":"IT","latitude":"42.01013000","longitude":"14.03941000"},{"id":"136683","name":"Campotosto","state_id":1679,"state_code":"65","country_id":107,"country_code":"IT","latitude":"42.55884000","longitude":"13.36799000"},{"id":"136716","name":"Canistro Inferiore","state_id":1679,"state_code":"65","country_id":107,"country_code":"IT","latitude":"41.94101000","longitude":"13.41194000"},{"id":"136731","name":"Canosa Sannita","state_id":1679,"state_code":"65","country_id":107,"country_code":"IT","latitude":"42.29629000","longitude":"14.30514000"},{"id":"136736","name":"Cansano","state_id":1679,"state_code":"65","country_id":107,"country_code":"IT","latitude":"42.00350000","longitude":"14.01341000"},{"id":"136752","name":"Canzano","state_id":1679,"state_code":"65","country_id":107,"country_code":"IT","latitude":"42.64564000","longitude":"13.80410000"},{"id":"136765","name":"Capestrano","state_id":1679,"state_code":"65","country_id":107,"country_code":"IT","latitude":"42.26807000","longitude":"13.76779000"},{"id":"136771","name":"Capistrello","state_id":1679,"state_code":"65","country_id":107,"country_code":"IT","latitude":"41.97223000","longitude":"13.39616000"},{"id":"136774","name":"Capitignano","state_id":1679,"state_code":"65","country_id":107,"country_code":"IT","latitude":"42.52041000","longitude":"13.30122000"},{"id":"136786","name":"Caporciano","state_id":1679,"state_code":"65","country_id":107,"country_code":"IT","latitude":"42.25001000","longitude":"13.67455000"},{"id":"136790","name":"Cappadocia","state_id":1679,"state_code":"65","country_id":107,"country_code":"IT","latitude":"42.00755000","longitude":"13.27806000"},{"id":"136794","name":"Cappelle sul Tavo","state_id":1679,"state_code":"65","country_id":107,"country_code":"IT","latitude":"42.47709000","longitude":"14.10735000"},{"id":"136831","name":"Caramanico Terme","state_id":1679,"state_code":"65","country_id":107,"country_code":"IT","latitude":"42.15593000","longitude":"14.00480000"},{"id":"136835","name":"Carapelle Calvisio","state_id":1679,"state_code":"65","country_id":107,"country_code":"IT","latitude":"42.29908000","longitude":"13.68643000"},{"id":"136920","name":"Carpineto della Nora","state_id":1679,"state_code":"65","country_id":107,"country_code":"IT","latitude":"42.33365000","longitude":"13.86062000"},{"id":"136919","name":"Carpineto Sinello","state_id":1679,"state_code":"65","country_id":107,"country_code":"IT","latitude":"42.01044000","longitude":"14.50418000"},{"id":"136936","name":"Carsoli","state_id":1679,"state_code":"65","country_id":107,"country_code":"IT","latitude":"42.09882000","longitude":"13.08856000"},{"id":"136945","name":"Carunchio","state_id":1679,"state_code":"65","country_id":107,"country_code":"IT","latitude":"41.91761000","longitude":"14.52683000"},{"id":"136954","name":"Casacanditella","state_id":1679,"state_code":"65","country_id":107,"country_code":"IT","latitude":"42.24643000","longitude":"14.20040000"},{"id":"136961","name":"Casalanguida","state_id":1679,"state_code":"65","country_id":107,"country_code":"IT","latitude":"42.03752000","longitude":"14.49613000"},{"id":"136965","name":"Casalbordino-Miracoli","state_id":1679,"state_code":"65","country_id":107,"country_code":"IT","latitude":"42.15354000","longitude":"14.59912000"},{"id":"136995","name":"Casalincontrada","state_id":1679,"state_code":"65","country_id":107,"country_code":"IT","latitude":"42.29744000","longitude":"14.13511000"},{"id":"137083","name":"Casoli","state_id":1679,"state_code":"65","country_id":107,"country_code":"IT","latitude":"42.61723000","longitude":"13.97910000"},{"id":"137133","name":"Castel Castagna","state_id":1679,"state_code":"65","country_id":107,"country_code":"IT","latitude":"42.54294000","longitude":"13.71640000"},{"id":"137165","name":"Castel del Monte","state_id":1679,"state_code":"65","country_id":107,"country_code":"IT","latitude":"42.36544000","longitude":"13.72592000"},{"id":"137169","name":"Castel di Ieri","state_id":1679,"state_code":"65","country_id":107,"country_code":"IT","latitude":"42.11353000","longitude":"13.74200000"},{"id":"137173","name":"Castel di Sangro","state_id":1679,"state_code":"65","country_id":107,"country_code":"IT","latitude":"41.78392000","longitude":"14.10653000"},{"id":"137136","name":"Castel Frentano","state_id":1679,"state_code":"65","country_id":107,"country_code":"IT","latitude":"42.19875000","longitude":"14.35643000"},{"id":"137205","name":"Castelguidone","state_id":1679,"state_code":"65","country_id":107,"country_code":"IT","latitude":"41.82258000","longitude":"14.52286000"},{"id":"137210","name":"Castellafiume","state_id":1679,"state_code":"65","country_id":107,"country_code":"IT","latitude":"41.98913000","longitude":"13.33440000"},{"id":"137211","name":"Castellalto","state_id":1679,"state_code":"65","country_id":107,"country_code":"IT","latitude":"42.67705000","longitude":"13.82101000"},{"id":"137242","name":"Castelli","state_id":1679,"state_code":"65","country_id":107,"country_code":"IT","latitude":"42.48476000","longitude":"13.71201000"},{"id":"137295","name":"Castelnuovo Vomano","state_id":1679,"state_code":"65","country_id":107,"country_code":"IT","latitude":"42.62933000","longitude":"13.85003000"},{"id":"137321","name":"Castelvecchio Calvisio","state_id":1679,"state_code":"65","country_id":107,"country_code":"IT","latitude":"42.31134000","longitude":"13.68720000"},{"id":"137322","name":"Castelvecchio Subequo","state_id":1679,"state_code":"65","country_id":107,"country_code":"IT","latitude":"42.12881000","longitude":"13.72868000"},{"id":"137347","name":"Castiglione a Casauria","state_id":1679,"state_code":"65","country_id":107,"country_code":"IT","latitude":"42.23601000","longitude":"13.89832000"},{"id":"137342","name":"Castiglione Messer Marino","state_id":1679,"state_code":"65","country_id":107,"country_code":"IT","latitude":"41.86833000","longitude":"14.44996000"},{"id":"137343","name":"Castiglione Messer Raimondo","state_id":1679,"state_code":"65","country_id":107,"country_code":"IT","latitude":"42.53194000","longitude":"13.87953000"},{"id":"137360","name":"Castilenti","state_id":1679,"state_code":"65","country_id":107,"country_code":"IT","latitude":"42.53334000","longitude":"13.91710000"},{"id":"137395","name":"Catignano","state_id":1679,"state_code":"65","country_id":107,"country_code":"IT","latitude":"42.34697000","longitude":"13.95190000"},{"id":"137462","name":"Celano","state_id":1679,"state_code":"65","country_id":107,"country_code":"IT","latitude":"42.08077000","longitude":"13.51700000"},{"id":"137465","name":"Celenza sul Trigno","state_id":1679,"state_code":"65","country_id":107,"country_code":"IT","latitude":"41.87198000","longitude":"14.57893000"},{"id":"137479","name":"Cellino Attanasio","state_id":1679,"state_code":"65","country_id":107,"country_code":"IT","latitude":"42.58574000","longitude":"13.86050000"},{"id":"137505","name":"Cepagatti","state_id":1679,"state_code":"65","country_id":107,"country_code":"IT","latitude":"42.36506000","longitude":"14.07424000"},{"id":"137525","name":"Cerchio","state_id":1679,"state_code":"65","country_id":107,"country_code":"IT","latitude":"42.06357000","longitude":"13.60006000"},{"id":"137555","name":"Cermignano","state_id":1679,"state_code":"65","country_id":107,"country_code":"IT","latitude":"42.59131000","longitude":"13.79540000"},{"id":"137560","name":"Cerratina","state_id":1679,"state_code":"65","country_id":107,"country_code":"IT","latitude":"42.39007000","longitude":"14.10338000"},{"id":"137672","name":"Chieti","state_id":1679,"state_code":"65","country_id":107,"country_code":"IT","latitude":"42.34827000","longitude":"14.16494000"},{"id":"137772","name":"Citt\u00e0 Sant'Angelo","state_id":1679,"state_code":"65","country_id":107,"country_code":"IT","latitude":"42.51254000","longitude":"14.06203000"},{"id":"137787","name":"Civita d'Antino","state_id":1679,"state_code":"65","country_id":107,"country_code":"IT","latitude":"41.88629000","longitude":"13.47215000"},{"id":"137789","name":"Civitaluparella","state_id":1679,"state_code":"65","country_id":107,"country_code":"IT","latitude":"41.94490000","longitude":"14.30135000"},{"id":"137793","name":"Civitaquana","state_id":1679,"state_code":"65","country_id":107,"country_code":"IT","latitude":"42.32578000","longitude":"13.90012000"},{"id":"137795","name":"Civitella Alfedena","state_id":1679,"state_code":"65","country_id":107,"country_code":"IT","latitude":"41.76533000","longitude":"13.94271000"},{"id":"137796","name":"Civitella Casanova","state_id":1679,"state_code":"65","country_id":107,"country_code":"IT","latitude":"42.36391000","longitude":"13.88514000"},{"id":"137802","name":"Civitella del Tronto","state_id":1679,"state_code":"65","country_id":107,"country_code":"IT","latitude":"42.77298000","longitude":"13.67626000"},{"id":"137798","name":"Civitella Messer Raimondo","state_id":1679,"state_code":"65","country_id":107,"country_code":"IT","latitude":"42.08893000","longitude":"14.21701000"},{"id":"137799","name":"Civitella Roveto","state_id":1679,"state_code":"65","country_id":107,"country_code":"IT","latitude":"41.91329000","longitude":"13.42396000"},{"id":"137826","name":"Cocullo","state_id":1679,"state_code":"65","country_id":107,"country_code":"IT","latitude":"42.03283000","longitude":"13.77500000"},{"id":"137857","name":"Collarmele","state_id":1679,"state_code":"65","country_id":107,"country_code":"IT","latitude":"42.06031000","longitude":"13.62670000"},{"id":"137876","name":"Collecorvino","state_id":1679,"state_code":"65","country_id":107,"country_code":"IT","latitude":"42.46024000","longitude":"14.01564000"},{"id":"137877","name":"Colledara","state_id":1679,"state_code":"65","country_id":107,"country_code":"IT","latitude":"42.53918000","longitude":"13.67556000"},{"id":"137878","name":"Colledimacine","state_id":1679,"state_code":"65","country_id":107,"country_code":"IT","latitude":"42.00370000","longitude":"14.20079000"},{"id":"137879","name":"Colledimezzo","state_id":1679,"state_code":"65","country_id":107,"country_code":"IT","latitude":"41.98606000","longitude":"14.38690000"},{"id":"137884","name":"Collelongo","state_id":1679,"state_code":"65","country_id":107,"country_code":"IT","latitude":"41.88659000","longitude":"13.58380000"},{"id":"137889","name":"Collepietro","state_id":1679,"state_code":"65","country_id":107,"country_code":"IT","latitude":"42.22089000","longitude":"13.78101000"},{"id":"137890","name":"Colleranesco","state_id":1679,"state_code":"65","country_id":107,"country_code":"IT","latitude":"42.72112000","longitude":"13.93732000"},{"id":"137911","name":"Cologna Spiaggia","state_id":1679,"state_code":"65","country_id":107,"country_code":"IT","latitude":"42.72152000","longitude":"13.98311000"},{"id":"137923","name":"Colonnella","state_id":1679,"state_code":"65","country_id":107,"country_code":"IT","latitude":"42.87230000","longitude":"13.86987000"},{"id":"137941","name":"Cominio","state_id":1679,"state_code":"65","country_id":107,"country_code":"IT","latitude":"42.31248000","longitude":"13.43250000"},{"id":"137980","name":"Controguerra","state_id":1679,"state_code":"65","country_id":107,"country_code":"IT","latitude":"42.85398000","longitude":"13.81775000"},{"id":"137989","name":"Coppito","state_id":1679,"state_code":"65","country_id":107,"country_code":"IT","latitude":"42.36730000","longitude":"13.34358000"},{"id":"138008","name":"Corfinio","state_id":1679,"state_code":"65","country_id":107,"country_code":"IT","latitude":"42.12149000","longitude":"13.83940000"},{"id":"138044","name":"Corropoli","state_id":1679,"state_code":"65","country_id":107,"country_code":"IT","latitude":"42.82720000","longitude":"13.83471000"},{"id":"138069","name":"Cortino","state_id":1679,"state_code":"65","country_id":107,"country_code":"IT","latitude":"42.62186000","longitude":"13.50774000"},{"id":"138072","name":"Corvara","state_id":1679,"state_code":"65","country_id":107,"country_code":"IT","latitude":"42.27511000","longitude":"13.87363000"},{"id":"138129","name":"Crecchio","state_id":1679,"state_code":"65","country_id":107,"country_code":"IT","latitude":"42.29778000","longitude":"14.32656000"},{"id":"138163","name":"Crognaleto","state_id":1679,"state_code":"65","country_id":107,"country_code":"IT","latitude":"42.58771000","longitude":"13.48890000"},{"id":"138186","name":"Cugnoli","state_id":1679,"state_code":"65","country_id":107,"country_code":"IT","latitude":"42.30692000","longitude":"13.93490000"},{"id":"138195","name":"Cupello","state_id":1679,"state_code":"65","country_id":107,"country_code":"IT","latitude":"42.06936000","longitude":"14.67054000"},{"id":"138277","name":"Dogliola","state_id":1679,"state_code":"65","country_id":107,"country_code":"IT","latitude":"41.94238000","longitude":"14.63507000"},{"id":"138351","name":"Elice","state_id":1679,"state_code":"65","country_id":107,"country_code":"IT","latitude":"42.52279000","longitude":"13.97071000"},{"id":"138422","name":"Fallo","state_id":1679,"state_code":"65","country_id":107,"country_code":"IT","latitude":"41.93833000","longitude":"14.32362000"},{"id":"138434","name":"Fano Adriano","state_id":1679,"state_code":"65","country_id":107,"country_code":"IT","latitude":"42.55230000","longitude":"13.53764000"},{"id":"138437","name":"Fara Filiorum Petri","state_id":1679,"state_code":"65","country_id":107,"country_code":"IT","latitude":"42.24152000","longitude":"14.18026000"},{"id":"138441","name":"Fara San Martino","state_id":1679,"state_code":"65","country_id":107,"country_code":"IT","latitude":"42.09248000","longitude":"14.20896000"},{"id":"138447","name":"Farindola","state_id":1679,"state_code":"65","country_id":107,"country_code":"IT","latitude":"42.44292000","longitude":"13.82137000"},{"id":"138527","name":"Filetto","state_id":1679,"state_code":"65","country_id":107,"country_code":"IT","latitude":"42.22931000","longitude":"14.24501000"},{"id":"138607","name":"Fonte Umano-San Martino Alta","state_id":1679,"state_code":"65","country_id":107,"country_code":"IT","latitude":"42.52084000","longitude":"14.10760000"},{"id":"138609","name":"Fontecchio","state_id":1679,"state_code":"65","country_id":107,"country_code":"IT","latitude":"42.23027000","longitude":"13.60613000"},{"id":"138667","name":"Fossa","state_id":1679,"state_code":"65","country_id":107,"country_code":"IT","latitude":"42.29273000","longitude":"13.48779000"},{"id":"138669","name":"Fossacesia","state_id":1679,"state_code":"65","country_id":107,"country_code":"IT","latitude":"42.24198000","longitude":"14.48339000"},{"id":"138690","name":"Fraine","state_id":1679,"state_code":"65","country_id":107,"country_code":"IT","latitude":"41.90624000","longitude":"14.48788000"},{"id":"138696","name":"Francavilla al Mare","state_id":1679,"state_code":"65","country_id":107,"country_code":"IT","latitude":"42.42158000","longitude":"14.28217000"},{"id":"138730","name":"Fresagrandinaria","state_id":1679,"state_code":"65","country_id":107,"country_code":"IT","latitude":"41.97900000","longitude":"14.66211000"},{"id":"138736","name":"Frisa","state_id":1679,"state_code":"65","country_id":107,"country_code":"IT","latitude":"42.26572000","longitude":"14.37625000"},{"id":"138755","name":"Furci","state_id":1679,"state_code":"65","country_id":107,"country_code":"IT","latitude":"42.00746000","longitude":"14.58802000"},{"id":"138781","name":"Gagliano Aterno","state_id":1679,"state_code":"65","country_id":107,"country_code":"IT","latitude":"42.12598000","longitude":"13.70023000"},{"id":"138832","name":"Gamberale","state_id":1679,"state_code":"65","country_id":107,"country_code":"IT","latitude":"41.90529000","longitude":"14.20845000"},{"id":"138926","name":"Gessopalena","state_id":1679,"state_code":"65","country_id":107,"country_code":"IT","latitude":"42.05521000","longitude":"14.27367000"},{"id":"138970","name":"Gioia dei Marsi","state_id":1679,"state_code":"65","country_id":107,"country_code":"IT","latitude":"41.95697000","longitude":"13.69057000"},{"id":"138985","name":"Gissi","state_id":1679,"state_code":"65","country_id":107,"country_code":"IT","latitude":"42.01803000","longitude":"14.54484000"},{"id":"138991","name":"Giuliano Teatino","state_id":1679,"state_code":"65","country_id":107,"country_code":"IT","latitude":"42.31220000","longitude":"14.28082000"},{"id":"138993","name":"Giulianova","state_id":1679,"state_code":"65","country_id":107,"country_code":"IT","latitude":"42.75381000","longitude":"13.96650000"},{"id":"139031","name":"Goriano Sicoli","state_id":1679,"state_code":"65","country_id":107,"country_code":"IT","latitude":"42.08011000","longitude":"13.77459000"},{"id":"139163","name":"Guardiagrele","state_id":1679,"state_code":"65","country_id":107,"country_code":"IT","latitude":"42.19406000","longitude":"14.21939000"},{"id":"139181","name":"Guilmi","state_id":1679,"state_code":"65","country_id":107,"country_code":"IT","latitude":"41.99653000","longitude":"14.47882000"},{"id":"139201","name":"Imposte","state_id":1679,"state_code":"65","country_id":107,"country_code":"IT","latitude":"42.68634000","longitude":"13.52829000"},{"id":"139212","name":"Introdacqua","state_id":1679,"state_code":"65","country_id":107,"country_code":"IT","latitude":"42.00968000","longitude":"13.89779000"},{"id":"139245","name":"Isola del Gran Sasso d'Italia","state_id":1679,"state_code":"65","country_id":107,"country_code":"IT","latitude":"42.50324000","longitude":"13.65721000"},{"id":"139285","name":"L'Aquila","state_id":1679,"state_code":"65","country_id":107,"country_code":"IT","latitude":"42.35055000","longitude":"13.39954000"},{"id":"139341","name":"Lama dei Peligni","state_id":1679,"state_code":"65","country_id":107,"country_code":"IT","latitude":"42.04214000","longitude":"14.18678000"},{"id":"139354","name":"Lanciano","state_id":1679,"state_code":"65","country_id":107,"country_code":"IT","latitude":"42.22718000","longitude":"14.39024000"},{"id":"139431","name":"Lecce Nei Marsi","state_id":1679,"state_code":"65","country_id":107,"country_code":"IT","latitude":"41.93436000","longitude":"13.68430000"},{"id":"139451","name":"Lentella","state_id":1679,"state_code":"65","country_id":107,"country_code":"IT","latitude":"41.99576000","longitude":"14.67692000"},{"id":"139479","name":"Lettomanoppello","state_id":1679,"state_code":"65","country_id":107,"country_code":"IT","latitude":"42.24336000","longitude":"14.03843000"},{"id":"139480","name":"Lettopalena","state_id":1679,"state_code":"65","country_id":107,"country_code":"IT","latitude":"42.00251000","longitude":"14.15652000"},{"id":"139538","name":"Liscia","state_id":1679,"state_code":"65","country_id":107,"country_code":"IT","latitude":"41.95524000","longitude":"14.55532000"},{"id":"139610","name":"Loreto Aprutino","state_id":1679,"state_code":"65","country_id":107,"country_code":"IT","latitude":"42.43104000","longitude":"13.98057000"},{"id":"139638","name":"Luco dei Marsi","state_id":1679,"state_code":"65","country_id":107,"country_code":"IT","latitude":"41.95925000","longitude":"13.47349000"},{"id":"139639","name":"Lucoli","state_id":1679,"state_code":"65","country_id":107,"country_code":"IT","latitude":"42.29093000","longitude":"13.33799000"},{"id":"139725","name":"Magliano De'Marsi","state_id":1679,"state_code":"65","country_id":107,"country_code":"IT","latitude":"42.09153000","longitude":"13.36379000"},{"id":"139802","name":"Manoppello","state_id":1679,"state_code":"65","country_id":107,"country_code":"IT","latitude":"42.25918000","longitude":"14.06024000"},{"id":"139803","name":"Manoppello Scalo","state_id":1679,"state_code":"65","country_id":107,"country_code":"IT","latitude":"42.30762000","longitude":"14.05363000"},{"id":"139895","name":"Marina di San Vito","state_id":1679,"state_code":"65","country_id":107,"country_code":"IT","latitude":"42.30514000","longitude":"14.44844000"},{"id":"139897","name":"Marina di Vasto","state_id":1679,"state_code":"65","country_id":107,"country_code":"IT","latitude":"42.09373000","longitude":"14.72683000"},{"id":"139936","name":"Martinsicuro","state_id":1679,"state_code":"65","country_id":107,"country_code":"IT","latitude":"42.88031000","longitude":"13.91326000"},{"id":"139975","name":"Massa d'Albe-Corona","state_id":1679,"state_code":"65","country_id":107,"country_code":"IT","latitude":"42.10723000","longitude":"13.39429000"},{"id":"140132","name":"Miglianico","state_id":1679,"state_code":"65","country_id":107,"country_code":"IT","latitude":"42.35773000","longitude":"14.29179000"},{"id":"140214","name":"Molina Aterno","state_id":1679,"state_code":"65","country_id":107,"country_code":"IT","latitude":"42.14903000","longitude":"13.73540000"},{"id":"140350","name":"Montazzoli","state_id":1679,"state_code":"65","country_id":107,"country_code":"IT","latitude":"41.94887000","longitude":"14.43069000"},{"id":"140389","name":"Montebello di Bertona","state_id":1679,"state_code":"65","country_id":107,"country_code":"IT","latitude":"42.41686000","longitude":"13.87119000"},{"id":"140390","name":"Montebello sul Sangro","state_id":1679,"state_code":"65","country_id":107,"country_code":"IT","latitude":"41.98663000","longitude":"14.32402000"},{"id":"140436","name":"Monteferrante","state_id":1679,"state_code":"65","country_id":107,"country_code":"IT","latitude":"41.95396000","longitude":"14.38856000"},{"id":"140438","name":"Montefino","state_id":1679,"state_code":"65","country_id":107,"country_code":"IT","latitude":"42.54551000","longitude":"13.88479000"},{"id":"140465","name":"Montelapiano","state_id":1679,"state_code":"65","country_id":107,"country_code":"IT","latitude":"41.96267000","longitude":"14.34212000"},{"id":"140504","name":"Montenerodomo","state_id":1679,"state_code":"65","country_id":107,"country_code":"IT","latitude":"41.97682000","longitude":"14.25177000"},{"id":"140505","name":"Monteodorisio","state_id":1679,"state_code":"65","country_id":107,"country_code":"IT","latitude":"42.08485000","longitude":"14.65386000"},{"id":"140514","name":"Montereale","state_id":1679,"state_code":"65","country_id":107,"country_code":"IT","latitude":"42.52332000","longitude":"13.24585000"},{"id":"140541","name":"Montesilvano Marina","state_id":1679,"state_code":"65","country_id":107,"country_code":"IT","latitude":"42.51140000","longitude":"14.14507000"},{"id":"140557","name":"Monticchio","state_id":1679,"state_code":"65","country_id":107,"country_code":"IT","latitude":"42.32035000","longitude":"13.46382000"},{"id":"140586","name":"Montorio al Vomano","state_id":1679,"state_code":"65","country_id":107,"country_code":"IT","latitude":"42.58123000","longitude":"13.63715000"},{"id":"140620","name":"Morino","state_id":1679,"state_code":"65","country_id":107,"country_code":"IT","latitude":"41.86442000","longitude":"13.45700000"},{"id":"140634","name":"Morro d'Oro","state_id":1679,"state_code":"65","country_id":107,"country_code":"IT","latitude":"42.66291000","longitude":"13.92129000"},{"id":"140646","name":"Mosciano Sant'Angelo","state_id":1679,"state_code":"65","country_id":107,"country_code":"IT","latitude":"42.74700000","longitude":"13.88891000"},{"id":"140647","name":"Moscufo","state_id":1679,"state_code":"65","country_id":107,"country_code":"IT","latitude":"42.42713000","longitude":"14.05434000"},{"id":"140671","name":"Mozzagrogna","state_id":1679,"state_code":"65","country_id":107,"country_code":"IT","latitude":"42.21267000","longitude":"14.44258000"},{"id":"140731","name":"Navelli","state_id":1679,"state_code":"65","country_id":107,"country_code":"IT","latitude":"42.23721000","longitude":"13.72961000"},{"id":"140743","name":"Nepezzano","state_id":1679,"state_code":"65","country_id":107,"country_code":"IT","latitude":"42.68994000","longitude":"13.75650000"},{"id":"140745","name":"Nereto","state_id":1679,"state_code":"65","country_id":107,"country_code":"IT","latitude":"42.81548000","longitude":"13.81989000"},{"id":"140746","name":"Nerito","state_id":1679,"state_code":"65","country_id":107,"country_code":"IT","latitude":"42.54763000","longitude":"13.47759000"},{"id":"140780","name":"Nocciano","state_id":1679,"state_code":"65","country_id":107,"country_code":"IT","latitude":"42.33366000","longitude":"13.98571000"},{"id":"140811","name":"Notaresco","state_id":1679,"state_code":"65","country_id":107,"country_code":"IT","latitude":"42.65742000","longitude":"13.89491000"},{"id":"140842","name":"Nucleo Industriale di Bazzano","state_id":1679,"state_code":"65","country_id":107,"country_code":"IT","latitude":"42.33623000","longitude":"13.46755000"},{"id":"140874","name":"Ofena","state_id":1679,"state_code":"65","country_id":107,"country_code":"IT","latitude":"42.32536000","longitude":"13.75864000"},{"id":"140932","name":"Opi","state_id":1679,"state_code":"65","country_id":107,"country_code":"IT","latitude":"41.77838000","longitude":"13.82932000"},{"id":"140952","name":"Oricola","state_id":1679,"state_code":"65","country_id":107,"country_code":"IT","latitude":"42.04922000","longitude":"13.03939000"},{"id":"140975","name":"Orsogna","state_id":1679,"state_code":"65","country_id":107,"country_code":"IT","latitude":"42.22344000","longitude":"14.28085000"},{"id":"140987","name":"Ortona","state_id":1679,"state_code":"65","country_id":107,"country_code":"IT","latitude":"42.35087000","longitude":"14.40342000"},{"id":"140988","name":"Ortona dei Marsi","state_id":1679,"state_code":"65","country_id":107,"country_code":"IT","latitude":"41.99820000","longitude":"13.72909000"},{"id":"140990","name":"Ortucchio","state_id":1679,"state_code":"65","country_id":107,"country_code":"IT","latitude":"41.95525000","longitude":"13.64651000"},{"id":"141058","name":"Ovindoli","state_id":1679,"state_code":"65","country_id":107,"country_code":"IT","latitude":"42.13765000","longitude":"13.51603000"},{"id":"141070","name":"Pacentro","state_id":1679,"state_code":"65","country_id":107,"country_code":"IT","latitude":"42.05043000","longitude":"13.99151000"},{"id":"141095","name":"Paganica-Tempera","state_id":1679,"state_code":"65","country_id":107,"country_code":"IT","latitude":"42.35715000","longitude":"13.47138000"},{"id":"58205","name":"Pagliare","state_id":1679,"state_code":"65","country_id":107,"country_code":"IT","latitude":"42.64372000","longitude":"13.95171000"},{"id":"58209","name":"Paglieta","state_id":1679,"state_code":"65","country_id":107,"country_code":"IT","latitude":"42.16139000","longitude":"14.50306000"},{"id":"58238","name":"Palena","state_id":1679,"state_code":"65","country_id":107,"country_code":"IT","latitude":"41.98353000","longitude":"14.13696000"},{"id":"58260","name":"Palmoli","state_id":1679,"state_code":"65","country_id":107,"country_code":"IT","latitude":"41.93944000","longitude":"14.58142000"},{"id":"58264","name":"Palombaro","state_id":1679,"state_code":"65","country_id":107,"country_code":"IT","latitude":"42.12323000","longitude":"14.22989000"},{"id":"58403","name":"Penna Sant'Andrea","state_id":1679,"state_code":"65","country_id":107,"country_code":"IT","latitude":"42.59403000","longitude":"13.77215000"},{"id":"58406","name":"Pennadomo","state_id":1679,"state_code":"65","country_id":107,"country_code":"IT","latitude":"42.00394000","longitude":"14.32338000"},{"id":"58407","name":"Pennapiedimonte","state_id":1679,"state_code":"65","country_id":107,"country_code":"IT","latitude":"42.15563000","longitude":"14.19432000"},{"id":"58408","name":"Penne","state_id":1679,"state_code":"65","country_id":107,"country_code":"IT","latitude":"42.45474000","longitude":"13.92754000"},{"id":"58411","name":"Perano","state_id":1679,"state_code":"65","country_id":107,"country_code":"IT","latitude":"42.10460000","longitude":"14.39581000"},{"id":"58420","name":"Pereto","state_id":1679,"state_code":"65","country_id":107,"country_code":"IT","latitude":"42.05821000","longitude":"13.10231000"},{"id":"58450","name":"Pescara","state_id":1679,"state_code":"65","country_id":107,"country_code":"IT","latitude":"42.45840000","longitude":"14.20283000"},{"id":"58452","name":"Pescasseroli","state_id":1679,"state_code":"65","country_id":107,"country_code":"IT","latitude":"41.80343000","longitude":"13.78707000"},{"id":"58459","name":"Pescina","state_id":1679,"state_code":"65","country_id":107,"country_code":"IT","latitude":"42.02351000","longitude":"13.65116000"},{"id":"58461","name":"Pescocostanzo","state_id":1679,"state_code":"65","country_id":107,"country_code":"IT","latitude":"41.88722000","longitude":"14.06614000"},{"id":"58466","name":"Pescosansonesco Nuovo","state_id":1679,"state_code":"65","country_id":107,"country_code":"IT","latitude":"42.25524000","longitude":"13.88480000"},{"id":"58493","name":"Pettorano sul Gizio","state_id":1679,"state_code":"65","country_id":107,"country_code":"IT","latitude":"41.97326000","longitude":"13.96001000"},{"id":"58523","name":"Pianella","state_id":1679,"state_code":"65","country_id":107,"country_code":"IT","latitude":"42.39918000","longitude":"14.04781000"},{"id":"58548","name":"Pianola","state_id":1679,"state_code":"65","country_id":107,"country_code":"IT","latitude":"42.32341000","longitude":"13.40394000"},{"id":"58554","name":"Pianura Vomano","state_id":1679,"state_code":"65","country_id":107,"country_code":"IT","latitude":"42.63028000","longitude":"13.91548000"},{"id":"58579","name":"Picciano","state_id":1679,"state_code":"65","country_id":107,"country_code":"IT","latitude":"42.47525000","longitude":"13.98990000"},{"id":"58607","name":"Pietracamela","state_id":1679,"state_code":"65","country_id":107,"country_code":"IT","latitude":"42.52344000","longitude":"13.55431000"},{"id":"58612","name":"Pietraferrazzana","state_id":1679,"state_code":"65","country_id":107,"country_code":"IT","latitude":"41.96943000","longitude":"14.37451000"},{"id":"58619","name":"Pietranico","state_id":1679,"state_code":"65","country_id":107,"country_code":"IT","latitude":"42.27565000","longitude":"13.91077000"},{"id":"58677","name":"Pineto","state_id":1679,"state_code":"65","country_id":107,"country_code":"IT","latitude":"42.60879000","longitude":"14.06639000"},{"id":"58727","name":"Pizzoferrato","state_id":1679,"state_code":"65","country_id":107,"country_code":"IT","latitude":"41.92244000","longitude":"14.23632000"},{"id":"58728","name":"Pizzoli","state_id":1679,"state_code":"65","country_id":107,"country_code":"IT","latitude":"42.43603000","longitude":"13.29886000"},{"id":"58759","name":"Poggio Picenze","state_id":1679,"state_code":"65","country_id":107,"country_code":"IT","latitude":"42.32061000","longitude":"13.54036000"},{"id":"58768","name":"Poggiofiorito","state_id":1679,"state_code":"65","country_id":107,"country_code":"IT","latitude":"42.25414000","longitude":"14.32082000"},{"id":"58802","name":"Pollutri","state_id":1679,"state_code":"65","country_id":107,"country_code":"IT","latitude":"42.13784000","longitude":"14.59172000"},{"id":"58900","name":"Popoli","state_id":1679,"state_code":"65","country_id":107,"country_code":"IT","latitude":"42.16866000","longitude":"13.82997000"},{"id":"59015","name":"Prata d'Ansidonia","state_id":1679,"state_code":"65","country_id":107,"country_code":"IT","latitude":"42.27793000","longitude":"13.60830000"},{"id":"59033","name":"Pratola Peligna","state_id":1679,"state_code":"65","country_id":107,"country_code":"IT","latitude":"42.09701000","longitude":"13.87467000"},{"id":"59069","name":"Pretoro","state_id":1679,"state_code":"65","country_id":107,"country_code":"IT","latitude":"42.21923000","longitude":"14.14248000"},{"id":"59070","name":"Preturo","state_id":1679,"state_code":"65","country_id":107,"country_code":"IT","latitude":"42.37808000","longitude":"13.29633000"},{"id":"59072","name":"Prezza","state_id":1679,"state_code":"65","country_id":107,"country_code":"IT","latitude":"42.05789000","longitude":"13.83592000"},{"id":"59087","name":"Progetto Case Bazzano","state_id":1679,"state_code":"65","country_id":107,"country_code":"IT","latitude":"42.33643000","longitude":"13.44410000"},{"id":"59088","name":"Progetto Case Coppito 3","state_id":1679,"state_code":"65","country_id":107,"country_code":"IT","latitude":"42.36981000","longitude":"13.31973000"},{"id":"59089","name":"Progetto Case Sassa Nsi","state_id":1679,"state_code":"65","country_id":107,"country_code":"IT","latitude":"42.36560000","longitude":"13.31509000"},{"id":"59106","name":"Provincia dell' Aquila","state_id":1679,"state_code":"65","country_id":107,"country_code":"IT","latitude":"42.08333000","longitude":"13.66667000"},{"id":"59124","name":"Provincia di Chieti","state_id":1679,"state_code":"65","country_id":107,"country_code":"IT","latitude":"42.11667000","longitude":"14.35000000"},{"id":"59160","name":"Provincia di Pescara","state_id":1679,"state_code":"65","country_id":107,"country_code":"IT","latitude":"42.33333000","longitude":"13.95000000"},{"id":"59179","name":"Provincia di Teramo","state_id":1679,"state_code":"65","country_id":107,"country_code":"IT","latitude":"42.65000000","longitude":"13.68333000"},{"id":"59212","name":"Quadri","state_id":1679,"state_code":"65","country_id":107,"country_code":"IT","latitude":"41.92402000","longitude":"14.28768000"},{"id":"59270","name":"Raiano","state_id":1679,"state_code":"65","country_id":107,"country_code":"IT","latitude":"42.10158000","longitude":"13.81386000"},{"id":"59285","name":"Rapino","state_id":1679,"state_code":"65","country_id":107,"country_code":"IT","latitude":"42.20931000","longitude":"14.18493000"},{"id":"59399","name":"Ripa Teatina","state_id":1679,"state_code":"65","country_id":107,"country_code":"IT","latitude":"42.36603000","longitude":"14.24441000"},{"id":"59439","name":"Rivisondoli","state_id":1679,"state_code":"65","country_id":107,"country_code":"IT","latitude":"41.87023000","longitude":"14.06671000"},{"id":"59483","name":"Rocca di Botte","state_id":1679,"state_code":"65","country_id":107,"country_code":"IT","latitude":"42.03102000","longitude":"13.07185000"},{"id":"59484","name":"Rocca di Cambio","state_id":1679,"state_code":"65","country_id":107,"country_code":"IT","latitude":"42.23755000","longitude":"13.48906000"},{"id":"59487","name":"Rocca di Mezzo","state_id":1679,"state_code":"65","country_id":107,"country_code":"IT","latitude":"42.20441000","longitude":"13.51840000"},{"id":"59473","name":"Rocca Pia","state_id":1679,"state_code":"65","country_id":107,"country_code":"IT","latitude":"41.93429000","longitude":"13.97726000"},{"id":"59478","name":"Rocca San Giovanni","state_id":1679,"state_code":"65","country_id":107,"country_code":"IT","latitude":"42.24604000","longitude":"14.46162000"},{"id":"59494","name":"Roccacasale","state_id":1679,"state_code":"65","country_id":107,"country_code":"IT","latitude":"42.12249000","longitude":"13.88758000"},{"id":"59510","name":"Roccamorice","state_id":1679,"state_code":"65","country_id":107,"country_code":"IT","latitude":"42.21274000","longitude":"14.02531000"},{"id":"59516","name":"Roccaraso","state_id":1679,"state_code":"65","country_id":107,"country_code":"IT","latitude":"41.84872000","longitude":"14.07846000"},{"id":"59518","name":"Roccascalegna","state_id":1679,"state_code":"65","country_id":107,"country_code":"IT","latitude":"42.06212000","longitude":"14.30802000"},{"id":"59524","name":"Roccaspinalveti-Santa Giusta","state_id":1679,"state_code":"65","country_id":107,"country_code":"IT","latitude":"41.94233000","longitude":"14.47092000"},{"id":"59531","name":"Roccavivi","state_id":1679,"state_code":"65","country_id":107,"country_code":"IT","latitude":"41.81214000","longitude":"13.53662000"},{"id":"59567","name":"Roio del Sangro","state_id":1679,"state_code":"65","country_id":107,"country_code":"IT","latitude":"41.91153000","longitude":"14.37382000"},{"id":"59629","name":"Rosciano","state_id":1679,"state_code":"65","country_id":107,"country_code":"IT","latitude":"42.32227000","longitude":"14.04555000"},{"id":"59634","name":"Rosello","state_id":1679,"state_code":"65","country_id":107,"country_code":"IT","latitude":"41.90116000","longitude":"14.34919000"},{"id":"59637","name":"Roseto degli Abruzzi","state_id":1679,"state_code":"65","country_id":107,"country_code":"IT","latitude":"42.67164000","longitude":"14.01481000"},{"id":"59772","name":"Salino","state_id":1679,"state_code":"65","country_id":107,"country_code":"IT","latitude":"42.78571000","longitude":"13.91400000"},{"id":"59777","name":"Salle","state_id":1679,"state_code":"65","country_id":107,"country_code":"IT","latitude":"42.17756000","longitude":"13.96091000"},{"id":"59792","name":"Salvo Marina","state_id":1679,"state_code":"65","country_id":107,"country_code":"IT","latitude":"42.07037000","longitude":"14.76597000"},{"id":"59806","name":"Sambuceto","state_id":1679,"state_code":"65","country_id":107,"country_code":"IT","latitude":"42.42168000","longitude":"14.18747000"},{"id":"59831","name":"San Benedetto dei Marsi","state_id":1679,"state_code":"65","country_id":107,"country_code":"IT","latitude":"42.00760000","longitude":"13.62381000"},{"id":"59833","name":"San Benedetto in Perillis","state_id":1679,"state_code":"65","country_id":107,"country_code":"IT","latitude":"42.18377000","longitude":"13.76996000"},{"id":"59849","name":"San Buono","state_id":1679,"state_code":"65","country_id":107,"country_code":"IT","latitude":"41.98140000","longitude":"14.56818000"},{"id":"59892","name":"San Demetrio Ne' Vestini","state_id":1679,"state_code":"65","country_id":107,"country_code":"IT","latitude":"42.28963000","longitude":"13.55519000"},{"id":"59986","name":"San Giovanni Lipioni","state_id":1679,"state_code":"65","country_id":107,"country_code":"IT","latitude":"41.84383000","longitude":"14.56271000"},{"id":"60072","name":"San Martino Bassa","state_id":1679,"state_code":"65","country_id":107,"country_code":"IT","latitude":"42.51827000","longitude":"14.13045000"},{"id":"60097","name":"San Martino sulla Marrucina","state_id":1679,"state_code":"65","country_id":107,"country_code":"IT","latitude":"42.22419000","longitude":"14.21577000"},{"id":"60148","name":"San Nicol\u00f2 a Tordino","state_id":1679,"state_code":"65","country_id":107,"country_code":"IT","latitude":"42.69648000","longitude":"13.79708000"},{"id":"60153","name":"San Panfilo d'Ocre","state_id":1679,"state_code":"65","country_id":107,"country_code":"IT","latitude":"42.28616000","longitude":"13.47518000"},{"id":"60203","name":"San Pio delle Camere","state_id":1679,"state_code":"65","country_id":107,"country_code":"IT","latitude":"42.28423000","longitude":"13.65570000"},{"id":"60222","name":"San Rocco","state_id":1679,"state_code":"65","country_id":107,"country_code":"IT","latitude":"42.24294000","longitude":"14.12891000"},{"id":"60234","name":"San Salvo","state_id":1679,"state_code":"65","country_id":107,"country_code":"IT","latitude":"42.04413000","longitude":"14.73335000"},{"id":"60259","name":"San Valentino in Abruzzo Citeriore","state_id":1679,"state_code":"65","country_id":107,"country_code":"IT","latitude":"42.23304000","longitude":"13.98561000"},{"id":"60269","name":"San Vincenzo Valle Roveto","state_id":1679,"state_code":"65","country_id":107,"country_code":"IT","latitude":"41.84452000","longitude":"13.53566000"},{"id":"60275","name":"San Vito Chietino","state_id":1679,"state_code":"65","country_id":107,"country_code":"IT","latitude":"42.29014000","longitude":"14.44270000"},{"id":"60391","name":"Sant'Egidio alla Vibrata","state_id":1679,"state_code":"65","country_id":107,"country_code":"IT","latitude":"42.81705000","longitude":"13.72164000"},{"id":"60400","name":"Sant'Eufemia a Maiella","state_id":1679,"state_code":"65","country_id":107,"country_code":"IT","latitude":"42.12613000","longitude":"14.02651000"},{"id":"60403","name":"Sant'Eusanio del Sangro","state_id":1679,"state_code":"65","country_id":107,"country_code":"IT","latitude":"42.16908000","longitude":"14.32776000"},{"id":"60402","name":"Sant'Eusanio Forconese","state_id":1679,"state_code":"65","country_id":107,"country_code":"IT","latitude":"42.28951000","longitude":"13.52425000"},{"id":"60407","name":"Sant'Omero","state_id":1679,"state_code":"65","country_id":107,"country_code":"IT","latitude":"42.79011000","longitude":"13.78906000"},{"id":"60463","name":"Santa Maria Imbaro","state_id":1679,"state_code":"65","country_id":107,"country_code":"IT","latitude":"42.21999000","longitude":"14.45027000"},{"id":"60494","name":"Santa Teresa","state_id":1679,"state_code":"65","country_id":107,"country_code":"IT","latitude":"42.42753000","longitude":"14.15816000"},{"id":"60504","name":"Sante Marie","state_id":1679,"state_code":"65","country_id":107,"country_code":"IT","latitude":"42.10369000","longitude":"13.20163000"},{"id":"60524","name":"Santo Stefano di Sessanio","state_id":1679,"state_code":"65","country_id":107,"country_code":"IT","latitude":"42.34339000","longitude":"13.64477000"},{"id":"60565","name":"Sassa","state_id":1679,"state_code":"65","country_id":107,"country_code":"IT","latitude":"42.35204000","longitude":"13.29924000"},{"id":"60601","name":"Scafa","state_id":1679,"state_code":"65","country_id":107,"country_code":"IT","latitude":"42.26575000","longitude":"13.99665000"},{"id":"60622","name":"Scanno","state_id":1679,"state_code":"65","country_id":107,"country_code":"IT","latitude":"41.90442000","longitude":"13.87961000"},{"id":"60639","name":"Scerne","state_id":1679,"state_code":"65","country_id":107,"country_code":"IT","latitude":"42.64754000","longitude":"14.03791000"},{"id":"60640","name":"Scerni","state_id":1679,"state_code":"65","country_id":107,"country_code":"IT","latitude":"42.10418000","longitude":"14.57428000"},{"id":"60643","name":"Schiavi di Abruzzo","state_id":1679,"state_code":"65","country_id":107,"country_code":"IT","latitude":"41.81311000","longitude":"14.48655000"},{"id":"60662","name":"Scontrone","state_id":1679,"state_code":"65","country_id":107,"country_code":"IT","latitude":"41.74681000","longitude":"14.03880000"},{"id":"60665","name":"Scoppito","state_id":1679,"state_code":"65","country_id":107,"country_code":"IT","latitude":"42.36948000","longitude":"13.25936000"},{"id":"60670","name":"Scurcola Marsicana","state_id":1679,"state_code":"65","country_id":107,"country_code":"IT","latitude":"42.06313000","longitude":"13.33919000"},{"id":"60676","name":"Secinaro","state_id":1679,"state_code":"65","country_id":107,"country_code":"IT","latitude":"42.15062000","longitude":"13.68145000"},{"id":"60704","name":"Selva","state_id":1679,"state_code":"65","country_id":107,"country_code":"IT","latitude":"42.11442000","longitude":"14.34425000"},{"id":"60765","name":"Serramonacesca","state_id":1679,"state_code":"65","country_id":107,"country_code":"IT","latitude":"42.24795000","longitude":"14.09297000"},{"id":"60857","name":"Silvi","state_id":1679,"state_code":"65","country_id":107,"country_code":"IT","latitude":"42.54984000","longitude":"14.11759000"},{"id":"61027","name":"Spoltore","state_id":1679,"state_code":"65","country_id":107,"country_code":"IT","latitude":"42.45501000","longitude":"14.13988000"},{"id":"61116","name":"Sulmona","state_id":1679,"state_code":"65","country_id":107,"country_code":"IT","latitude":"42.04945000","longitude":"13.92578000"},{"id":"61142","name":"Tagliacozzo","state_id":1679,"state_code":"65","country_id":107,"country_code":"IT","latitude":"42.06933000","longitude":"13.25469000"},{"id":"61163","name":"Taranta Peligna","state_id":1679,"state_code":"65","country_id":107,"country_code":"IT","latitude":"42.02052000","longitude":"14.17103000"},{"id":"61217","name":"Teramo","state_id":1679,"state_code":"65","country_id":107,"country_code":"IT","latitude":"42.66123000","longitude":"13.69901000"},{"id":"61280","name":"Tione degli Abruzzi","state_id":1679,"state_code":"65","country_id":107,"country_code":"IT","latitude":"42.20393000","longitude":"13.63570000"},{"id":"61293","name":"Tocco da Casauria","state_id":1679,"state_code":"65","country_id":107,"country_code":"IT","latitude":"42.21203000","longitude":"13.91547000"},{"id":"61301","name":"Tollo","state_id":1679,"state_code":"65","country_id":107,"country_code":"IT","latitude":"42.34542000","longitude":"14.32360000"},{"id":"61317","name":"Torano Nuovo","state_id":1679,"state_code":"65","country_id":107,"country_code":"IT","latitude":"42.82305000","longitude":"13.77729000"},{"id":"61330","name":"Torino di Sangro","state_id":1679,"state_code":"65","country_id":107,"country_code":"IT","latitude":"42.19100000","longitude":"14.54272000"},{"id":"61334","name":"Tornareccio","state_id":1679,"state_code":"65","country_id":107,"country_code":"IT","latitude":"42.03763000","longitude":"14.41525000"},{"id":"61336","name":"Tornimparte","state_id":1679,"state_code":"65","country_id":107,"country_code":"IT","latitude":"42.29007000","longitude":"13.30092000"},{"id":"61368","name":"Torre de' Passeri","state_id":1679,"state_code":"65","country_id":107,"country_code":"IT","latitude":"42.24324000","longitude":"13.93330000"},{"id":"61380","name":"Torrebruna","state_id":1679,"state_code":"65","country_id":107,"country_code":"IT","latitude":"41.86742000","longitude":"14.54148000"},{"id":"61392","name":"Torrevecchia","state_id":1679,"state_code":"65","country_id":107,"country_code":"IT","latitude":"42.38274000","longitude":"14.21331000"},{"id":"61399","name":"Torricella","state_id":1679,"state_code":"65","country_id":107,"country_code":"IT","latitude":"42.65904000","longitude":"13.65719000"},{"id":"61401","name":"Torricella Peligna","state_id":1679,"state_code":"65","country_id":107,"country_code":"IT","latitude":"42.02397000","longitude":"14.25854000"},{"id":"61416","name":"Tortoreto","state_id":1679,"state_code":"65","country_id":107,"country_code":"IT","latitude":"42.80371000","longitude":"13.91346000"},{"id":"61417","name":"Tortoreto Lido","state_id":1679,"state_code":"65","country_id":107,"country_code":"IT","latitude":"42.79956000","longitude":"13.94205000"},{"id":"61424","name":"Tossicia","state_id":1679,"state_code":"65","country_id":107,"country_code":"IT","latitude":"42.54472000","longitude":"13.64595000"},{"id":"61444","name":"Trasacco","state_id":1679,"state_code":"65","country_id":107,"country_code":"IT","latitude":"41.95742000","longitude":"13.53270000"},{"id":"61473","name":"Treglio","state_id":1679,"state_code":"65","country_id":107,"country_code":"IT","latitude":"42.26184000","longitude":"14.42315000"},{"id":"61563","name":"Tufillo","state_id":1679,"state_code":"65","country_id":107,"country_code":"IT","latitude":"41.91685000","longitude":"14.62558000"},{"id":"61578","name":"Turrivalignani","state_id":1679,"state_code":"65","country_id":107,"country_code":"IT","latitude":"42.26296000","longitude":"14.02852000"},{"id":"61626","name":"Vacri","state_id":1679,"state_code":"65","country_id":107,"country_code":"IT","latitude":"42.29764000","longitude":"14.22901000"},{"id":"61686","name":"Valle Castellana","state_id":1679,"state_code":"65","country_id":107,"country_code":"IT","latitude":"42.73614000","longitude":"13.49709000"},{"id":"61704","name":"Vallecupa","state_id":1679,"state_code":"65","country_id":107,"country_code":"IT","latitude":"42.25366000","longitude":"13.57467000"},{"id":"61781","name":"Vasto","state_id":1679,"state_code":"65","country_id":107,"country_code":"IT","latitude":"42.11150000","longitude":"14.70649000"},{"id":"61922","name":"Vicoli","state_id":1679,"state_code":"65","country_id":107,"country_code":"IT","latitude":"42.34095000","longitude":"13.89688000"},{"id":"61988","name":"Villa Caldari","state_id":1679,"state_code":"65","country_id":107,"country_code":"IT","latitude":"42.29566000","longitude":"14.36157000"},{"id":"61992","name":"Villa Celiera","state_id":1679,"state_code":"65","country_id":107,"country_code":"IT","latitude":"42.38184000","longitude":"13.85860000"},{"id":"62003","name":"Villa Lempa","state_id":1679,"state_code":"65","country_id":107,"country_code":"IT","latitude":"42.79345000","longitude":"13.64433000"},{"id":"62012","name":"Villa Raspa","state_id":1679,"state_code":"65","country_id":107,"country_code":"IT","latitude":"42.45542000","longitude":"14.18457000"},{"id":"62015","name":"Villa Rosa","state_id":1679,"state_code":"65","country_id":107,"country_code":"IT","latitude":"42.85059000","longitude":"13.92015000"},{"id":"62022","name":"Villa Sant'Angelo","state_id":1679,"state_code":"65","country_id":107,"country_code":"IT","latitude":"42.27043000","longitude":"13.53710000"},{"id":"62025","name":"Villa Santa Lucia degli Abruzzi","state_id":1679,"state_code":"65","country_id":107,"country_code":"IT","latitude":"42.33286000","longitude":"13.77792000"},{"id":"62026","name":"Villa Santa Maria","state_id":1679,"state_code":"65","country_id":107,"country_code":"IT","latitude":"41.95130000","longitude":"14.35148000"},{"id":"62071","name":"Villagrande","state_id":1679,"state_code":"65","country_id":107,"country_code":"IT","latitude":"42.29533000","longitude":"13.29999000"},{"id":"62075","name":"Villalago","state_id":1679,"state_code":"65","country_id":107,"country_code":"IT","latitude":"41.93514000","longitude":"13.83868000"},{"id":"62078","name":"Villalfonsina","state_id":1679,"state_code":"65","country_id":107,"country_code":"IT","latitude":"42.16038000","longitude":"14.56932000"},{"id":"62080","name":"Villamagna","state_id":1679,"state_code":"65","country_id":107,"country_code":"IT","latitude":"42.32984000","longitude":"14.23689000"},{"id":"62093","name":"Villanova","state_id":1679,"state_code":"65","country_id":107,"country_code":"IT","latitude":"42.38251000","longitude":"14.12338000"},{"id":"62145","name":"Villavallelonga","state_id":1679,"state_code":"65","country_id":107,"country_code":"IT","latitude":"41.87104000","longitude":"13.62088000"},{"id":"62151","name":"Villetta Barrea","state_id":1679,"state_code":"65","country_id":107,"country_code":"IT","latitude":"41.77646000","longitude":"13.93892000"},{"id":"62186","name":"Vittorito","state_id":1679,"state_code":"65","country_id":107,"country_code":"IT","latitude":"42.12703000","longitude":"13.81670000"}]