[{"id":"135275","name":"Acquasparta","state_id":1683,"state_code":"55","country_id":107,"country_code":"IT","latitude":"42.68915000","longitude":"12.54275000"},{"id":"135417","name":"Allerona","state_id":1683,"state_code":"55","country_id":107,"country_code":"IT","latitude":"42.81174000","longitude":"11.97451000"},{"id":"135447","name":"Alviano","state_id":1683,"state_code":"55","country_id":107,"country_code":"IT","latitude":"42.59084000","longitude":"12.29775000"},{"id":"135468","name":"Amelia","state_id":1683,"state_code":"55","country_id":107,"country_code":"IT","latitude":"42.55177000","longitude":"12.42076000"},{"id":"135635","name":"Arrone","state_id":1683,"state_code":"55","country_id":107,"country_code":"IT","latitude":"42.58266000","longitude":"12.76714000"},{"id":"135666","name":"Assisi","state_id":1683,"state_code":"55","country_id":107,"country_code":"IT","latitude":"43.06671000","longitude":"12.62109000"},{"id":"135681","name":"Attigliano","state_id":1683,"state_code":"55","country_id":107,"country_code":"IT","latitude":"42.51505000","longitude":"12.29455000"},{"id":"135710","name":"Avigliano Umbro","state_id":1683,"state_code":"55","country_id":107,"country_code":"IT","latitude":"42.65303000","longitude":"12.42571000"},{"id":"135880","name":"Baschi","state_id":1683,"state_code":"55","country_id":107,"country_code":"IT","latitude":"42.67324000","longitude":"12.21762000"},{"id":"135898","name":"Bastardo","state_id":1683,"state_code":"55","country_id":107,"country_code":"IT","latitude":"42.87144000","longitude":"12.55943000"},{"id":"135901","name":"Bastia umbra","state_id":1683,"state_code":"55","country_id":107,"country_code":"IT","latitude":"43.06425000","longitude":"12.54612000"},{"id":"136022","name":"Bettona","state_id":1683,"state_code":"55","country_id":107,"country_code":"IT","latitude":"43.01124000","longitude":"12.48698000"},{"id":"136024","name":"Bevagna","state_id":1683,"state_code":"55","country_id":107,"country_code":"IT","latitude":"42.93748000","longitude":"12.61488000"},{"id":"136368","name":"Bruna","state_id":1683,"state_code":"55","country_id":107,"country_code":"IT","latitude":"42.82071000","longitude":"12.68851000"},{"id":"136559","name":"Calvi dell'Umbria","state_id":1683,"state_code":"55","country_id":107,"country_code":"IT","latitude":"42.40421000","longitude":"12.56771000"},{"id":"136612","name":"Campello sul Clitunno","state_id":1683,"state_code":"55","country_id":107,"country_code":"IT","latitude":"42.82685000","longitude":"12.76931000"},{"id":"136719","name":"Cannara","state_id":1683,"state_code":"55","country_id":107,"country_code":"IT","latitude":"42.99540000","longitude":"12.58202000"},{"id":"136772","name":"Capitan Loreto","state_id":1683,"state_code":"55","country_id":107,"country_code":"IT","latitude":"43.01731000","longitude":"12.64750000"},{"id":"136951","name":"Casa del Diavolo","state_id":1683,"state_code":"55","country_id":107,"country_code":"IT","latitude":"43.18762000","longitude":"12.44923000"},{"id":"137045","name":"Cascia","state_id":1683,"state_code":"55","country_id":107,"country_code":"IT","latitude":"42.71790000","longitude":"13.01697000"},{"id":"137140","name":"Castel Giorgio","state_id":1683,"state_code":"55","country_id":107,"country_code":"IT","latitude":"42.70697000","longitude":"11.97717000"},{"id":"137147","name":"Castel Ritaldi","state_id":1683,"state_code":"55","country_id":107,"country_code":"IT","latitude":"42.82247000","longitude":"12.67420000"},{"id":"137159","name":"Castel Viscardo","state_id":1683,"state_code":"55","country_id":107,"country_code":"IT","latitude":"42.75359000","longitude":"12.00072000"},{"id":"137319","name":"Casteltodino","state_id":1683,"state_code":"55","country_id":107,"country_code":"IT","latitude":"42.66667000","longitude":"12.50000000"},{"id":"137353","name":"Castiglione del Lago","state_id":1683,"state_code":"55","country_id":107,"country_code":"IT","latitude":"43.12457000","longitude":"12.03982000"},{"id":"137520","name":"Cerbara","state_id":1683,"state_code":"55","country_id":107,"country_code":"IT","latitude":"43.49913000","longitude":"12.21113000"},{"id":"137569","name":"Cerreto di Spoleto","state_id":1683,"state_code":"55","country_id":107,"country_code":"IT","latitude":"42.82188000","longitude":"12.92032000"},{"id":"137683","name":"Chiugiana-La Commenda","state_id":1683,"state_code":"55","country_id":107,"country_code":"IT","latitude":"43.09823000","longitude":"12.30818000"},{"id":"137713","name":"Ciconia","state_id":1683,"state_code":"55","country_id":107,"country_code":"IT","latitude":"42.73356000","longitude":"12.13400000"},{"id":"137744","name":"Cipolleto","state_id":1683,"state_code":"55","country_id":107,"country_code":"IT","latitude":"43.32393000","longitude":"12.57688000"},{"id":"137764","name":"Citerna","state_id":1683,"state_code":"55","country_id":107,"country_code":"IT","latitude":"43.49882000","longitude":"12.11376000"},{"id":"137773","name":"Citt\u00e0 della Pieve","state_id":1683,"state_code":"55","country_id":107,"country_code":"IT","latitude":"42.95934000","longitude":"12.00696000"},{"id":"137774","name":"Citt\u00e0 di Castello","state_id":1683,"state_code":"55","country_id":107,"country_code":"IT","latitude":"43.46556000","longitude":"12.23750000"},{"id":"137858","name":"Collazzone","state_id":1683,"state_code":"55","country_id":107,"country_code":"IT","latitude":"42.90147000","longitude":"12.43582000"},{"id":"137888","name":"Collepepe","state_id":1683,"state_code":"55","country_id":107,"country_code":"IT","latitude":"42.91548000","longitude":"12.39486000"},{"id":"137920","name":"Colombella","state_id":1683,"state_code":"55","country_id":107,"country_code":"IT","latitude":"43.15262000","longitude":"12.48239000"},{"id":"137999","name":"Corciano","state_id":1683,"state_code":"55","country_id":107,"country_code":"IT","latitude":"43.12821000","longitude":"12.28684000"},{"id":"138103","name":"Costacciaro","state_id":1683,"state_code":"55","country_id":107,"country_code":"IT","latitude":"43.35866000","longitude":"12.71262000"},{"id":"138104","name":"Costano","state_id":1683,"state_code":"55","country_id":107,"country_code":"IT","latitude":"43.04420000","longitude":"12.53410000"},{"id":"138252","name":"Deruta","state_id":1683,"state_code":"55","country_id":107,"country_code":"IT","latitude":"42.98465000","longitude":"12.41760000"},{"id":"138397","name":"Fabro","state_id":1683,"state_code":"55","country_id":107,"country_code":"IT","latitude":"42.87267000","longitude":"12.01540000"},{"id":"138398","name":"Fabro Scalo","state_id":1683,"state_code":"55","country_id":107,"country_code":"IT","latitude":"42.87605000","longitude":"12.04624000"},{"id":"138479","name":"Ferentillo","state_id":1683,"state_code":"55","country_id":107,"country_code":"IT","latitude":"42.62027000","longitude":"12.78726000"},{"id":"138506","name":"Ficulle","state_id":1683,"state_code":"55","country_id":107,"country_code":"IT","latitude":"42.83194000","longitude":"12.06801000"},{"id":"138582","name":"Foligno","state_id":1683,"state_code":"55","country_id":107,"country_code":"IT","latitude":"42.95488000","longitude":"12.70268000"},{"id":"138614","name":"Fontignano","state_id":1683,"state_code":"55","country_id":107,"country_code":"IT","latitude":"43.02436000","longitude":"12.19190000"},{"id":"138658","name":"Fornole","state_id":1683,"state_code":"55","country_id":107,"country_code":"IT","latitude":"42.54218000","longitude":"12.45576000"},{"id":"138677","name":"Fossato di Vico","state_id":1683,"state_code":"55","country_id":107,"country_code":"IT","latitude":"43.29644000","longitude":"12.76121000"},{"id":"138721","name":"Fratta Todina","state_id":1683,"state_code":"55","country_id":107,"country_code":"IT","latitude":"42.85684000","longitude":"12.36366000"},{"id":"138943","name":"Giano dell'Umbria","state_id":1683,"state_code":"55","country_id":107,"country_code":"IT","latitude":"42.83384000","longitude":"12.57777000"},{"id":"138976","name":"Giove","state_id":1683,"state_code":"55","country_id":107,"country_code":"IT","latitude":"42.50988000","longitude":"12.33015000"},{"id":"139146","name":"Gualdo Cattaneo","state_id":1683,"state_code":"55","country_id":107,"country_code":"IT","latitude":"42.91228000","longitude":"12.55666000"},{"id":"139147","name":"Gualdo Tadino","state_id":1683,"state_code":"55","country_id":107,"country_code":"IT","latitude":"43.22941000","longitude":"12.77862000"},{"id":"139158","name":"Guardea","state_id":1683,"state_code":"55","country_id":107,"country_code":"IT","latitude":"42.62370000","longitude":"12.29928000"},{"id":"139173","name":"Gubbio","state_id":1683,"state_code":"55","country_id":107,"country_code":"IT","latitude":"43.34996000","longitude":"12.57309000"},{"id":"139317","name":"Lacugnano","state_id":1683,"state_code":"55","country_id":107,"country_code":"IT","latitude":"43.09475000","longitude":"12.33150000"},{"id":"139539","name":"Lisciano Niccone","state_id":1683,"state_code":"55","country_id":107,"country_code":"IT","latitude":"43.24684000","longitude":"12.14305000"},{"id":"139647","name":"Lugnano in Teverina","state_id":1683,"state_code":"55","country_id":107,"country_code":"IT","latitude":"42.57592000","longitude":"12.33336000"},{"id":"139720","name":"Magione","state_id":1683,"state_code":"55","country_id":107,"country_code":"IT","latitude":"43.14179000","longitude":"12.21169000"},{"id":"139809","name":"Mantignana","state_id":1683,"state_code":"55","country_id":107,"country_code":"IT","latitude":"43.15992000","longitude":"12.28855000"},{"id":"139920","name":"Marsciano","state_id":1683,"state_code":"55","country_id":107,"country_code":"IT","latitude":"42.92093000","longitude":"12.35066000"},{"id":"139974","name":"Massa Martana","state_id":1683,"state_code":"55","country_id":107,"country_code":"IT","latitude":"42.77312000","longitude":"12.52579000"},{"id":"140028","name":"Meggiano","state_id":1683,"state_code":"55","country_id":107,"country_code":"IT","latitude":"42.75474000","longitude":"12.86379000"},{"id":"140354","name":"Monte Castello di Vibio","state_id":1683,"state_code":"55","country_id":107,"country_code":"IT","latitude":"42.84040000","longitude":"12.35240000"},{"id":"140359","name":"Monte Grimano","state_id":1683,"state_code":"55","country_id":107,"country_code":"IT","latitude":"43.46667000","longitude":"12.46667000"},{"id":"140380","name":"Monte Santa Maria Tiberina","state_id":1683,"state_code":"55","country_id":107,"country_code":"IT","latitude":"43.43688000","longitude":"12.16220000"},{"id":"140404","name":"Montecastrilli","state_id":1683,"state_code":"55","country_id":107,"country_code":"IT","latitude":"42.65087000","longitude":"12.48811000"},{"id":"140409","name":"Montecchio","state_id":1683,"state_code":"55","country_id":107,"country_code":"IT","latitude":"42.66234000","longitude":"12.28803000"},{"id":"140430","name":"Montefalco","state_id":1683,"state_code":"55","country_id":107,"country_code":"IT","latitude":"42.89084000","longitude":"12.64827000"},{"id":"140447","name":"Montefranco","state_id":1683,"state_code":"55","country_id":107,"country_code":"IT","latitude":"42.59835000","longitude":"12.76376000"},{"id":"140450","name":"Montegabbione","state_id":1683,"state_code":"55","country_id":107,"country_code":"IT","latitude":"42.91973000","longitude":"12.09212000"},{"id":"140469","name":"Monteleone d'Orvieto","state_id":1683,"state_code":"55","country_id":107,"country_code":"IT","latitude":"42.92171000","longitude":"12.05347000"},{"id":"140472","name":"Monteleone di Spoleto","state_id":1683,"state_code":"55","country_id":107,"country_code":"IT","latitude":"42.65046000","longitude":"12.95158000"},{"id":"140579","name":"Montone","state_id":1683,"state_code":"55","country_id":107,"country_code":"IT","latitude":"43.36078000","longitude":"12.32346000"},{"id":"140719","name":"Narni","state_id":1683,"state_code":"55","country_id":107,"country_code":"IT","latitude":"42.51956000","longitude":"12.52758000"},{"id":"140720","name":"Narni Scalo","state_id":1683,"state_code":"55","country_id":107,"country_code":"IT","latitude":"42.53620000","longitude":"12.51680000"},{"id":"140786","name":"Nocera Umbra","state_id":1683,"state_code":"55","country_id":107,"country_code":"IT","latitude":"43.11400000","longitude":"12.78925000"},{"id":"140807","name":"Norcia","state_id":1683,"state_code":"55","country_id":107,"country_code":"IT","latitude":"42.79105000","longitude":"13.09600000"},{"id":"140993","name":"Orvieto","state_id":1683,"state_code":"55","country_id":107,"country_code":"IT","latitude":"42.71924000","longitude":"12.11249000"},{"id":"140994","name":"Orvieto Scalo","state_id":1683,"state_code":"55","country_id":107,"country_code":"IT","latitude":"42.72088000","longitude":"12.13402000"},{"id":"141001","name":"Oscano","state_id":1683,"state_code":"55","country_id":107,"country_code":"IT","latitude":"43.15863000","longitude":"12.33776000"},{"id":"141021","name":"Ospedalicchio","state_id":1683,"state_code":"55","country_id":107,"country_code":"IT","latitude":"43.07812000","longitude":"12.50074000"},{"id":"141039","name":"Osteria del Gatto","state_id":1683,"state_code":"55","country_id":107,"country_code":"IT","latitude":"43.28504000","longitude":"12.74504000"},{"id":"141046","name":"Otricoli","state_id":1683,"state_code":"55","country_id":107,"country_code":"IT","latitude":"42.42079000","longitude":"12.47737000"},{"id":"141072","name":"Paciano","state_id":1683,"state_code":"55","country_id":107,"country_code":"IT","latitude":"43.02288000","longitude":"12.06788000"},{"id":"141089","name":"Padule-San Marco","state_id":1683,"state_code":"55","country_id":107,"country_code":"IT","latitude":"43.32880000","longitude":"12.60942000"},{"id":"58227","name":"Palazzo","state_id":1683,"state_code":"55","country_id":107,"country_code":"IT","latitude":"43.09708000","longitude":"12.56436000"},{"id":"58278","name":"Panicale","state_id":1683,"state_code":"55","country_id":107,"country_code":"IT","latitude":"43.02830000","longitude":"12.09993000"},{"id":"58283","name":"Pantalla","state_id":1683,"state_code":"55","country_id":107,"country_code":"IT","latitude":"42.87287000","longitude":"12.39861000"},{"id":"58314","name":"Parrano","state_id":1683,"state_code":"55","country_id":107,"country_code":"IT","latitude":"42.86624000","longitude":"12.11026000"},{"id":"58325","name":"Passaggio","state_id":1683,"state_code":"55","country_id":107,"country_code":"IT","latitude":"43.02239000","longitude":"12.50781000"},{"id":"58328","name":"Passignano sul Trasimeno","state_id":1683,"state_code":"55","country_id":107,"country_code":"IT","latitude":"43.19043000","longitude":"12.13535000"},{"id":"58404","name":"Penna in Teverina","state_id":1683,"state_code":"55","country_id":107,"country_code":"IT","latitude":"42.49342000","longitude":"12.35845000"},{"id":"58446","name":"Perugia","state_id":1683,"state_code":"55","country_id":107,"country_code":"IT","latitude":"43.11220000","longitude":"12.38878000"},{"id":"58482","name":"Petrignano","state_id":1683,"state_code":"55","country_id":107,"country_code":"IT","latitude":"43.10269000","longitude":"12.53239000"},{"id":"58595","name":"Piegaro","state_id":1683,"state_code":"55","country_id":107,"country_code":"IT","latitude":"42.96596000","longitude":"12.08409000"},{"id":"58615","name":"Pietralunga","state_id":1683,"state_code":"55","country_id":107,"country_code":"IT","latitude":"43.43609000","longitude":"12.42921000"},{"id":"58666","name":"Pila","state_id":1683,"state_code":"55","country_id":107,"country_code":"IT","latitude":"43.05329000","longitude":"12.32857000"},{"id":"58715","name":"Pistrino","state_id":1683,"state_code":"55","country_id":107,"country_code":"IT","latitude":"43.50966000","longitude":"12.15181000"},{"id":"58767","name":"Poggiodomo","state_id":1683,"state_code":"55","country_id":107,"country_code":"IT","latitude":"42.71237000","longitude":"12.93251000"},{"id":"58792","name":"Polino","state_id":1683,"state_code":"55","country_id":107,"country_code":"IT","latitude":"42.58423000","longitude":"12.84437000"},{"id":"58839","name":"Ponte Felcino","state_id":1683,"state_code":"55","country_id":107,"country_code":"IT","latitude":"43.13049000","longitude":"12.44914000"},{"id":"58845","name":"Ponte Pattoli","state_id":1683,"state_code":"55","country_id":107,"country_code":"IT","latitude":"43.17807000","longitude":"12.42842000"},{"id":"58877","name":"Ponterio-Pian di Porto","state_id":1683,"state_code":"55","country_id":107,"country_code":"IT","latitude":"42.80769000","longitude":"12.41024000"},{"id":"58902","name":"Porano","state_id":1683,"state_code":"55","country_id":107,"country_code":"IT","latitude":"42.68099000","longitude":"12.10331000"},{"id":"58990","name":"Pozzuolo","state_id":1683,"state_code":"55","country_id":107,"country_code":"IT","latitude":"43.12165000","longitude":"11.95599000"},{"id":"59042","name":"Preci","state_id":1683,"state_code":"55","country_id":107,"country_code":"IT","latitude":"42.88069000","longitude":"13.03747000"},{"id":"59158","name":"Provincia di Perugia","state_id":1683,"state_code":"55","country_id":107,"country_code":"IT","latitude":"43.05000000","longitude":"12.55000000"},{"id":"59180","name":"Provincia di Terni","state_id":1683,"state_code":"55","country_id":107,"country_code":"IT","latitude":"42.68333000","longitude":"12.31667000"},{"id":"59444","name":"Rivotorto","state_id":1683,"state_code":"55","country_id":107,"country_code":"IT","latitude":"43.04406000","longitude":"12.62069000"},{"id":"59931","name":"San Gemini","state_id":1683,"state_code":"55","country_id":107,"country_code":"IT","latitude":"42.61378000","longitude":"12.54528000"},{"id":"59940","name":"San Giacomo","state_id":1683,"state_code":"55","country_id":107,"country_code":"IT","latitude":"42.79387000","longitude":"12.75243000"},{"id":"60015","name":"San Giustino","state_id":1683,"state_code":"55","country_id":107,"country_code":"IT","latitude":"43.54660000","longitude":"12.17528000"},{"id":"60090","name":"San Martino in Campo","state_id":1683,"state_code":"55","country_id":107,"country_code":"IT","latitude":"43.03608000","longitude":"12.40265000"},{"id":"60096","name":"San Martino in Trignano","state_id":1683,"state_code":"55","country_id":107,"country_code":"IT","latitude":"42.74125000","longitude":"12.66836000"},{"id":"60133","name":"San Niccol\u00f2 di Celle","state_id":1683,"state_code":"55","country_id":107,"country_code":"IT","latitude":"43.01667000","longitude":"12.38333000"},{"id":"60239","name":"San Secondo","state_id":1683,"state_code":"55","country_id":107,"country_code":"IT","latitude":"43.40468000","longitude":"12.23389000"},{"id":"60254","name":"San Terenziano","state_id":1683,"state_code":"55","country_id":107,"country_code":"IT","latitude":"42.86731000","longitude":"12.47319000"},{"id":"60261","name":"San Venanzo","state_id":1683,"state_code":"55","country_id":107,"country_code":"IT","latitude":"42.86886000","longitude":"12.26853000"},{"id":"60341","name":"Sant'Anatolia di Narco","state_id":1683,"state_code":"55","country_id":107,"country_code":"IT","latitude":"42.73319000","longitude":"12.83576000"},{"id":"60471","name":"Santa Maria degli Angeli","state_id":1683,"state_code":"55","country_id":107,"country_code":"IT","latitude":"43.05691000","longitude":"12.57497000"},{"id":"60641","name":"Scheggia","state_id":1683,"state_code":"55","country_id":107,"country_code":"IT","latitude":"43.40364000","longitude":"12.66584000"},{"id":"60642","name":"Scheggino","state_id":1683,"state_code":"55","country_id":107,"country_code":"IT","latitude":"42.71304000","longitude":"12.83007000"},{"id":"60696","name":"Selci-Lama","state_id":1683,"state_code":"55","country_id":107,"country_code":"IT","latitude":"43.51719000","longitude":"12.21293000"},{"id":"60699","name":"Sellano","state_id":1683,"state_code":"55","country_id":107,"country_code":"IT","latitude":"42.88735000","longitude":"12.92311000"},{"id":"60716","name":"Semonte-Casamorcia","state_id":1683,"state_code":"55","country_id":107,"country_code":"IT","latitude":"43.36826000","longitude":"12.53064000"},{"id":"60828","name":"Sferracavallo","state_id":1683,"state_code":"55","country_id":107,"country_code":"IT","latitude":"42.72631000","longitude":"12.09569000"},{"id":"60845","name":"Sigillo","state_id":1683,"state_code":"55","country_id":107,"country_code":"IT","latitude":"43.33111000","longitude":"12.74059000"},{"id":"60995","name":"Spello","state_id":1683,"state_code":"55","country_id":107,"country_code":"IT","latitude":"42.99231000","longitude":"12.66632000"},{"id":"61026","name":"Spoleto","state_id":1683,"state_code":"55","country_id":107,"country_code":"IT","latitude":"42.74071000","longitude":"12.73899000"},{"id":"61055","name":"Stazione di Allerona","state_id":1683,"state_code":"55","country_id":107,"country_code":"IT","latitude":"42.78550000","longitude":"12.03726000"},{"id":"61056","name":"Stazione di Padule","state_id":1683,"state_code":"55","country_id":107,"country_code":"IT","latitude":"43.30766000","longitude":"12.61557000"},{"id":"61098","name":"Stroncone","state_id":1683,"state_code":"55","country_id":107,"country_code":"IT","latitude":"42.51196000","longitude":"12.64770000"},{"id":"61187","name":"Tavernelle","state_id":1683,"state_code":"55","country_id":107,"country_code":"IT","latitude":"43.00333000","longitude":"12.14520000"},{"id":"61232","name":"Terni","state_id":1683,"state_code":"55","country_id":107,"country_code":"IT","latitude":"42.56335000","longitude":"12.64329000"},{"id":"61295","name":"Todi","state_id":1683,"state_code":"55","country_id":107,"country_code":"IT","latitude":"42.77881000","longitude":"12.41202000"},{"id":"61327","name":"Torgiano","state_id":1683,"state_code":"55","country_id":107,"country_code":"IT","latitude":"43.02761000","longitude":"12.44015000"},{"id":"61499","name":"Trestina","state_id":1683,"state_code":"55","country_id":107,"country_code":"IT","latitude":"43.36597000","longitude":"12.23701000"},{"id":"61501","name":"Trevi","state_id":1683,"state_code":"55","country_id":107,"country_code":"IT","latitude":"42.87769000","longitude":"12.74938000"},{"id":"61569","name":"Tuoro sul Trasimeno","state_id":1683,"state_code":"55","country_id":107,"country_code":"IT","latitude":"43.20654000","longitude":"12.07465000"},{"id":"61597","name":"Umbertide","state_id":1683,"state_code":"55","country_id":107,"country_code":"IT","latitude":"43.30341000","longitude":"12.33749000"},{"id":"61668","name":"Valfabbrica","state_id":1683,"state_code":"55","country_id":107,"country_code":"IT","latitude":"43.15784000","longitude":"12.60202000"},{"id":"61742","name":"Valtopina","state_id":1683,"state_code":"55","country_id":107,"country_code":"IT","latitude":"43.05674000","longitude":"12.75307000"},{"id":"61898","name":"Via Lippia","state_id":1683,"state_code":"55","country_id":107,"country_code":"IT","latitude":"43.08611000","longitude":"12.48106000"}]