[{"id":"135338","name":"Ala","state_id":1725,"state_code":"32","country_id":107,"country_code":"IT","latitude":"45.76072000","longitude":"11.00458000"},{"id":"135370","name":"Albiano","state_id":1725,"state_code":"32","country_id":107,"country_code":"IT","latitude":"46.14451000","longitude":"11.19459000"},{"id":"135391","name":"Aldeno","state_id":1725,"state_code":"32","country_id":107,"country_code":"IT","latitude":"45.97758000","longitude":"11.09276000"},{"id":"135392","name":"Aldino","state_id":1725,"state_code":"32","country_id":107,"country_code":"IT","latitude":"46.36581000","longitude":"11.35508000"},{"id":"135465","name":"Amblar","state_id":1725,"state_code":"32","country_id":107,"country_code":"IT","latitude":"46.39541000","longitude":"11.14677000"},{"id":"135481","name":"Andalo","state_id":1725,"state_code":"32","country_id":107,"country_code":"IT","latitude":"46.16649000","longitude":"11.00432000"},{"id":"135492","name":"Andriano","state_id":1725,"state_code":"32","country_id":107,"country_code":"IT","latitude":"46.51762000","longitude":"11.23137000"},{"id":"135514","name":"Anterivo","state_id":1725,"state_code":"32","country_id":107,"country_code":"IT","latitude":"46.27810000","longitude":"11.36665000"},{"id":"135570","name":"Arco","state_id":1725,"state_code":"32","country_id":107,"country_code":"IT","latitude":"45.91772000","longitude":"10.88672000"},{"id":"135698","name":"Avelengo","state_id":1725,"state_code":"32","country_id":107,"country_code":"IT","latitude":"46.64557000","longitude":"11.22419000"},{"id":"135711","name":"Avio","state_id":1725,"state_code":"32","country_id":107,"country_code":"IT","latitude":"45.73396000","longitude":"10.93938000"},{"id":"135734","name":"Badia","state_id":1725,"state_code":"32","country_id":107,"country_code":"IT","latitude":"46.60816000","longitude":"11.89630000"},{"id":"135831","name":"Barbiano - Barbian","state_id":1725,"state_code":"32","country_id":107,"country_code":"IT","latitude":"46.60332000","longitude":"11.52138000"},{"id":"135882","name":"Baselga di Pin\u00e8","state_id":1725,"state_code":"32","country_id":107,"country_code":"IT","latitude":"46.13250000","longitude":"11.24648000"},{"id":"135999","name":"Bersone","state_id":1725,"state_code":"32","country_id":107,"country_code":"IT","latitude":"45.94440000","longitude":"10.63317000"},{"id":"136013","name":"Besenello","state_id":1725,"state_code":"32","country_id":107,"country_code":"IT","latitude":"45.94356000","longitude":"11.10908000"},{"id":"136048","name":"Bieno","state_id":1725,"state_code":"32","country_id":107,"country_code":"IT","latitude":"46.08151000","longitude":"11.55609000"},{"id":"136078","name":"Bleggio Superiore","state_id":1725,"state_code":"32","country_id":107,"country_code":"IT","latitude":"46.02480000","longitude":"10.83837000"},{"id":"136091","name":"Bocenago","state_id":1725,"state_code":"32","country_id":107,"country_code":"IT","latitude":"46.11858000","longitude":"10.75884000"},{"id":"136102","name":"Bolbeno","state_id":1725,"state_code":"32","country_id":107,"country_code":"IT","latitude":"46.03260000","longitude":"10.73787000"},{"id":"136109","name":"Bolognano-Vignole","state_id":1725,"state_code":"32","country_id":107,"country_code":"IT","latitude":"45.91196000","longitude":"10.90497000"},{"id":"136115","name":"Bolzano","state_id":1725,"state_code":"32","country_id":107,"country_code":"IT","latitude":"46.71667000","longitude":"11.50000000"},{"id":"136132","name":"Bondo","state_id":1725,"state_code":"32","country_id":107,"country_code":"IT","latitude":"46.00030000","longitude":"10.69197000"},{"id":"136133","name":"Bondone","state_id":1725,"state_code":"32","country_id":107,"country_code":"IT","latitude":"45.80649000","longitude":"10.55027000"},{"id":"136194","name":"Borgo Valsugana","state_id":1725,"state_code":"32","country_id":107,"country_code":"IT","latitude":"46.05119000","longitude":"11.45756000"},{"id":"136249","name":"Bosentino-Migazzone","state_id":1725,"state_code":"32","country_id":107,"country_code":"IT","latitude":"46.00180000","longitude":"11.22318000"},{"id":"136284","name":"Braies","state_id":1725,"state_code":"32","country_id":107,"country_code":"IT","latitude":"46.72023000","longitude":"12.13339000"},{"id":"136296","name":"Breguzzo","state_id":1725,"state_code":"32","country_id":107,"country_code":"IT","latitude":"46.00679000","longitude":"10.69761000"},{"id":"136305","name":"Brennero - Brenner","state_id":1725,"state_code":"32","country_id":107,"country_code":"IT","latitude":"46.93813000","longitude":"11.44247000"},{"id":"136310","name":"Brentonico","state_id":1725,"state_code":"32","country_id":107,"country_code":"IT","latitude":"45.81910000","longitude":"10.95508000"},{"id":"136315","name":"Bresimo","state_id":1725,"state_code":"32","country_id":107,"country_code":"IT","latitude":"46.41181000","longitude":"10.96817000"},{"id":"136318","name":"Bressanone","state_id":1725,"state_code":"32","country_id":107,"country_code":"IT","latitude":"46.71503000","longitude":"11.65598000"},{"id":"136321","name":"Brez","state_id":1725,"state_code":"32","country_id":107,"country_code":"IT","latitude":"46.43220000","longitude":"11.10578000"},{"id":"136339","name":"Brione","state_id":1725,"state_code":"32","country_id":107,"country_code":"IT","latitude":"45.89488000","longitude":"10.58975000"},{"id":"136354","name":"Bronzolo","state_id":1725,"state_code":"32","country_id":107,"country_code":"IT","latitude":"46.40346000","longitude":"11.32078000"},{"id":"136371","name":"Brunico","state_id":1725,"state_code":"32","country_id":107,"country_code":"IT","latitude":"46.79942000","longitude":"11.93429000"},{"id":"136457","name":"Caderzone Terme","state_id":1725,"state_code":"32","country_id":107,"country_code":"IT","latitude":"46.12945000","longitude":"10.75619000"},{"id":"136458","name":"Cadine","state_id":1725,"state_code":"32","country_id":107,"country_code":"IT","latitude":"46.08960000","longitude":"11.06847000"},{"id":"136459","name":"Cadipietra","state_id":1725,"state_code":"32","country_id":107,"country_code":"IT","latitude":"46.99576000","longitude":"11.98026000"},{"id":"136473","name":"Cagn\u00f2","state_id":1725,"state_code":"32","country_id":107,"country_code":"IT","latitude":"46.39431000","longitude":"11.04117000"},{"id":"136476","name":"Caines","state_id":1725,"state_code":"32","country_id":107,"country_code":"IT","latitude":"46.69794000","longitude":"11.17122000"},{"id":"136477","name":"Caines - Kuens","state_id":1725,"state_code":"32","country_id":107,"country_code":"IT","latitude":"46.70002000","longitude":"11.16987000"},{"id":"136498","name":"Calavino","state_id":1725,"state_code":"32","country_id":107,"country_code":"IT","latitude":"46.04606000","longitude":"10.98402000"},{"id":"136501","name":"Calceranica al Lago","state_id":1725,"state_code":"32","country_id":107,"country_code":"IT","latitude":"46.00460000","longitude":"11.24368000"},{"id":"136511","name":"Caldaro sulla Strada del Vino","state_id":1725,"state_code":"32","country_id":107,"country_code":"IT","latitude":"46.41326000","longitude":"11.24616000"},{"id":"136515","name":"Caldes","state_id":1725,"state_code":"32","country_id":107,"country_code":"IT","latitude":"46.36686000","longitude":"10.94037000"},{"id":"136520","name":"Caldonazzo","state_id":1725,"state_code":"32","country_id":107,"country_code":"IT","latitude":"45.99367000","longitude":"11.26426000"},{"id":"136533","name":"Calliano","state_id":1725,"state_code":"32","country_id":107,"country_code":"IT","latitude":"45.93299000","longitude":"11.09503000"},{"id":"136624","name":"Campitello di Fassa","state_id":1725,"state_code":"32","country_id":107,"country_code":"IT","latitude":"46.47579000","longitude":"11.74110000"},{"id":"136636","name":"Campo di Trens","state_id":1725,"state_code":"32","country_id":107,"country_code":"IT","latitude":"46.87412000","longitude":"11.48605000"},{"id":"136633","name":"Campo Tures","state_id":1725,"state_code":"32","country_id":107,"country_code":"IT","latitude":"46.90844000","longitude":"11.96036000"},{"id":"136645","name":"Campodenno","state_id":1725,"state_code":"32","country_id":107,"country_code":"IT","latitude":"46.25791000","longitude":"11.03317000"},{"id":"136686","name":"Canal San Bovo","state_id":1725,"state_code":"32","country_id":107,"country_code":"IT","latitude":"46.15667000","longitude":"11.72998000"},{"id":"136693","name":"Canazei","state_id":1725,"state_code":"32","country_id":107,"country_code":"IT","latitude":"46.47627000","longitude":"11.76929000"},{"id":"136811","name":"Capriana","state_id":1725,"state_code":"32","country_id":107,"country_code":"IT","latitude":"46.26281000","longitude":"11.33801000"},{"id":"136833","name":"Carano","state_id":1725,"state_code":"32","country_id":107,"country_code":"IT","latitude":"46.29151000","longitude":"11.43978000"},{"id":"136857","name":"Cardano","state_id":1725,"state_code":"32","country_id":107,"country_code":"IT","latitude":"46.49336000","longitude":"11.39295000"},{"id":"136883","name":"Carisolo","state_id":1725,"state_code":"32","country_id":107,"country_code":"IT","latitude":"46.16880000","longitude":"10.75887000"},{"id":"136948","name":"Carzano","state_id":1725,"state_code":"32","country_id":107,"country_code":"IT","latitude":"46.07091000","longitude":"11.49379000"},{"id":"137135","name":"Castel Condino","state_id":1725,"state_code":"32","country_id":107,"country_code":"IT","latitude":"45.91439000","longitude":"10.60277000"},{"id":"137179","name":"Castelbello","state_id":1725,"state_code":"32","country_id":107,"country_code":"IT","latitude":"46.62885000","longitude":"10.90719000"},{"id":"137180","name":"Castelbello-Ciardes - Kastelbell-Tschars","state_id":1725,"state_code":"32","country_id":107,"country_code":"IT","latitude":"46.62832000","longitude":"10.90666000"},{"id":"137194","name":"Castelfondo","state_id":1725,"state_code":"32","country_id":107,"country_code":"IT","latitude":"46.45623000","longitude":"11.11785000"},{"id":"137253","name":"Castello Molina di Fiemme","state_id":1725,"state_code":"32","country_id":107,"country_code":"IT","latitude":"46.28241000","longitude":"11.43348000"},{"id":"137254","name":"Castello Tesino","state_id":1725,"state_code":"32","country_id":107,"country_code":"IT","latitude":"46.06302000","longitude":"11.63247000"},{"id":"137281","name":"Castelnuovo","state_id":1725,"state_code":"32","country_id":107,"country_code":"IT","latitude":"46.05412000","longitude":"11.48916000"},{"id":"137311","name":"Castelrotto","state_id":1725,"state_code":"32","country_id":107,"country_code":"IT","latitude":"46.56662000","longitude":"11.56098000"},{"id":"137413","name":"Cavalese","state_id":1725,"state_code":"32","country_id":107,"country_code":"IT","latitude":"46.29048000","longitude":"11.45862000"},{"id":"137421","name":"Cavareno","state_id":1725,"state_code":"32","country_id":107,"country_code":"IT","latitude":"46.40780000","longitude":"11.13934000"},{"id":"137431","name":"Cavedago","state_id":1725,"state_code":"32","country_id":107,"country_code":"IT","latitude":"46.18486000","longitude":"11.03277000"},{"id":"137432","name":"Cavedine","state_id":1725,"state_code":"32","country_id":107,"country_code":"IT","latitude":"45.99520000","longitude":"10.97358000"},{"id":"137438","name":"Cavizzana","state_id":1725,"state_code":"32","country_id":107,"country_code":"IT","latitude":"46.36721000","longitude":"10.95817000"},{"id":"137484","name":"Cembra","state_id":1725,"state_code":"32","country_id":107,"country_code":"IT","latitude":"46.17489000","longitude":"11.22174000"},{"id":"137494","name":"Centa San Nicol\u00f2","state_id":1725,"state_code":"32","country_id":107,"country_code":"IT","latitude":"45.96930000","longitude":"11.23238000"},{"id":"137502","name":"Centrale","state_id":1725,"state_code":"32","country_id":107,"country_code":"IT","latitude":"46.16118000","longitude":"11.30293000"},{"id":"137554","name":"Cermes","state_id":1725,"state_code":"32","country_id":107,"country_code":"IT","latitude":"46.63277000","longitude":"11.14696000"},{"id":"137579","name":"Certosa","state_id":1725,"state_code":"32","country_id":107,"country_code":"IT","latitude":"46.70450000","longitude":"10.91088000"},{"id":"137662","name":"Chienes","state_id":1725,"state_code":"32","country_id":107,"country_code":"IT","latitude":"46.80680000","longitude":"11.84002000"},{"id":"137686","name":"Chiusa","state_id":1725,"state_code":"32","country_id":107,"country_code":"IT","latitude":"46.64001000","longitude":"11.56573000"},{"id":"137723","name":"Cimego","state_id":1725,"state_code":"32","country_id":107,"country_code":"IT","latitude":"45.91190000","longitude":"10.61337000"},{"id":"137728","name":"Cimoneri","state_id":1725,"state_code":"32","country_id":107,"country_code":"IT","latitude":"45.98426000","longitude":"11.07155000"},{"id":"137739","name":"Cinte Tesino","state_id":1725,"state_code":"32","country_id":107,"country_code":"IT","latitude":"46.05726000","longitude":"11.61435000"},{"id":"137752","name":"Cis","state_id":1725,"state_code":"32","country_id":107,"country_code":"IT","latitude":"46.39841000","longitude":"11.00327000"},{"id":"137780","name":"Civezzano","state_id":1725,"state_code":"32","country_id":107,"country_code":"IT","latitude":"46.09133000","longitude":"11.18468000"},{"id":"137811","name":"Cles","state_id":1725,"state_code":"32","country_id":107,"country_code":"IT","latitude":"46.36294000","longitude":"11.03276000"},{"id":"137815","name":"Cloz","state_id":1725,"state_code":"32","country_id":107,"country_code":"IT","latitude":"46.41620000","longitude":"11.08589000"},{"id":"137844","name":"Cogolo","state_id":1725,"state_code":"32","country_id":107,"country_code":"IT","latitude":"46.35252000","longitude":"10.69282000"},{"id":"137855","name":"Collalbo","state_id":1725,"state_code":"32","country_id":107,"country_code":"IT","latitude":"46.53988000","longitude":"11.45933000"},{"id":"137861","name":"Colle Isarco","state_id":1725,"state_code":"32","country_id":107,"country_code":"IT","latitude":"46.93857000","longitude":"11.44245000"},{"id":"137946","name":"Commezzadura","state_id":1725,"state_code":"32","country_id":107,"country_code":"IT","latitude":"46.32171000","longitude":"10.83957000"},{"id":"137962","name":"Condino","state_id":1725,"state_code":"32","country_id":107,"country_code":"IT","latitude":"45.88167000","longitude":"10.59366000"},{"id":"138004","name":"Coredo","state_id":1725,"state_code":"32","country_id":107,"country_code":"IT","latitude":"46.34906000","longitude":"11.09001000"},{"id":"138023","name":"Cornaiano","state_id":1725,"state_code":"32","country_id":107,"country_code":"IT","latitude":"46.46329000","longitude":"11.28115000"},{"id":"138028","name":"Cornedo All'Isarco","state_id":1725,"state_code":"32","country_id":107,"country_code":"IT","latitude":"46.48990000","longitude":"11.40647000"},{"id":"138050","name":"Cortaccia sulla Strada del Vino","state_id":1725,"state_code":"32","country_id":107,"country_code":"IT","latitude":"46.31401000","longitude":"11.22388000"},{"id":"138068","name":"Cortina sulla Strada del Vino","state_id":1725,"state_code":"32","country_id":107,"country_code":"IT","latitude":"46.26941000","longitude":"11.22188000"},{"id":"138073","name":"Corvara in Badia","state_id":1725,"state_code":"32","country_id":107,"country_code":"IT","latitude":"46.55037000","longitude":"11.87342000"},{"id":"138116","name":"Covelo","state_id":1725,"state_code":"32","country_id":107,"country_code":"IT","latitude":"45.97919000","longitude":"11.06971000"},{"id":"138149","name":"Creto","state_id":1725,"state_code":"32","country_id":107,"country_code":"IT","latitude":"45.94110000","longitude":"10.64027000"},{"id":"138173","name":"Croviana","state_id":1725,"state_code":"32","country_id":107,"country_code":"IT","latitude":"46.34480000","longitude":"10.90313000"},{"id":"138192","name":"Cunevo","state_id":1725,"state_code":"32","country_id":107,"country_code":"IT","latitude":"46.28641000","longitude":"11.03457000"},{"id":"138205","name":"Curon Venosta","state_id":1725,"state_code":"32","country_id":107,"country_code":"IT","latitude":"46.80832000","longitude":"10.54265000"},{"id":"138223","name":"Daiano","state_id":1725,"state_code":"32","country_id":107,"country_code":"IT","latitude":"46.30161000","longitude":"11.44908000"},{"id":"138226","name":"Dambel","state_id":1725,"state_code":"32","country_id":107,"country_code":"IT","latitude":"46.40471000","longitude":"11.09307000"},{"id":"138228","name":"Daone","state_id":1725,"state_code":"32","country_id":107,"country_code":"IT","latitude":"45.94720000","longitude":"10.62107000"},{"id":"138248","name":"Denno","state_id":1725,"state_code":"32","country_id":107,"country_code":"IT","latitude":"46.27424000","longitude":"11.04913000"},{"id":"138267","name":"Dimaro","state_id":1725,"state_code":"32","country_id":107,"country_code":"IT","latitude":"46.32573000","longitude":"10.87342000"},{"id":"138273","name":"Dobbiaco","state_id":1725,"state_code":"32","country_id":107,"country_code":"IT","latitude":"46.72878000","longitude":"12.22225000"},{"id":"138295","name":"Don","state_id":1725,"state_code":"32","country_id":107,"country_code":"IT","latitude":"46.38931000","longitude":"11.13647000"},{"id":"138311","name":"Dorsino","state_id":1725,"state_code":"32","country_id":107,"country_code":"IT","latitude":"46.07270000","longitude":"10.89737000"},{"id":"138328","name":"Drena","state_id":1725,"state_code":"32","country_id":107,"country_code":"IT","latitude":"45.96926000","longitude":"10.94540000"},{"id":"138331","name":"Dro","state_id":1725,"state_code":"32","country_id":107,"country_code":"IT","latitude":"45.96121000","longitude":"10.91201000"},{"id":"138350","name":"Egna","state_id":1725,"state_code":"32","country_id":107,"country_code":"IT","latitude":"46.31777000","longitude":"11.27337000"},{"id":"138400","name":"Faedo","state_id":1725,"state_code":"32","country_id":107,"country_code":"IT","latitude":"46.19241000","longitude":"11.16128000"},{"id":"138410","name":"Fai della Paganella","state_id":1725,"state_code":"32","country_id":107,"country_code":"IT","latitude":"46.17801000","longitude":"11.06950000"},{"id":"138426","name":"Falzes","state_id":1725,"state_code":"32","country_id":107,"country_code":"IT","latitude":"46.81359000","longitude":"11.88308000"},{"id":"138461","name":"Faver","state_id":1725,"state_code":"32","country_id":107,"country_code":"IT","latitude":"46.18131000","longitude":"11.23728000"},{"id":"138502","name":"Fiav\u00e8","state_id":1725,"state_code":"32","country_id":107,"country_code":"IT","latitude":"46.00457000","longitude":"10.84225000"},{"id":"138558","name":"Fi\u00e8 Allo Sciliar","state_id":1725,"state_code":"32","country_id":107,"country_code":"IT","latitude":"46.51672000","longitude":"11.50128000"},{"id":"138508","name":"Fiera di Primiero","state_id":1725,"state_code":"32","country_id":107,"country_code":"IT","latitude":"46.17621000","longitude":"11.82879000"},{"id":"138509","name":"Fierozzo","state_id":1725,"state_code":"32","country_id":107,"country_code":"IT","latitude":"46.11131000","longitude":"11.31848000"},{"id":"138560","name":"Flavon","state_id":1725,"state_code":"32","country_id":107,"country_code":"IT","latitude":"46.29809000","longitude":"11.02993000"},{"id":"138580","name":"Folgaria","state_id":1725,"state_code":"32","country_id":107,"country_code":"IT","latitude":"45.91543000","longitude":"11.16820000"},{"id":"138589","name":"Fondo","state_id":1725,"state_code":"32","country_id":107,"country_code":"IT","latitude":"46.43880000","longitude":"11.13723000"},{"id":"138592","name":"Fontana Nuova-Bevia","state_id":1725,"state_code":"32","country_id":107,"country_code":"IT","latitude":"46.41159000","longitude":"10.96843000"},{"id":"138643","name":"Fornace","state_id":1725,"state_code":"32","country_id":107,"country_code":"IT","latitude":"46.11805000","longitude":"11.20751000"},{"id":"138662","name":"Fortezza","state_id":1725,"state_code":"32","country_id":107,"country_code":"IT","latitude":"46.78963000","longitude":"11.60998000"},{"id":"138710","name":"Frassilongo","state_id":1725,"state_code":"32","country_id":107,"country_code":"IT","latitude":"46.08991000","longitude":"11.29718000"},{"id":"138725","name":"Fraviano","state_id":1725,"state_code":"32","country_id":107,"country_code":"IT","latitude":"46.29691000","longitude":"10.69197000"},{"id":"138751","name":"Funes - Villnoess","state_id":1725,"state_code":"32","country_id":107,"country_code":"IT","latitude":"46.64282000","longitude":"11.67828000"},{"id":"138793","name":"Gais","state_id":1725,"state_code":"32","country_id":107,"country_code":"IT","latitude":"46.83658000","longitude":"11.94931000"},{"id":"138836","name":"Ganda","state_id":1725,"state_code":"32","country_id":107,"country_code":"IT","latitude":"46.55459000","longitude":"10.78042000"},{"id":"138855","name":"Gargazzone","state_id":1725,"state_code":"32","country_id":107,"country_code":"IT","latitude":"46.58456000","longitude":"11.20156000"},{"id":"138861","name":"Garniga Nuova","state_id":1725,"state_code":"32","country_id":107,"country_code":"IT","latitude":"46.00310000","longitude":"11.08738000"},{"id":"138974","name":"Gionghi-Cappella","state_id":1725,"state_code":"32","country_id":107,"country_code":"IT","latitude":"45.93680000","longitude":"11.27478000"},{"id":"138980","name":"Giovo","state_id":1725,"state_code":"32","country_id":107,"country_code":"IT","latitude":"46.15581000","longitude":"11.15278000"},{"id":"139000","name":"Giustino","state_id":1725,"state_code":"32","country_id":107,"country_code":"IT","latitude":"46.15130000","longitude":"10.76777000"},{"id":"139005","name":"Glorenza","state_id":1725,"state_code":"32","country_id":107,"country_code":"IT","latitude":"46.67105000","longitude":"10.55684000"},{"id":"139077","name":"Grauno","state_id":1725,"state_code":"32","country_id":107,"country_code":"IT","latitude":"46.23032000","longitude":"11.29847000"},{"id":"139100","name":"Grigno","state_id":1725,"state_code":"32","country_id":107,"country_code":"IT","latitude":"46.01569000","longitude":"11.63563000"},{"id":"139138","name":"Grumes","state_id":1725,"state_code":"32","country_id":107,"country_code":"IT","latitude":"46.22117000","longitude":"11.29346000"},{"id":"139198","name":"Imer","state_id":1725,"state_code":"32","country_id":107,"country_code":"IT","latitude":"46.14931000","longitude":"11.78919000"},{"id":"139232","name":"Isera","state_id":1725,"state_code":"32","country_id":107,"country_code":"IT","latitude":"45.88760000","longitude":"11.00918000"},{"id":"139307","name":"La Valle - Wengen","state_id":1725,"state_code":"32","country_id":107,"country_code":"IT","latitude":"46.65763000","longitude":"11.92399000"},{"id":"139315","name":"Laces","state_id":1725,"state_code":"32","country_id":107,"country_code":"IT","latitude":"46.61641000","longitude":"10.85726000"},{"id":"139321","name":"Laghetti","state_id":1725,"state_code":"32","country_id":107,"country_code":"IT","latitude":"46.27473000","longitude":"11.24011000"},{"id":"139329","name":"Lagundo","state_id":1725,"state_code":"32","country_id":107,"country_code":"IT","latitude":"46.68113000","longitude":"11.12572000"},{"id":"139335","name":"Laion","state_id":1725,"state_code":"32","country_id":107,"country_code":"IT","latitude":"46.60809000","longitude":"11.56559000"},{"id":"139336","name":"Laives","state_id":1725,"state_code":"32","country_id":107,"country_code":"IT","latitude":"46.42679000","longitude":"11.33841000"},{"id":"139352","name":"Lana","state_id":1725,"state_code":"32","country_id":107,"country_code":"IT","latitude":"46.61209000","longitude":"11.15653000"},{"id":"139371","name":"Lardaro","state_id":1725,"state_code":"32","country_id":107,"country_code":"IT","latitude":"45.96946000","longitude":"10.66126000"},{"id":"139378","name":"Lasa","state_id":1725,"state_code":"32","country_id":107,"country_code":"IT","latitude":"46.61783000","longitude":"10.69777000"},{"id":"139380","name":"Lases","state_id":1725,"state_code":"32","country_id":107,"country_code":"IT","latitude":"46.14560000","longitude":"11.21932000"},{"id":"139381","name":"Lasino","state_id":1725,"state_code":"32","country_id":107,"country_code":"IT","latitude":"46.02420000","longitude":"10.98357000"},{"id":"139399","name":"Lauregno","state_id":1725,"state_code":"32","country_id":107,"country_code":"IT","latitude":"46.45431000","longitude":"11.06177000"},{"id":"139418","name":"Lavis","state_id":1725,"state_code":"32","country_id":107,"country_code":"IT","latitude":"46.14131000","longitude":"11.10931000"},{"id":"139455","name":"Leone-Santa Elisabetta","state_id":1725,"state_code":"32","country_id":107,"country_code":"IT","latitude":"46.73166000","longitude":"11.64944000"},{"id":"139488","name":"Levico Terme","state_id":1725,"state_code":"32","country_id":107,"country_code":"IT","latitude":"46.01217000","longitude":"11.30427000"},{"id":"139541","name":"Lisignago","state_id":1725,"state_code":"32","country_id":107,"country_code":"IT","latitude":"46.16061000","longitude":"11.18768000"},{"id":"139549","name":"Livo","state_id":1725,"state_code":"32","country_id":107,"country_code":"IT","latitude":"46.40471000","longitude":"11.01927000"},{"id":"139573","name":"Lodrone-Darzo","state_id":1725,"state_code":"32","country_id":107,"country_code":"IT","latitude":"45.82962000","longitude":"10.53560000"},{"id":"139583","name":"Lona-Lases","state_id":1725,"state_code":"32","country_id":107,"country_code":"IT","latitude":"46.14421000","longitude":"11.21958000"},{"id":"139671","name":"Luserna","state_id":1725,"state_code":"32","country_id":107,"country_code":"IT","latitude":"45.92260000","longitude":"11.32289000"},{"id":"139678","name":"Luson - Luesen","state_id":1725,"state_code":"32","country_id":107,"country_code":"IT","latitude":"46.74623000","longitude":"11.76098000"},{"id":"139712","name":"Madrano-Canzolino","state_id":1725,"state_code":"32","country_id":107,"country_code":"IT","latitude":"46.08440000","longitude":"11.21736000"},{"id":"139743","name":"Magr\u00e8 sulla Strada del Vino","state_id":1725,"state_code":"32","country_id":107,"country_code":"IT","latitude":"46.28791000","longitude":"11.21068000"},{"id":"139779","name":"Mal\u00e8","state_id":1725,"state_code":"32","country_id":107,"country_code":"IT","latitude":"46.35356000","longitude":"10.91246000"},{"id":"139769","name":"Malles Venosta","state_id":1725,"state_code":"32","country_id":107,"country_code":"IT","latitude":"46.68791000","longitude":"10.54655000"},{"id":"139774","name":"Malosco","state_id":1725,"state_code":"32","country_id":107,"country_code":"IT","latitude":"46.43611000","longitude":"11.14627000"},{"id":"139852","name":"Marco","state_id":1725,"state_code":"32","country_id":107,"country_code":"IT","latitude":"45.84258000","longitude":"11.00925000"},{"id":"139903","name":"Marlengo","state_id":1725,"state_code":"32","country_id":107,"country_code":"IT","latitude":"46.65262000","longitude":"11.14546000"},{"id":"139987","name":"Massimeno","state_id":1725,"state_code":"32","country_id":107,"country_code":"IT","latitude":"46.14070000","longitude":"10.77317000"},{"id":"139999","name":"Mattarello","state_id":1725,"state_code":"32","country_id":107,"country_code":"IT","latitude":"46.00865000","longitude":"11.12984000"},{"id":"140011","name":"Mazzin","state_id":1725,"state_code":"32","country_id":107,"country_code":"IT","latitude":"46.45742000","longitude":"11.70018000"},{"id":"140709","name":"M\u00fchlen in Taufers","state_id":1725,"state_code":"32","country_id":107,"country_code":"IT","latitude":"46.89926000","longitude":"11.94317000"},{"id":"140015","name":"Meano","state_id":1725,"state_code":"32","country_id":107,"country_code":"IT","latitude":"46.12457000","longitude":"11.11761000"},{"id":"140031","name":"Meiern","state_id":1725,"state_code":"32","country_id":107,"country_code":"IT","latitude":"46.56503000","longitude":"10.78270000"},{"id":"140057","name":"Meltina","state_id":1725,"state_code":"32","country_id":107,"country_code":"IT","latitude":"46.58744000","longitude":"11.25487000"},{"id":"140068","name":"Merano","state_id":1725,"state_code":"32","country_id":107,"country_code":"IT","latitude":"46.66817000","longitude":"11.15953000"},{"id":"140105","name":"Mezzana","state_id":1725,"state_code":"32","country_id":107,"country_code":"IT","latitude":"46.31671000","longitude":"10.80007000"},{"id":"140113","name":"Mezzano","state_id":1725,"state_code":"32","country_id":107,"country_code":"IT","latitude":"46.15393000","longitude":"11.80876000"},{"id":"140118","name":"Mezzocorona","state_id":1725,"state_code":"32","country_id":107,"country_code":"IT","latitude":"46.21159000","longitude":"11.12253000"},{"id":"140123","name":"Mezzolombardo","state_id":1725,"state_code":"32","country_id":107,"country_code":"IT","latitude":"46.20774000","longitude":"11.09636000"},{"id":"140165","name":"Miola di Pin\u00e8","state_id":1725,"state_code":"32","country_id":107,"country_code":"IT","latitude":"46.12668000","longitude":"11.24850000"},{"id":"140193","name":"Moena","state_id":1725,"state_code":"32","country_id":107,"country_code":"IT","latitude":"46.37655000","longitude":"11.65941000"},{"id":"140215","name":"Molina di Ledro","state_id":1725,"state_code":"32","country_id":107,"country_code":"IT","latitude":"45.87095000","longitude":"10.77408000"},{"id":"140233","name":"Molveno","state_id":1725,"state_code":"32","country_id":107,"country_code":"IT","latitude":"46.14238000","longitude":"10.96300000"},{"id":"140268","name":"Monclassico","state_id":1725,"state_code":"32","country_id":107,"country_code":"IT","latitude":"46.33410000","longitude":"10.88604000"},{"id":"140291","name":"Monguelfo","state_id":1725,"state_code":"32","country_id":107,"country_code":"IT","latitude":"46.75774000","longitude":"12.10556000"},{"id":"140308","name":"Montagna","state_id":1725,"state_code":"32","country_id":107,"country_code":"IT","latitude":"46.33033000","longitude":"11.30027000"},{"id":"140312","name":"Montagne","state_id":1725,"state_code":"32","country_id":107,"country_code":"IT","latitude":"46.05850000","longitude":"10.75127000"},{"id":"140615","name":"Mori","state_id":1725,"state_code":"32","country_id":107,"country_code":"IT","latitude":"45.85187000","longitude":"10.98052000"},{"id":"140644","name":"Moscheri","state_id":1725,"state_code":"32","country_id":107,"country_code":"IT","latitude":"45.86875000","longitude":"11.07383000"},{"id":"140649","name":"Moso in Passiria","state_id":1725,"state_code":"32","country_id":107,"country_code":"IT","latitude":"46.83154000","longitude":"11.16708000"},{"id":"140710","name":"Nago-Torbole","state_id":1725,"state_code":"32","country_id":107,"country_code":"IT","latitude":"45.87594000","longitude":"10.89106000"},{"id":"140711","name":"Nalles","state_id":1725,"state_code":"32","country_id":107,"country_code":"IT","latitude":"46.54341000","longitude":"11.20625000"},{"id":"140712","name":"Nanno","state_id":1725,"state_code":"32","country_id":107,"country_code":"IT","latitude":"46.31481000","longitude":"11.04747000"},{"id":"140726","name":"Naturno","state_id":1725,"state_code":"32","country_id":107,"country_code":"IT","latitude":"46.64801000","longitude":"11.00129000"},{"id":"140729","name":"Nave San Rocco","state_id":1725,"state_code":"32","country_id":107,"country_code":"IT","latitude":"46.16771000","longitude":"11.10508000"},{"id":"140732","name":"Naz-Sciaves - Natz-Schabs","state_id":1725,"state_code":"32","country_id":107,"country_code":"IT","latitude":"46.76883000","longitude":"11.66558000"},{"id":"140792","name":"Nogaredo","state_id":1725,"state_code":"32","country_id":107,"country_code":"IT","latitude":"45.91300000","longitude":"11.02388000"},{"id":"140801","name":"Nomi","state_id":1725,"state_code":"32","country_id":107,"country_code":"IT","latitude":"45.92923000","longitude":"11.07198000"},{"id":"140813","name":"Nova Levante","state_id":1725,"state_code":"32","country_id":107,"country_code":"IT","latitude":"46.42899000","longitude":"11.53942000"},{"id":"140815","name":"Nova Ponente","state_id":1725,"state_code":"32","country_id":107,"country_code":"IT","latitude":"46.41404000","longitude":"11.42523000"},{"id":"140820","name":"Novaledo","state_id":1725,"state_code":"32","country_id":107,"country_code":"IT","latitude":"46.02340000","longitude":"11.36607000"},{"id":"140936","name":"Ora","state_id":1725,"state_code":"32","country_id":107,"country_code":"IT","latitude":"46.34687000","longitude":"11.29747000"},{"id":"140986","name":"Ortisei","state_id":1725,"state_code":"32","country_id":107,"country_code":"IT","latitude":"46.57603000","longitude":"11.67176000"},{"id":"141015","name":"Ospedaletto","state_id":1725,"state_code":"32","country_id":107,"country_code":"IT","latitude":"46.04286000","longitude":"11.55439000"},{"id":"141025","name":"Ossana","state_id":1725,"state_code":"32","country_id":107,"country_code":"IT","latitude":"46.30651000","longitude":"10.73757000"},{"id":"141074","name":"Padergnone","state_id":1725,"state_code":"32","country_id":107,"country_code":"IT","latitude":"46.05982000","longitude":"10.98478000"},{"id":"58271","name":"Pal\u00f9 del Fersina","state_id":1725,"state_code":"32","country_id":107,"country_code":"IT","latitude":"46.12951000","longitude":"11.35088000"},{"id":"58275","name":"Panchi\u00e0","state_id":1725,"state_code":"32","country_id":107,"country_code":"IT","latitude":"46.28648000","longitude":"11.54061000"},{"id":"58298","name":"Parcines","state_id":1725,"state_code":"32","country_id":107,"country_code":"IT","latitude":"46.68422000","longitude":"11.07337000"},{"id":"58397","name":"Pellizzano","state_id":1725,"state_code":"32","country_id":107,"country_code":"IT","latitude":"46.30980000","longitude":"10.75790000"},{"id":"58398","name":"Pelugo","state_id":1725,"state_code":"32","country_id":107,"country_code":"IT","latitude":"46.08850000","longitude":"10.72387000"},{"id":"58413","name":"Perca","state_id":1725,"state_code":"32","country_id":107,"country_code":"IT","latitude":"46.79343000","longitude":"11.98339000"},{"id":"58423","name":"Pergine Valsugana","state_id":1725,"state_code":"32","country_id":107,"country_code":"IT","latitude":"46.06434000","longitude":"11.23758000"},{"id":"58563","name":"Piazza","state_id":1725,"state_code":"32","country_id":107,"country_code":"IT","latitude":"45.87705000","longitude":"11.15809000"},{"id":"58618","name":"Pietramurata","state_id":1725,"state_code":"32","country_id":107,"country_code":"IT","latitude":"46.02033000","longitude":"10.94316000"},{"id":"58648","name":"Pieve di Bono","state_id":1725,"state_code":"32","country_id":107,"country_code":"IT","latitude":"45.94220000","longitude":"10.64027000"},{"id":"58652","name":"Pieve di Ledro","state_id":1725,"state_code":"32","country_id":107,"country_code":"IT","latitude":"45.88848000","longitude":"10.73124000"},{"id":"58640","name":"Pieve Tesino","state_id":1725,"state_code":"32","country_id":107,"country_code":"IT","latitude":"46.06820000","longitude":"11.61122000"},{"id":"58676","name":"Pineta","state_id":1725,"state_code":"32","country_id":107,"country_code":"IT","latitude":"46.43994000","longitude":"11.34727000"},{"id":"58683","name":"Pinzolo","state_id":1725,"state_code":"32","country_id":107,"country_code":"IT","latitude":"46.15976000","longitude":"10.76376000"},{"id":"58736","name":"Plaus","state_id":1725,"state_code":"32","country_id":107,"country_code":"IT","latitude":"46.65623000","longitude":"11.04178000"},{"id":"58812","name":"Pomarolo","state_id":1725,"state_code":"32","country_id":107,"country_code":"IT","latitude":"45.92810000","longitude":"11.04308000"},{"id":"58835","name":"Ponte Arche","state_id":1725,"state_code":"32","country_id":107,"country_code":"IT","latitude":"46.03526000","longitude":"10.87320000"},{"id":"58841","name":"Ponte Gardena","state_id":1725,"state_code":"32","country_id":107,"country_code":"IT","latitude":"46.59712000","longitude":"11.53088000"},{"id":"58960","name":"Postal","state_id":1725,"state_code":"32","country_id":107,"country_code":"IT","latitude":"46.60949000","longitude":"11.19313000"},{"id":"58971","name":"Povo","state_id":1725,"state_code":"32","country_id":107,"country_code":"IT","latitude":"46.06698000","longitude":"11.15503000"},{"id":"58974","name":"Pozza di Fassa","state_id":1725,"state_code":"32","country_id":107,"country_code":"IT","latitude":"46.42806000","longitude":"11.68711000"},{"id":"59011","name":"Praso","state_id":1725,"state_code":"32","country_id":107,"country_code":"IT","latitude":"45.95000000","longitude":"10.63627000"},{"id":"59020","name":"Prati","state_id":1725,"state_code":"32","country_id":107,"country_code":"IT","latitude":"46.90003000","longitude":"11.46507000"},{"id":"59028","name":"Prato Allo Stelvio","state_id":1725,"state_code":"32","country_id":107,"country_code":"IT","latitude":"46.61901000","longitude":"10.59136000"},{"id":"59044","name":"Predazzo","state_id":1725,"state_code":"32","country_id":107,"country_code":"IT","latitude":"46.31140000","longitude":"11.59960000"},{"id":"59045","name":"Predoi","state_id":1725,"state_code":"32","country_id":107,"country_code":"IT","latitude":"47.04031000","longitude":"12.10663000"},{"id":"59061","name":"Preore","state_id":1725,"state_code":"32","country_id":107,"country_code":"IT","latitude":"46.04663000","longitude":"10.75969000"},{"id":"59073","name":"Prezzo","state_id":1725,"state_code":"32","country_id":107,"country_code":"IT","latitude":"45.93470000","longitude":"10.63297000"},{"id":"59098","name":"Proves - Proveis","state_id":1725,"state_code":"32","country_id":107,"country_code":"IT","latitude":"46.47661000","longitude":"11.02247000"},{"id":"59105","name":"Provincia autonoma di Trento","state_id":1725,"state_code":"32","country_id":107,"country_code":"IT","latitude":"46.06966000","longitude":"11.12177000"},{"id":"59253","name":"Rabbi Fonti","state_id":1725,"state_code":"32","country_id":107,"country_code":"IT","latitude":"46.39886000","longitude":"10.84951000"},{"id":"59254","name":"Rabl\u00e0","state_id":1725,"state_code":"32","country_id":107,"country_code":"IT","latitude":"46.67044000","longitude":"11.06458000"},{"id":"59259","name":"Racines","state_id":1725,"state_code":"32","country_id":107,"country_code":"IT","latitude":"46.86667000","longitude":"11.30000000"},{"id":"59260","name":"Racines - Ratschings","state_id":1725,"state_code":"32","country_id":107,"country_code":"IT","latitude":"46.88183000","longitude":"11.37827000"},{"id":"59268","name":"Ragoli","state_id":1725,"state_code":"32","country_id":107,"country_code":"IT","latitude":"46.05423000","longitude":"10.77855000"},{"id":"59292","name":"Rasun Anterselva - Rasen-Antholz","state_id":1725,"state_code":"32","country_id":107,"country_code":"IT","latitude":"46.77853000","longitude":"12.04729000"},{"id":"59301","name":"Ravina","state_id":1725,"state_code":"32","country_id":107,"country_code":"IT","latitude":"46.03944000","longitude":"11.11215000"},{"id":"59333","name":"Renon - Ritten","state_id":1725,"state_code":"32","country_id":107,"country_code":"IT","latitude":"46.54152000","longitude":"11.45728000"},{"id":"59345","name":"Rev\u00f2","state_id":1725,"state_code":"32","country_id":107,"country_code":"IT","latitude":"46.39226000","longitude":"11.05808000"},{"id":"59371","name":"Ried","state_id":1725,"state_code":"32","country_id":107,"country_code":"IT","latitude":"46.92993000","longitude":"11.52414000"},{"id":"59375","name":"Rifiano","state_id":1725,"state_code":"32","country_id":107,"country_code":"IT","latitude":"46.70287000","longitude":"11.18057000"},{"id":"59389","name":"Rio di Pusteria","state_id":1725,"state_code":"32","country_id":107,"country_code":"IT","latitude":"46.79658000","longitude":"11.66754000"},{"id":"59413","name":"Riscone","state_id":1725,"state_code":"32","country_id":107,"country_code":"IT","latitude":"46.77685000","longitude":"11.95149000"},{"id":"59419","name":"Riva del Garda","state_id":1725,"state_code":"32","country_id":107,"country_code":"IT","latitude":"45.88577000","longitude":"10.84117000"},{"id":"59549","name":"Rodengo","state_id":1725,"state_code":"32","country_id":107,"country_code":"IT","latitude":"46.80000000","longitude":"11.70000000"},{"id":"59550","name":"Rodengo - Rodeneck","state_id":1725,"state_code":"32","country_id":107,"country_code":"IT","latitude":"46.77953000","longitude":"11.69048000"},{"id":"59570","name":"Romagnano","state_id":1725,"state_code":"32","country_id":107,"country_code":"IT","latitude":"46.01807000","longitude":"11.10563000"},{"id":"59573","name":"Romallo","state_id":1725,"state_code":"32","country_id":107,"country_code":"IT","latitude":"46.39721000","longitude":"11.06617000"},{"id":"59583","name":"Romeno","state_id":1725,"state_code":"32","country_id":107,"country_code":"IT","latitude":"46.39452000","longitude":"11.11920000"},{"id":"59593","name":"Roncegno","state_id":1725,"state_code":"32","country_id":107,"country_code":"IT","latitude":"46.04934000","longitude":"11.40824000"},{"id":"59595","name":"Ronchi Valsugana","state_id":1725,"state_code":"32","country_id":107,"country_code":"IT","latitude":"46.06841000","longitude":"11.43519000"},{"id":"59612","name":"Roncone","state_id":1725,"state_code":"32","country_id":107,"country_code":"IT","latitude":"45.98270000","longitude":"10.66817000"},{"id":"59618","name":"Ronzo-Chienis","state_id":1725,"state_code":"32","country_id":107,"country_code":"IT","latitude":"45.88960000","longitude":"10.95008000"},{"id":"59619","name":"Ronzone","state_id":1725,"state_code":"32","country_id":107,"country_code":"IT","latitude":"46.42437000","longitude":"11.15275000"},{"id":"59681","name":"Rover\u00e8 della Luna","state_id":1725,"state_code":"32","country_id":107,"country_code":"IT","latitude":"46.25008000","longitude":"11.17233000"},{"id":"59679","name":"Rovereto","state_id":1725,"state_code":"32","country_id":107,"country_code":"IT","latitude":"45.89040000","longitude":"11.04053000"},{"id":"59698","name":"Ruffr\u00e8","state_id":1725,"state_code":"32","country_id":107,"country_code":"IT","latitude":"46.41481000","longitude":"11.17777000"},{"id":"59702","name":"Rumo","state_id":1725,"state_code":"32","country_id":107,"country_code":"IT","latitude":"46.44141000","longitude":"11.01857000"},{"id":"59714","name":"Sabbionara","state_id":1725,"state_code":"32","country_id":107,"country_code":"IT","latitude":"45.74152000","longitude":"10.95740000"},{"id":"59726","name":"Sagron Mis","state_id":1725,"state_code":"32","country_id":107,"country_code":"IT","latitude":"46.19471000","longitude":"11.94320000"},{"id":"59779","name":"Salorno","state_id":1725,"state_code":"32","country_id":107,"country_code":"IT","latitude":"46.24062000","longitude":"11.21192000"},{"id":"59814","name":"Samone","state_id":1725,"state_code":"32","country_id":107,"country_code":"IT","latitude":"46.08161000","longitude":"11.52259000"},{"id":"59836","name":"San Bernardo","state_id":1725,"state_code":"32","country_id":107,"country_code":"IT","latitude":"46.40088000","longitude":"10.84445000"},{"id":"59851","name":"San Candido","state_id":1725,"state_code":"32","country_id":107,"country_code":"IT","latitude":"46.73240000","longitude":"12.27855000"},{"id":"59907","name":"San Felice","state_id":1725,"state_code":"32","country_id":107,"country_code":"IT","latitude":"46.49429000","longitude":"11.13022000"},{"id":"59932","name":"San Genesio","state_id":1725,"state_code":"32","country_id":107,"country_code":"IT","latitude":"46.65800000","longitude":"11.92456000"},{"id":"59933","name":"San Genesio Atesino","state_id":1725,"state_code":"32","country_id":107,"country_code":"IT","latitude":"46.53460000","longitude":"11.32971000"},{"id":"59943","name":"San Giacomo","state_id":1725,"state_code":"32","country_id":107,"country_code":"IT","latitude":"46.45624000","longitude":"11.33365000"},{"id":"60031","name":"San Leonardo in Passiria","state_id":1725,"state_code":"32","country_id":107,"country_code":"IT","latitude":"46.81282000","longitude":"11.24577000"},{"id":"60047","name":"San Lorenzo di Sebato","state_id":1725,"state_code":"32","country_id":107,"country_code":"IT","latitude":"46.78514000","longitude":"11.90812000"},{"id":"60048","name":"San Lorenzo in Banale","state_id":1725,"state_code":"32","country_id":107,"country_code":"IT","latitude":"46.07660000","longitude":"10.90847000"},{"id":"60069","name":"San Martino","state_id":1725,"state_code":"32","country_id":107,"country_code":"IT","latitude":"46.81097000","longitude":"12.22684000"},{"id":"60089","name":"San Martino in Badia","state_id":1725,"state_code":"32","country_id":107,"country_code":"IT","latitude":"46.68153000","longitude":"11.89809000"},{"id":"60092","name":"San Martino in Passiria","state_id":1725,"state_code":"32","country_id":107,"country_code":"IT","latitude":"46.78392000","longitude":"11.22727000"},{"id":"60114","name":"San Michele","state_id":1725,"state_code":"32","country_id":107,"country_code":"IT","latitude":"46.45472000","longitude":"11.26178000"},{"id":"60117","name":"San Michele All'Adige","state_id":1725,"state_code":"32","country_id":107,"country_code":"IT","latitude":"46.18967000","longitude":"11.13212000"},{"id":"60151","name":"San Pancrazio","state_id":1725,"state_code":"32","country_id":107,"country_code":"IT","latitude":"46.58600000","longitude":"11.08571000"},{"id":"60155","name":"San Paolo","state_id":1725,"state_code":"32","country_id":107,"country_code":"IT","latitude":"46.47207000","longitude":"11.26021000"},{"id":"60170","name":"San Pietro","state_id":1725,"state_code":"32","country_id":107,"country_code":"IT","latitude":"46.64133000","longitude":"11.68277000"},{"id":"60266","name":"San Vigilio","state_id":1725,"state_code":"32","country_id":107,"country_code":"IT","latitude":"46.69884000","longitude":"11.93104000"},{"id":"60411","name":"Sant'Orsola","state_id":1725,"state_code":"32","country_id":107,"country_code":"IT","latitude":"46.10901000","longitude":"11.30201000"},{"id":"60412","name":"Sant'Orsola Terme","state_id":1725,"state_code":"32","country_id":107,"country_code":"IT","latitude":"46.10881000","longitude":"11.30238000"},{"id":"60423","name":"Santa Cristina Valgardena","state_id":1725,"state_code":"32","country_id":107,"country_code":"IT","latitude":"46.56299000","longitude":"11.73216000"},{"id":"60497","name":"Santa Valburga","state_id":1725,"state_code":"32","country_id":107,"country_code":"IT","latitude":"46.55000000","longitude":"11.00000000"},{"id":"60533","name":"Sanzeno","state_id":1725,"state_code":"32","country_id":107,"country_code":"IT","latitude":"46.36614000","longitude":"11.07559000"},{"id":"60546","name":"Sarentino","state_id":1725,"state_code":"32","country_id":107,"country_code":"IT","latitude":"46.64121000","longitude":"11.35411000"},{"id":"60555","name":"Sarnonico","state_id":1725,"state_code":"32","country_id":107,"country_code":"IT","latitude":"46.41941000","longitude":"11.14177000"},{"id":"60637","name":"Scena","state_id":1725,"state_code":"32","country_id":107,"country_code":"IT","latitude":"46.68840000","longitude":"11.18855000"},{"id":"60638","name":"Scena - Schenna","state_id":1725,"state_code":"32","country_id":107,"country_code":"IT","latitude":"46.69012000","longitude":"11.18627000"},{"id":"60652","name":"Sciaves","state_id":1725,"state_code":"32","country_id":107,"country_code":"IT","latitude":"46.76859000","longitude":"11.66607000"},{"id":"60671","name":"Scurelle","state_id":1725,"state_code":"32","country_id":107,"country_code":"IT","latitude":"46.06451000","longitude":"11.50569000"},{"id":"60690","name":"Segonzano","state_id":1725,"state_code":"32","country_id":107,"country_code":"IT","latitude":"46.19021000","longitude":"11.25988000"},{"id":"60703","name":"Selva","state_id":1725,"state_code":"32","country_id":107,"country_code":"IT","latitude":"46.55472000","longitude":"11.76038000"},{"id":"60705","name":"Selva dei Molini","state_id":1725,"state_code":"32","country_id":107,"country_code":"IT","latitude":"46.89031000","longitude":"11.85832000"},{"id":"60719","name":"Senale","state_id":1725,"state_code":"32","country_id":107,"country_code":"IT","latitude":"46.51077000","longitude":"11.11012000"},{"id":"60720","name":"Senales","state_id":1725,"state_code":"32","country_id":107,"country_code":"IT","latitude":"46.70602000","longitude":"10.90846000"},{"id":"60794","name":"Sesto","state_id":1725,"state_code":"32","country_id":107,"country_code":"IT","latitude":"46.70216000","longitude":"12.34962000"},{"id":"60830","name":"Sfruz","state_id":1725,"state_code":"32","country_id":107,"country_code":"IT","latitude":"46.33961000","longitude":"11.12377000"},{"id":"60847","name":"Silandro","state_id":1725,"state_code":"32","country_id":107,"country_code":"IT","latitude":"46.62831000","longitude":"10.76809000"},{"id":"60866","name":"Sinigo","state_id":1725,"state_code":"32","country_id":107,"country_code":"IT","latitude":"46.63488000","longitude":"11.17926000"},{"id":"60877","name":"Siror","state_id":1725,"state_code":"32","country_id":107,"country_code":"IT","latitude":"46.18784000","longitude":"11.83116000"},{"id":"60883","name":"Siusi","state_id":1725,"state_code":"32","country_id":107,"country_code":"IT","latitude":"46.54133000","longitude":"11.55868000"},{"id":"60887","name":"Sluderno","state_id":1725,"state_code":"32","country_id":107,"country_code":"IT","latitude":"46.66524000","longitude":"10.58345000"},{"id":"60888","name":"Smarano","state_id":1725,"state_code":"32","country_id":107,"country_code":"IT","latitude":"46.34311000","longitude":"11.10977000"},{"id":"60942","name":"Soprabolzano","state_id":1725,"state_code":"32","country_id":107,"country_code":"IT","latitude":"46.52899000","longitude":"11.40408000"},{"id":"60945","name":"Soraga","state_id":1725,"state_code":"32","country_id":107,"country_code":"IT","latitude":"46.39462000","longitude":"11.66619000"},{"id":"60976","name":"Sover","state_id":1725,"state_code":"32","country_id":107,"country_code":"IT","latitude":"46.22171000","longitude":"11.31568000"},{"id":"60996","name":"Spera","state_id":1725,"state_code":"32","country_id":107,"country_code":"IT","latitude":"46.07031000","longitude":"11.50899000"},{"id":"61005","name":"Spiazzo","state_id":1725,"state_code":"32","country_id":107,"country_code":"IT","latitude":"46.10360000","longitude":"10.73937000"},{"id":"61029","name":"Spormaggiore","state_id":1725,"state_code":"32","country_id":107,"country_code":"IT","latitude":"46.21853000","longitude":"11.04805000"},{"id":"61030","name":"Sporminore","state_id":1725,"state_code":"32","country_id":107,"country_code":"IT","latitude":"46.23692000","longitude":"11.02919000"},{"id":"61045","name":"Stanghe","state_id":1725,"state_code":"32","country_id":107,"country_code":"IT","latitude":"46.88219000","longitude":"11.37764000"},{"id":"61065","name":"Stelvio","state_id":1725,"state_code":"32","country_id":107,"country_code":"IT","latitude":"46.59767000","longitude":"10.54580000"},{"id":"61066","name":"Stenico","state_id":1725,"state_code":"32","country_id":107,"country_code":"IT","latitude":"46.05124000","longitude":"10.85562000"},{"id":"61081","name":"Storo","state_id":1725,"state_code":"32","country_id":107,"country_code":"IT","latitude":"45.84925000","longitude":"10.58022000"},{"id":"61092","name":"Strembo","state_id":1725,"state_code":"32","country_id":107,"country_code":"IT","latitude":"46.12030000","longitude":"10.75087000"},{"id":"61097","name":"Strigno","state_id":1725,"state_code":"32","country_id":107,"country_code":"IT","latitude":"46.06690000","longitude":"11.52224000"},{"id":"61149","name":"Taio","state_id":1725,"state_code":"32","country_id":107,"country_code":"IT","latitude":"46.32139000","longitude":"11.06624000"},{"id":"61173","name":"Tassullo","state_id":1725,"state_code":"32","country_id":107,"country_code":"IT","latitude":"46.34298000","longitude":"11.04539000"},{"id":"61208","name":"Telve","state_id":1725,"state_code":"32","country_id":107,"country_code":"IT","latitude":"46.07011000","longitude":"11.48022000"},{"id":"61209","name":"Telve di Sopra","state_id":1725,"state_code":"32","country_id":107,"country_code":"IT","latitude":"46.07131000","longitude":"11.47179000"},{"id":"61213","name":"Tenna","state_id":1725,"state_code":"32","country_id":107,"country_code":"IT","latitude":"46.01570000","longitude":"11.26428000"},{"id":"61214","name":"Tenno","state_id":1725,"state_code":"32","country_id":107,"country_code":"IT","latitude":"45.91937000","longitude":"10.83160000"},{"id":"61220","name":"Terento","state_id":1725,"state_code":"32","country_id":107,"country_code":"IT","latitude":"46.82992000","longitude":"11.78288000"},{"id":"61223","name":"Terlago","state_id":1725,"state_code":"32","country_id":107,"country_code":"IT","latitude":"46.09737000","longitude":"11.04505000"},{"id":"61224","name":"Terlano","state_id":1725,"state_code":"32","country_id":107,"country_code":"IT","latitude":"46.53216000","longitude":"11.24689000"},{"id":"61227","name":"Termeno","state_id":1725,"state_code":"32","country_id":107,"country_code":"IT","latitude":"46.34151000","longitude":"11.24228000"},{"id":"61237","name":"Terragnolo","state_id":1725,"state_code":"32","country_id":107,"country_code":"IT","latitude":"45.87830000","longitude":"11.15468000"},{"id":"61250","name":"Terres","state_id":1725,"state_code":"32","country_id":107,"country_code":"IT","latitude":"46.30991000","longitude":"11.02307000"},{"id":"61258","name":"Terzolas","state_id":1725,"state_code":"32","country_id":107,"country_code":"IT","latitude":"46.36111000","longitude":"10.92587000"},{"id":"61260","name":"Tesero","state_id":1725,"state_code":"32","country_id":107,"country_code":"IT","latitude":"46.29184000","longitude":"11.50946000"},{"id":"61261","name":"Tesimo","state_id":1725,"state_code":"32","country_id":107,"country_code":"IT","latitude":"46.56542000","longitude":"11.16937000"},{"id":"61281","name":"Tione di Trento","state_id":1725,"state_code":"32","country_id":107,"country_code":"IT","latitude":"46.03550000","longitude":"10.72679000"},{"id":"61283","name":"Tires","state_id":1725,"state_code":"32","country_id":107,"country_code":"IT","latitude":"46.46817000","longitude":"11.52704000"},{"id":"61285","name":"Tirolo","state_id":1725,"state_code":"32","country_id":107,"country_code":"IT","latitude":"46.69102000","longitude":"11.15427000"},{"id":"61306","name":"Tonadico","state_id":1725,"state_code":"32","country_id":107,"country_code":"IT","latitude":"46.18111000","longitude":"11.83939000"},{"id":"61319","name":"Torcegno","state_id":1725,"state_code":"32","country_id":107,"country_code":"IT","latitude":"46.07431000","longitude":"11.44979000"},{"id":"61431","name":"Trambileno","state_id":1725,"state_code":"32","country_id":107,"country_code":"IT","latitude":"45.86890000","longitude":"11.07338000"},{"id":"61438","name":"Transacqua","state_id":1725,"state_code":"32","country_id":107,"country_code":"IT","latitude":"46.17367000","longitude":"11.83279000"},{"id":"61483","name":"Trento","state_id":1725,"state_code":"32","country_id":107,"country_code":"IT","latitude":"46.06787000","longitude":"11.12108000"},{"id":"61491","name":"Tres","state_id":1725,"state_code":"32","country_id":107,"country_code":"IT","latitude":"46.32179000","longitude":"11.09654000"},{"id":"61546","name":"Trodena","state_id":1725,"state_code":"32","country_id":107,"country_code":"IT","latitude":"46.32181000","longitude":"11.34982000"},{"id":"61560","name":"Tubre","state_id":1725,"state_code":"32","country_id":107,"country_code":"IT","latitude":"46.64403000","longitude":"10.46328000"},{"id":"61561","name":"Tuenno","state_id":1725,"state_code":"32","country_id":107,"country_code":"IT","latitude":"46.32844000","longitude":"11.02306000"},{"id":"61595","name":"Ultimo - Ulten","state_id":1725,"state_code":"32","country_id":107,"country_code":"IT","latitude":"46.54832000","longitude":"11.00417000"},{"id":"61628","name":"Vadena","state_id":1725,"state_code":"32","country_id":107,"country_code":"IT","latitude":"46.41361000","longitude":"11.30498000"},{"id":"61649","name":"Valda","state_id":1725,"state_code":"32","country_id":107,"country_code":"IT","latitude":"46.20721000","longitude":"11.26488000"},{"id":"61651","name":"Valdaora di Mezzo","state_id":1725,"state_code":"32","country_id":107,"country_code":"IT","latitude":"46.76027000","longitude":"12.02951000"},{"id":"61670","name":"Valfloriana","state_id":1725,"state_code":"32","country_id":107,"country_code":"IT","latitude":"46.24971000","longitude":"11.34308000"},{"id":"61682","name":"Vallarsa","state_id":1725,"state_code":"32","country_id":107,"country_code":"IT","latitude":"45.78280000","longitude":"11.11788000"},{"id":"61685","name":"Valle Aurina - Ahrntal","state_id":1725,"state_code":"32","country_id":107,"country_code":"IT","latitude":"46.99623000","longitude":"11.97988000"},{"id":"61697","name":"Valle di Casies - Gsies","state_id":1725,"state_code":"32","country_id":107,"country_code":"IT","latitude":"46.76833000","longitude":"12.17939000"},{"id":"61751","name":"Vandoies - Vintl","state_id":1725,"state_code":"32","country_id":107,"country_code":"IT","latitude":"46.81513000","longitude":"11.72068000"},{"id":"61752","name":"Vandoies di Sotto","state_id":1725,"state_code":"32","country_id":107,"country_code":"IT","latitude":"46.81600000","longitude":"11.72183000"},{"id":"61767","name":"Varena","state_id":1725,"state_code":"32","country_id":107,"country_code":"IT","latitude":"46.30671000","longitude":"11.45828000"},{"id":"61773","name":"Varna","state_id":1725,"state_code":"32","country_id":107,"country_code":"IT","latitude":"46.73901000","longitude":"11.63749000"},{"id":"61783","name":"Vattaro","state_id":1725,"state_code":"32","country_id":107,"country_code":"IT","latitude":"45.99388000","longitude":"11.21792000"},{"id":"61807","name":"Velturno","state_id":1725,"state_code":"32","country_id":107,"country_code":"IT","latitude":"46.66705000","longitude":"11.59712000"},{"id":"61831","name":"Verano","state_id":1725,"state_code":"32","country_id":107,"country_code":"IT","latitude":"46.60442000","longitude":"11.22565000"},{"id":"61832","name":"Verano - Voeran","state_id":1725,"state_code":"32","country_id":107,"country_code":"IT","latitude":"46.60472000","longitude":"11.22607000"},{"id":"61850","name":"Verla","state_id":1725,"state_code":"32","country_id":107,"country_code":"IT","latitude":"46.15793000","longitude":"11.15331000"},{"id":"61852","name":"Vermiglio","state_id":1725,"state_code":"32","country_id":107,"country_code":"IT","latitude":"46.29691000","longitude":"10.69136000"},{"id":"61876","name":"Verv\u00f2","state_id":1725,"state_code":"32","country_id":107,"country_code":"IT","latitude":"46.30989000","longitude":"11.11972000"},{"id":"61894","name":"Vezzano","state_id":1725,"state_code":"32","country_id":107,"country_code":"IT","latitude":"46.07867000","longitude":"10.99735000"},{"id":"61960","name":"Vignola","state_id":1725,"state_code":"32","country_id":107,"country_code":"IT","latitude":"46.04436000","longitude":"11.27738000"},{"id":"61968","name":"Vigo di Fassa","state_id":1725,"state_code":"32","country_id":107,"country_code":"IT","latitude":"46.41898000","longitude":"11.67418000"},{"id":"61969","name":"Vigo di Ton","state_id":1725,"state_code":"32","country_id":107,"country_code":"IT","latitude":"46.26531000","longitude":"11.08798000"},{"id":"61972","name":"Vigolo Vattaro","state_id":1725,"state_code":"32","country_id":107,"country_code":"IT","latitude":"46.00523000","longitude":"11.19790000"},{"id":"61983","name":"Villa","state_id":1725,"state_code":"32","country_id":107,"country_code":"IT","latitude":"46.74591000","longitude":"11.76243000"},{"id":"62001","name":"Villa Lagarina","state_id":1725,"state_code":"32","country_id":107,"country_code":"IT","latitude":"45.91843000","longitude":"11.03303000"},{"id":"62014","name":"Villa Rendena","state_id":1725,"state_code":"32","country_id":107,"country_code":"IT","latitude":"46.06270000","longitude":"10.71250000"},{"id":"62043","name":"Villa-Agnedo","state_id":1725,"state_code":"32","country_id":107,"country_code":"IT","latitude":"46.05421000","longitude":"11.52839000"},{"id":"62046","name":"Villabassa","state_id":1725,"state_code":"32","country_id":107,"country_code":"IT","latitude":"46.73781000","longitude":"12.17266000"},{"id":"62087","name":"Villandro","state_id":1725,"state_code":"32","country_id":107,"country_code":"IT","latitude":"46.63086000","longitude":"11.53808000"},{"id":"62088","name":"Villandro - Villanders","state_id":1725,"state_code":"32","country_id":107,"country_code":"IT","latitude":"46.63082000","longitude":"11.53708000"},{"id":"62168","name":"Vipiteno","state_id":1725,"state_code":"32","country_id":107,"country_code":"IT","latitude":"46.89313000","longitude":"11.42961000"},{"id":"62204","name":"Volano","state_id":1725,"state_code":"32","country_id":107,"country_code":"IT","latitude":"45.91718000","longitude":"11.06351000"},{"id":"62232","name":"Zambana","state_id":1725,"state_code":"32","country_id":107,"country_code":"IT","latitude":"46.15170000","longitude":"11.09618000"},{"id":"62258","name":"Ziano di Fiemme","state_id":1725,"state_code":"32","country_id":107,"country_code":"IT","latitude":"46.28572000","longitude":"11.56496000"},{"id":"62280","name":"Zuclo","state_id":1725,"state_code":"32","country_id":107,"country_code":"IT","latitude":"46.03430000","longitude":"10.75107000"}]