[{"id":"106885","name":"Atamyrat","state_id":3370,"state_code":"L","country_id":226,"country_code":"TM","latitude":"37.83573000","longitude":"65.21058000"},{"id":"106892","name":"Farap","state_id":3370,"state_code":"L","country_id":226,"country_code":"TM","latitude":"39.17037000","longitude":"63.61165000"},{"id":"106893","name":"Gazojak","state_id":3370,"state_code":"L","country_id":226,"country_code":"TM","latitude":"41.18746000","longitude":"61.40360000"},{"id":"106894","name":"Gowurdak","state_id":3370,"state_code":"L","country_id":226,"country_code":"TM","latitude":"37.81244000","longitude":"66.04656000"},{"id":"106900","name":"Sa\u00fdat","state_id":3370,"state_code":"L","country_id":226,"country_code":"TM","latitude":"38.78393000","longitude":"63.88035000"},{"id":"106906","name":"T\u00fcrkmenabat","state_id":3370,"state_code":"L","country_id":226,"country_code":"TM","latitude":"39.07328000","longitude":"63.57861000"}]