[{"id":"106880","name":"Abadan","state_id":3374,"state_code":"A","country_id":226,"country_code":"TM","latitude":"38.05415000","longitude":"58.19721000"},{"id":"106882","name":"Annau","state_id":3374,"state_code":"A","country_id":226,"country_code":"TM","latitude":"37.88754000","longitude":"58.51596000"},{"id":"106883","name":"Ar\u00e7abil","state_id":3374,"state_code":"A","country_id":226,"country_code":"TM","latitude":"37.91500000","longitude":"58.08987000"},{"id":"106886","name":"Baharly","state_id":3374,"state_code":"A","country_id":226,"country_code":"TM","latitude":"38.43624000","longitude":"57.43158000"},{"id":"106896","name":"Kaka","state_id":3374,"state_code":"A","country_id":226,"country_code":"TM","latitude":"37.34821000","longitude":"59.61431000"},{"id":"106905","name":"Tejen","state_id":3374,"state_code":"A","country_id":226,"country_code":"TM","latitude":"37.38338000","longitude":"60.50545000"}]