[{"id":"53842","name":"Aguanqueterique","state_id":4058,"state_code":"LP","country_id":97,"country_code":"HN","latitude":"13.98606000","longitude":"-87.64622000"},{"id":"53879","name":"Caba\u00f1as","state_id":4058,"state_code":"LP","country_id":97,"country_code":"HN","latitude":"13.99419000","longitude":"-88.02864000"},{"id":"53885","name":"Cane","state_id":4058,"state_code":"LP","country_id":97,"country_code":"HN","latitude":"14.28333000","longitude":"-87.66667000"},{"id":"53897","name":"Chinacla","state_id":4058,"state_code":"LP","country_id":97,"country_code":"HN","latitude":"14.18289000","longitude":"-87.95395000"},{"id":"54014","name":"Guajiquiro","state_id":4058,"state_code":"LP","country_id":97,"country_code":"HN","latitude":"14.06982000","longitude":"-87.77451000"},{"id":"54073","name":"La Paz","state_id":4058,"state_code":"LP","country_id":97,"country_code":"HN","latitude":"14.31944000","longitude":"-87.67917000"},{"id":"54099","name":"Lauterique","state_id":4058,"state_code":"LP","country_id":97,"country_code":"HN","latitude":"13.86425000","longitude":"-87.65792000"},{"id":"54110","name":"Los Planes","state_id":4058,"state_code":"LP","country_id":97,"country_code":"HN","latitude":"14.05000000","longitude":"-88.01667000"},{"id":"54120","name":"Marcala","state_id":4058,"state_code":"LP","country_id":97,"country_code":"HN","latitude":"14.14845000","longitude":"-88.02405000"},{"id":"54126","name":"Mercedes de Oriente","state_id":4058,"state_code":"LP","country_id":97,"country_code":"HN","latitude":"13.90937000","longitude":"-87.77795000"},{"id":"54160","name":"Opatoro","state_id":4058,"state_code":"LP","country_id":97,"country_code":"HN","latitude":"14.02451000","longitude":"-87.87982000"},{"id":"54220","name":"San Antonio del Norte","state_id":4058,"state_code":"LP","country_id":97,"country_code":"HN","latitude":"13.88000000","longitude":"-87.72000000"},{"id":"54246","name":"San Jos\u00e9","state_id":4058,"state_code":"LP","country_id":97,"country_code":"HN","latitude":"14.22642000","longitude":"-87.96238000"},{"id":"54257","name":"San Juan","state_id":4058,"state_code":"LP","country_id":97,"country_code":"HN","latitude":"13.95428000","longitude":"-87.72948000"},{"id":"54284","name":"San Pedro de Tutule","state_id":4058,"state_code":"LP","country_id":97,"country_code":"HN","latitude":"14.25000000","longitude":"-87.85000000"},{"id":"54292","name":"Santa Ana","state_id":4058,"state_code":"LP","country_id":97,"country_code":"HN","latitude":"14.00011000","longitude":"-87.94107000"},{"id":"54300","name":"Santa Elena","state_id":4058,"state_code":"LP","country_id":97,"country_code":"HN","latitude":"14.07149000","longitude":"-88.15445000"},{"id":"54306","name":"Santa Mar\u00eda","state_id":4058,"state_code":"LP","country_id":97,"country_code":"HN","latitude":"14.26904000","longitude":"-87.91164000"},{"id":"54314","name":"Santiago Puringla","state_id":4058,"state_code":"LP","country_id":97,"country_code":"HN","latitude":"14.35000000","longitude":"-87.90000000"},{"id":"54335","name":"Tepanguare","state_id":4058,"state_code":"LP","country_id":97,"country_code":"HN","latitude":"14.33333000","longitude":"-87.75000000"},{"id":"54370","name":"Yarula","state_id":4058,"state_code":"LP","country_id":97,"country_code":"HN","latitude":"14.10000000","longitude":"-88.08000000"},{"id":"54371","name":"Yarumela","state_id":4058,"state_code":"LP","country_id":97,"country_code":"HN","latitude":"14.33333000","longitude":"-87.63333000"}]