[{"id":"104841","name":"Aguilares","state_id":4133,"state_code":"SS","country_id":66,"country_code":"SV","latitude":"13.95722000","longitude":"-89.18972000"},{"id":"104846","name":"Apopa","state_id":4133,"state_code":"SS","country_id":66,"country_code":"SV","latitude":"13.80722000","longitude":"-89.17917000"},{"id":"104849","name":"Ayutuxtepeque","state_id":4133,"state_code":"SS","country_id":66,"country_code":"SV","latitude":"13.74556000","longitude":"-89.20639000"},{"id":"104866","name":"Cuscatancingo","state_id":4133,"state_code":"SS","country_id":66,"country_code":"SV","latitude":"13.73611000","longitude":"-89.18139000"},{"id":"104867","name":"Delgado","state_id":4133,"state_code":"SS","country_id":66,"country_code":"SV","latitude":"13.72417000","longitude":"-89.17028000"},{"id":"104869","name":"El Paisnal","state_id":4133,"state_code":"SS","country_id":66,"country_code":"SV","latitude":"13.97361000","longitude":"-89.21861000"},{"id":"104874","name":"Guazapa","state_id":4133,"state_code":"SS","country_id":66,"country_code":"SV","latitude":"13.87694000","longitude":"-89.17306000"},{"id":"104875","name":"Ilopango","state_id":4133,"state_code":"SS","country_id":66,"country_code":"SV","latitude":"13.70167000","longitude":"-89.10944000"},{"id":"104887","name":"Mejicanos","state_id":4133,"state_code":"SS","country_id":66,"country_code":"SV","latitude":"13.74028000","longitude":"-89.21306000"},{"id":"104897","name":"Panchimalco","state_id":4133,"state_code":"SS","country_id":66,"country_code":"SV","latitude":"13.61278000","longitude":"-89.18000000"},{"id":"104901","name":"Rosario de Mora","state_id":4133,"state_code":"SS","country_id":66,"country_code":"SV","latitude":"13.57528000","longitude":"-89.20889000"},{"id":"104908","name":"San Marcos","state_id":4133,"state_code":"SS","country_id":66,"country_code":"SV","latitude":"13.65889000","longitude":"-89.18306000"},{"id":"104914","name":"San Salvador","state_id":4133,"state_code":"SS","country_id":66,"country_code":"SV","latitude":"13.68935000","longitude":"-89.18718000"},{"id":"104923","name":"Santo Tom\u00e1s","state_id":4133,"state_code":"SS","country_id":66,"country_code":"SV","latitude":"13.64083000","longitude":"-89.13333000"},{"id":"104929","name":"Soyapango","state_id":4133,"state_code":"SS","country_id":66,"country_code":"SV","latitude":"13.71024000","longitude":"-89.13989000"},{"id":"104935","name":"Tonacatepeque","state_id":4133,"state_code":"SS","country_id":66,"country_code":"SV","latitude":"13.78111000","longitude":"-89.11861000"}]