[{"id":"104855","name":"Chapeltique","state_id":4135,"state_code":"SM","country_id":66,"country_code":"SV","latitude":"13.63333000","longitude":"-88.26667000"},{"id":"104856","name":"Chinameca","state_id":4135,"state_code":"SM","country_id":66,"country_code":"SV","latitude":"13.50000000","longitude":"-88.35000000"},{"id":"104857","name":"Chirilagua","state_id":4135,"state_code":"SM","country_id":66,"country_code":"SV","latitude":"13.22028000","longitude":"-88.13861000"},{"id":"104859","name":"Ciudad Barrios","state_id":4135,"state_code":"SM","country_id":66,"country_code":"SV","latitude":"13.76667000","longitude":"-88.26667000"},{"id":"104871","name":"El Tr\u00e1nsito","state_id":4135,"state_code":"SM","country_id":66,"country_code":"SV","latitude":"13.35000000","longitude":"-88.35000000"},{"id":"104886","name":"Lolotique","state_id":4135,"state_code":"SM","country_id":66,"country_code":"SV","latitude":"13.55000000","longitude":"-88.35000000"},{"id":"104889","name":"Moncagua","state_id":4135,"state_code":"SM","country_id":66,"country_code":"SV","latitude":"13.53333000","longitude":"-88.25000000"},{"id":"104893","name":"Nueva Guadalupe","state_id":4135,"state_code":"SM","country_id":66,"country_code":"SV","latitude":"13.53333000","longitude":"-88.35000000"},{"id":"104910","name":"San Miguel","state_id":4135,"state_code":"SM","country_id":66,"country_code":"SV","latitude":"13.48333000","longitude":"-88.18333000"},{"id":"104913","name":"San Rafael Oriente","state_id":4135,"state_code":"SM","country_id":66,"country_code":"SV","latitude":"13.38333000","longitude":"-88.35000000"},{"id":"104925","name":"Sesori","state_id":4135,"state_code":"SM","country_id":66,"country_code":"SV","latitude":"13.71667000","longitude":"-88.36667000"}]