[{"id":"63213","name":"Abiko","state_id":821,"state_code":"12","country_id":109,"country_code":"JP","latitude":"35.86667000","longitude":"140.01667000"},{"id":"63214","name":"Abiko-shi","state_id":821,"state_code":"12","country_id":109,"country_code":"JP","latitude":"35.86947000","longitude":"140.06510000"},{"id":"63258","name":"Asahi-shi","state_id":821,"state_code":"12","country_id":109,"country_code":"JP","latitude":"35.73443000","longitude":"140.65549000"},{"id":"64712","name":"Oami","state_id":821,"state_code":"12","country_id":109,"country_code":"JP","latitude":"35.51667000","longitude":"140.31667000"},{"id":"64713","name":"Oamishirasato-shi","state_id":821,"state_code":"12","country_id":109,"country_code":"JP","latitude":"35.51279000","longitude":"140.34295000"},{"id":"64724","name":"Ohara","state_id":821,"state_code":"12","country_id":109,"country_code":"JP","latitude":"35.24761000","longitude":"140.39289000"},{"id":"63314","name":"Choshi-shi","state_id":821,"state_code":"12","country_id":109,"country_code":"JP","latitude":"35.74303000","longitude":"140.77552000"},{"id":"63293","name":"Chiba","state_id":821,"state_code":"12","country_id":109,"country_code":"JP","latitude":"35.60000000","longitude":"140.11667000"},{"id":"63375","name":"Funabashi-shi","state_id":821,"state_code":"12","country_id":109,"country_code":"JP","latitude":"35.69455000","longitude":"139.98255000"},{"id":"63381","name":"Futtsu","state_id":821,"state_code":"12","country_id":109,"country_code":"JP","latitude":"35.31080000","longitude":"139.81877000"},{"id":"63441","name":"Hasaki","state_id":821,"state_code":"12","country_id":109,"country_code":"JP","latitude":"35.73333000","longitude":"140.83333000"},{"id":"63520","name":"Honcho","state_id":821,"state_code":"12","country_id":109,"country_code":"JP","latitude":"35.70129000","longitude":"139.98648000"},{"id":"63537","name":"Ichihara","state_id":821,"state_code":"12","country_id":109,"country_code":"JP","latitude":"35.51667000","longitude":"140.08333000"},{"id":"63538","name":"Ichihara Shi","state_id":821,"state_code":"12","country_id":109,"country_code":"JP","latitude":"35.42484000","longitude":"140.13725000"},{"id":"63539","name":"Ichikawa Shi","state_id":821,"state_code":"12","country_id":109,"country_code":"JP","latitude":"35.71865000","longitude":"139.93294000"},{"id":"63578","name":"Inzai-shi","state_id":821,"state_code":"12","country_id":109,"country_code":"JP","latitude":"35.81207000","longitude":"140.14098000"},{"id":"63603","name":"Isumi","state_id":821,"state_code":"12","country_id":109,"country_code":"JP","latitude":"35.23005000","longitude":"140.40492000"},{"id":"63604","name":"Isumi Shi","state_id":821,"state_code":"12","country_id":109,"country_code":"JP","latitude":"35.27777000","longitude":"140.34335000"},{"id":"63677","name":"Kamagaya Shi","state_id":821,"state_code":"12","country_id":109,"country_code":"JP","latitude":"35.77289000","longitude":"139.99883000"},{"id":"63702","name":"Kamogawa","state_id":821,"state_code":"12","country_id":109,"country_code":"JP","latitude":"35.09690000","longitude":"140.10030000"},{"id":"63703","name":"Kamogawa-shi","state_id":821,"state_code":"12","country_id":109,"country_code":"JP","latitude":"35.10000000","longitude":"140.10000000"},{"id":"63739","name":"Kashiwa","state_id":821,"state_code":"12","country_id":109,"country_code":"JP","latitude":"35.86224000","longitude":"139.97732000"},{"id":"63740","name":"Kashiwa Shi","state_id":821,"state_code":"12","country_id":109,"country_code":"JP","latitude":"35.86017000","longitude":"139.99386000"},{"id":"63754","name":"Katori-shi","state_id":821,"state_code":"12","country_id":109,"country_code":"JP","latitude":"35.88333000","longitude":"140.51667000"},{"id":"63760","name":"Katsuura","state_id":821,"state_code":"12","country_id":109,"country_code":"JP","latitude":"35.14621000","longitude":"140.31507000"},{"id":"63762","name":"Katsuura-shi","state_id":821,"state_code":"12","country_id":109,"country_code":"JP","latitude":"35.17535000","longitude":"140.26760000"},{"id":"63787","name":"Kimitsu","state_id":821,"state_code":"12","country_id":109,"country_code":"JP","latitude":"35.35043000","longitude":"139.87029000"},{"id":"63793","name":"Kisarazu","state_id":821,"state_code":"12","country_id":109,"country_code":"JP","latitude":"35.38329000","longitude":"139.93254000"},{"id":"63794","name":"Kisarazu Shi","state_id":821,"state_code":"12","country_id":109,"country_code":"JP","latitude":"35.36981000","longitude":"139.98749000"},{"id":"63932","name":"Matsudo Shi","state_id":821,"state_code":"12","country_id":109,"country_code":"JP","latitude":"35.79574000","longitude":"139.92908000"},{"id":"63966","name":"Minamiboso Shi","state_id":821,"state_code":"12","country_id":109,"country_code":"JP","latitude":"35.03657000","longitude":"139.92847000"},{"id":"64022","name":"Mobara","state_id":821,"state_code":"12","country_id":109,"country_code":"JP","latitude":"35.42583000","longitude":"140.29608000"},{"id":"64023","name":"Mobara Shi","state_id":821,"state_code":"12","country_id":109,"country_code":"JP","latitude":"35.44981000","longitude":"140.30163000"},{"id":"64069","name":"Nagareyama","state_id":821,"state_code":"12","country_id":109,"country_code":"JP","latitude":"35.85630000","longitude":"139.90266000"},{"id":"64070","name":"Nagareyama-shi","state_id":821,"state_code":"12","country_id":109,"country_code":"JP","latitude":"35.85631000","longitude":"139.90266000"},{"id":"64107","name":"Narashino-shi","state_id":821,"state_code":"12","country_id":109,"country_code":"JP","latitude":"35.68091000","longitude":"140.03418000"},{"id":"64108","name":"Narita","state_id":821,"state_code":"12","country_id":109,"country_code":"JP","latitude":"35.78333000","longitude":"140.31667000"},{"id":"64109","name":"Narita-shi","state_id":821,"state_code":"12","country_id":109,"country_code":"JP","latitude":"35.81547000","longitude":"140.35757000"},{"id":"64112","name":"Naruto","state_id":821,"state_code":"12","country_id":109,"country_code":"JP","latitude":"35.60000000","longitude":"140.41667000"},{"id":"64163","name":"Noda","state_id":821,"state_code":"12","country_id":109,"country_code":"JP","latitude":"35.94897000","longitude":"139.86793000"},{"id":"64164","name":"Noda-shi","state_id":821,"state_code":"12","country_id":109,"country_code":"JP","latitude":"35.98516000","longitude":"139.86215000"},{"id":"64204","name":"Omigawa","state_id":821,"state_code":"12","country_id":109,"country_code":"JP","latitude":"35.85000000","longitude":"140.61667000"},{"id":"64268","name":"Sakura","state_id":821,"state_code":"12","country_id":109,"country_code":"JP","latitude":"35.71667000","longitude":"140.23333000"},{"id":"64269","name":"Sakura-shi","state_id":821,"state_code":"12","country_id":109,"country_code":"JP","latitude":"35.70619000","longitude":"140.21326000"},{"id":"64275","name":"Sambu-gun","state_id":821,"state_code":"12","country_id":109,"country_code":"JP","latitude":"35.68843000","longitude":"140.45346000"},{"id":"64279","name":"Sanmu","state_id":821,"state_code":"12","country_id":109,"country_code":"JP","latitude":"35.62756000","longitude":"140.41762000"},{"id":"64280","name":"Sanmu-shi","state_id":821,"state_code":"12","country_id":109,"country_code":"JP","latitude":"35.62397000","longitude":"140.42079000"},{"id":"64295","name":"Sawara","state_id":821,"state_code":"12","country_id":109,"country_code":"JP","latitude":"35.88333000","longitude":"140.50000000"},{"id":"64404","name":"Sosa-shi","state_id":821,"state_code":"12","country_id":109,"country_code":"JP","latitude":"35.69983000","longitude":"140.55366000"},{"id":"64357","name":"Shiroi","state_id":821,"state_code":"12","country_id":109,"country_code":"JP","latitude":"35.80000000","longitude":"140.06667000"},{"id":"64358","name":"Shiroi-shi","state_id":821,"state_code":"12","country_id":109,"country_code":"JP","latitude":"35.80164000","longitude":"140.06005000"},{"id":"64362","name":"Shisui","state_id":821,"state_code":"12","country_id":109,"country_code":"JP","latitude":"35.71667000","longitude":"140.26667000"},{"id":"64373","name":"Sodegaura-shi","state_id":821,"state_code":"12","country_id":109,"country_code":"JP","latitude":"35.41642000","longitude":"140.01771000"},{"id":"64474","name":"Tateyama","state_id":821,"state_code":"12","country_id":109,"country_code":"JP","latitude":"34.98333000","longitude":"139.86667000"},{"id":"64475","name":"Tateyama-shi","state_id":821,"state_code":"12","country_id":109,"country_code":"JP","latitude":"34.97156000","longitude":"139.86163000"},{"id":"64566","name":"Togane","state_id":821,"state_code":"12","country_id":109,"country_code":"JP","latitude":"35.55000000","longitude":"140.36667000"},{"id":"64567","name":"Togane-shi","state_id":821,"state_code":"12","country_id":109,"country_code":"JP","latitude":"35.56517000","longitude":"140.36707000"},{"id":"64508","name":"Tomisato-shi","state_id":821,"state_code":"12","country_id":109,"country_code":"JP","latitude":"35.72024000","longitude":"140.34080000"},{"id":"64598","name":"Urayasu-shi","state_id":821,"state_code":"12","country_id":109,"country_code":"JP","latitude":"35.64250000","longitude":"139.90192000"},{"id":"64629","name":"Yachimata","state_id":821,"state_code":"12","country_id":109,"country_code":"JP","latitude":"35.65000000","longitude":"140.31667000"},{"id":"64630","name":"Yachimata-shi","state_id":821,"state_code":"12","country_id":109,"country_code":"JP","latitude":"35.64241000","longitude":"140.29686000"},{"id":"64631","name":"Yachiyo-shi","state_id":821,"state_code":"12","country_id":109,"country_code":"JP","latitude":"35.73921000","longitude":"140.10502000"},{"id":"64703","name":"Yokaichiba","state_id":821,"state_code":"12","country_id":109,"country_code":"JP","latitude":"35.70000000","longitude":"140.55000000"},{"id":"64690","name":"Yotsukaido","state_id":821,"state_code":"12","country_id":109,"country_code":"JP","latitude":"35.65000000","longitude":"140.16667000"},{"id":"64691","name":"Yotsukaido-shi","state_id":821,"state_code":"12","country_id":109,"country_code":"JP","latitude":"35.67167000","longitude":"140.17912000"}]