[{"id":"64728","name":"Oita","state_id":822,"state_code":"44","country_id":109,"country_code":"JP","latitude":"33.23333000","longitude":"131.60000000"},{"id":"64729","name":"Oita-shi","state_id":822,"state_code":"44","country_id":109,"country_code":"JP","latitude":"33.17980000","longitude":"131.64085000"},{"id":"63283","name":"Beppu","state_id":822,"state_code":"44","country_id":109,"country_code":"JP","latitude":"33.27945000","longitude":"131.49751000"},{"id":"63284","name":"Beppu Shi","state_id":822,"state_code":"44","country_id":109,"country_code":"JP","latitude":"33.28573000","longitude":"131.45280000"},{"id":"63288","name":"Bungo-ono Shi","state_id":822,"state_code":"44","country_id":109,"country_code":"JP","latitude":"32.97249000","longitude":"131.51210000"},{"id":"63287","name":"Bungo-Takada-shi","state_id":822,"state_code":"44","country_id":109,"country_code":"JP","latitude":"33.55670000","longitude":"131.44506000"},{"id":"63472","name":"Hiji","state_id":822,"state_code":"44","country_id":109,"country_code":"JP","latitude":"33.37081000","longitude":"131.53025000"},{"id":"63502","name":"Hita","state_id":822,"state_code":"44","country_id":109,"country_code":"JP","latitude":"33.32130000","longitude":"130.94098000"},{"id":"63503","name":"Hita Shi","state_id":822,"state_code":"44","country_id":109,"country_code":"JP","latitude":"33.24452000","longitude":"130.95063000"},{"id":"63813","name":"Kitsuki","state_id":822,"state_code":"44","country_id":109,"country_code":"JP","latitude":"33.41998000","longitude":"131.61837000"},{"id":"63814","name":"Kitsuki Shi","state_id":822,"state_code":"44","country_id":109,"country_code":"JP","latitude":"33.44729000","longitude":"131.53670000"},{"id":"63863","name":"Kunisaki-shi","state_id":822,"state_code":"44","country_id":109,"country_code":"JP","latitude":"33.56543000","longitude":"131.73157000"},{"id":"64089","name":"Nakatsu","state_id":822,"state_code":"44","country_id":109,"country_code":"JP","latitude":"33.59811000","longitude":"131.18830000"},{"id":"64090","name":"Nakatsu Shi","state_id":822,"state_code":"44","country_id":109,"country_code":"JP","latitude":"33.46458000","longitude":"131.12642000"},{"id":"64248","name":"Saiki","state_id":822,"state_code":"44","country_id":109,"country_code":"JP","latitude":"32.95000000","longitude":"131.90000000"},{"id":"64249","name":"Saiki-shi","state_id":822,"state_code":"44","country_id":109,"country_code":"JP","latitude":"32.88598000","longitude":"131.77600000"},{"id":"64443","name":"Takedamachi","state_id":822,"state_code":"44","country_id":109,"country_code":"JP","latitude":"32.96667000","longitude":"131.40000000"},{"id":"64449","name":"Taketa-shi","state_id":822,"state_code":"44","country_id":109,"country_code":"JP","latitude":"32.99774000","longitude":"131.32724000"},{"id":"64544","name":"Tsukawaki","state_id":822,"state_code":"44","country_id":109,"country_code":"JP","latitude":"33.27668000","longitude":"131.15628000"},{"id":"64549","name":"Tsukumi-shi","state_id":822,"state_code":"44","country_id":109,"country_code":"JP","latitude":"33.06667000","longitude":"131.86667000"},{"id":"64550","name":"Tsukumiura","state_id":822,"state_code":"44","country_id":109,"country_code":"JP","latitude":"33.07539000","longitude":"131.86907000"},{"id":"64559","name":"Tsurusaki","state_id":822,"state_code":"44","country_id":109,"country_code":"JP","latitude":"33.24528000","longitude":"131.69165000"},{"id":"64601","name":"Usa Shi","state_id":822,"state_code":"44","country_id":109,"country_code":"JP","latitude":"33.44996000","longitude":"131.33662000"},{"id":"64605","name":"Usuki","state_id":822,"state_code":"44","country_id":109,"country_code":"JP","latitude":"33.12342000","longitude":"131.80401000"},{"id":"64606","name":"Usuki Shi","state_id":822,"state_code":"44","country_id":109,"country_code":"JP","latitude":"33.07223000","longitude":"131.74457000"},{"id":"64694","name":"Yufu-shi","state_id":822,"state_code":"44","country_id":109,"country_code":"JP","latitude":"33.17923000","longitude":"131.43219000"}]