[{"id":"63420","name":"Hakui","state_id":830,"state_code":"17","country_id":109,"country_code":"JP","latitude":"36.88333000","longitude":"136.78333000"},{"id":"63421","name":"Hakui Shi","state_id":830,"state_code":"17","country_id":109,"country_code":"JP","latitude":"36.91136000","longitude":"136.81626000"},{"id":"63422","name":"Hakusan Shi","state_id":830,"state_code":"17","country_id":109,"country_code":"JP","latitude":"36.27558000","longitude":"136.66966000"},{"id":"63657","name":"Kaga Shi","state_id":830,"state_code":"17","country_id":109,"country_code":"JP","latitude":"36.25503000","longitude":"136.37963000"},{"id":"63660","name":"Kahoku Shi","state_id":830,"state_code":"17","country_id":109,"country_code":"JP","latitude":"36.74365000","longitude":"136.73273000"},{"id":"63706","name":"Kanazawa","state_id":830,"state_code":"17","country_id":109,"country_code":"JP","latitude":"36.60000000","longitude":"136.61667000"},{"id":"63707","name":"Kanazawa-shi","state_id":830,"state_code":"17","country_id":109,"country_code":"JP","latitude":"36.51919000","longitude":"136.70836000"},{"id":"63837","name":"Komatsu","state_id":830,"state_code":"17","country_id":109,"country_code":"JP","latitude":"36.40263000","longitude":"136.45088000"},{"id":"63938","name":"Matsuto","state_id":830,"state_code":"17","country_id":109,"country_code":"JP","latitude":"36.51667000","longitude":"136.56667000"},{"id":"64099","name":"Nanao Shi","state_id":830,"state_code":"17","country_id":109,"country_code":"JP","latitude":"37.07844000","longitude":"136.92860000"},{"id":"64165","name":"Nomi Shi","state_id":830,"state_code":"17","country_id":109,"country_code":"JP","latitude":"36.43593000","longitude":"136.54456000"},{"id":"64166","name":"Nonoichi","state_id":830,"state_code":"17","country_id":109,"country_code":"JP","latitude":"36.53333000","longitude":"136.61667000"},{"id":"64167","name":"Nonoichi-shi","state_id":830,"state_code":"17","country_id":109,"country_code":"JP","latitude":"36.52288000","longitude":"136.60589000"},{"id":"64394","name":"Suzu","state_id":830,"state_code":"17","country_id":109,"country_code":"JP","latitude":"37.43459000","longitude":"137.26009000"},{"id":"64395","name":"Suzu Shi","state_id":830,"state_code":"17","country_id":109,"country_code":"JP","latitude":"37.45533000","longitude":"137.22587000"},{"id":"64539","name":"Tsubata","state_id":830,"state_code":"17","country_id":109,"country_code":"JP","latitude":"36.67012000","longitude":"136.74030000"},{"id":"64556","name":"Tsurugi-asahimachi","state_id":830,"state_code":"17","country_id":109,"country_code":"JP","latitude":"36.45000000","longitude":"136.63333000"},{"id":"64615","name":"Wajima Shi","state_id":830,"state_code":"17","country_id":109,"country_code":"JP","latitude":"37.33753000","longitude":"136.88757000"}]