[{"id":"63501","name":"Hisai-motomachi","state_id":833,"state_code":"24","country_id":109,"country_code":"JP","latitude":"34.66667000","longitude":"136.46667000"},{"id":"63546","name":"Iga-shi","state_id":833,"state_code":"24","country_id":109,"country_code":"JP","latitude":"34.76855000","longitude":"136.13013000"},{"id":"63567","name":"Inabe","state_id":833,"state_code":"24","country_id":109,"country_code":"JP","latitude":"35.11344000","longitude":"136.57205000"},{"id":"63568","name":"Inabe-shi","state_id":833,"state_code":"24","country_id":109,"country_code":"JP","latitude":"35.16061000","longitude":"136.50788000"},{"id":"63584","name":"Ise","state_id":833,"state_code":"24","country_id":109,"country_code":"JP","latitude":"34.48333000","longitude":"136.70000000"},{"id":"63585","name":"Ise-shi","state_id":833,"state_code":"24","country_id":109,"country_code":"JP","latitude":"34.46740000","longitude":"136.71585000"},{"id":"63685","name":"Kameyama","state_id":833,"state_code":"24","country_id":109,"country_code":"JP","latitude":"34.85000000","longitude":"136.45000000"},{"id":"63686","name":"Kameyama Shi","state_id":833,"state_code":"24","country_id":109,"country_code":"JP","latitude":"34.86866000","longitude":"136.39345000"},{"id":"63767","name":"Kawage","state_id":833,"state_code":"24","country_id":109,"country_code":"JP","latitude":"34.80447000","longitude":"136.54645000"},{"id":"63840","name":"Komono","state_id":833,"state_code":"24","country_id":109,"country_code":"JP","latitude":"35.00000000","longitude":"136.51667000"},{"id":"63861","name":"Kumano","state_id":833,"state_code":"24","country_id":109,"country_code":"JP","latitude":"33.90389000","longitude":"136.12214000"},{"id":"63862","name":"Kumano-shi","state_id":833,"state_code":"24","country_id":109,"country_code":"JP","latitude":"33.92290000","longitude":"136.02646000"},{"id":"63888","name":"Kuwana","state_id":833,"state_code":"24","country_id":109,"country_code":"JP","latitude":"35.05192000","longitude":"136.66958000"},{"id":"63889","name":"Kuwana-shi","state_id":833,"state_code":"24","country_id":109,"country_code":"JP","latitude":"35.06176000","longitude":"136.68348000"},{"id":"63942","name":"Matsuzaka-shi","state_id":833,"state_code":"24","country_id":109,"country_code":"JP","latitude":"34.56667000","longitude":"136.53333000"},{"id":"64057","name":"Nabari","state_id":833,"state_code":"24","country_id":109,"country_code":"JP","latitude":"34.61667000","longitude":"136.08333000"},{"id":"64058","name":"Nabari-shi","state_id":833,"state_code":"24","country_id":109,"country_code":"JP","latitude":"34.62643000","longitude":"136.10825000"},{"id":"64219","name":"Owase","state_id":833,"state_code":"24","country_id":109,"country_code":"JP","latitude":"34.06667000","longitude":"136.20000000"},{"id":"64323","name":"Shima","state_id":833,"state_code":"24","country_id":109,"country_code":"JP","latitude":"34.33333000","longitude":"136.83333000"},{"id":"64324","name":"Shima-shi","state_id":833,"state_code":"24","country_id":109,"country_code":"JP","latitude":"34.33795000","longitude":"136.81336000"},{"id":"64396","name":"Suzuka","state_id":833,"state_code":"24","country_id":109,"country_code":"JP","latitude":"34.88333000","longitude":"136.58333000"},{"id":"64397","name":"Suzuka-shi","state_id":833,"state_code":"24","country_id":109,"country_code":"JP","latitude":"34.88114000","longitude":"136.58443000"},{"id":"64485","name":"Toba","state_id":833,"state_code":"24","country_id":109,"country_code":"JP","latitude":"34.48330000","longitude":"136.84186000"},{"id":"64486","name":"Toba-shi","state_id":833,"state_code":"24","country_id":109,"country_code":"JP","latitude":"34.48333000","longitude":"136.83333000"},{"id":"64535","name":"Tsu","state_id":833,"state_code":"24","country_id":109,"country_code":"JP","latitude":"34.73333000","longitude":"136.51667000"},{"id":"64536","name":"Tsu-shi","state_id":833,"state_code":"24","country_id":109,"country_code":"JP","latitude":"34.71706000","longitude":"136.50616000"},{"id":"64581","name":"Ueno-ebisumachi","state_id":833,"state_code":"24","country_id":109,"country_code":"JP","latitude":"34.75856000","longitude":"136.13108000"},{"id":"64669","name":"Yokkaichi-shi","state_id":833,"state_code":"24","country_id":109,"country_code":"JP","latitude":"34.96475000","longitude":"136.62443000"}]