[{"id":"63222","name":"Aira Shi","state_id":840,"state_code":"46","country_id":109,"country_code":"JP","latitude":"31.78460000","longitude":"130.60668000"},{"id":"63235","name":"Akune","state_id":840,"state_code":"46","country_id":109,"country_code":"JP","latitude":"32.01667000","longitude":"130.20000000"},{"id":"63236","name":"Akune Shi","state_id":840,"state_code":"46","country_id":109,"country_code":"JP","latitude":"32.02516000","longitude":"130.19768000"},{"id":"63242","name":"Amami","state_id":840,"state_code":"46","country_id":109,"country_code":"JP","latitude":"28.37690000","longitude":"129.49379000"},{"id":"63243","name":"Amami Shi","state_id":840,"state_code":"46","country_id":109,"country_code":"JP","latitude":"28.34542000","longitude":"129.50221000"},{"id":"64733","name":"Okuchi-shinohara","state_id":840,"state_code":"46","country_id":109,"country_code":"JP","latitude":"32.06779000","longitude":"130.62439000"},{"id":"63428","name":"Hamanoichi","state_id":840,"state_code":"46","country_id":109,"country_code":"JP","latitude":"31.71667000","longitude":"130.73333000"},{"id":"63485","name":"Hioki","state_id":840,"state_code":"46","country_id":109,"country_code":"JP","latitude":"31.58333000","longitude":"130.35000000"},{"id":"63486","name":"Hioki Shi","state_id":840,"state_code":"46","country_id":109,"country_code":"JP","latitude":"31.59929000","longitude":"130.38208000"},{"id":"63535","name":"Ibusuki","state_id":840,"state_code":"46","country_id":109,"country_code":"JP","latitude":"31.23333000","longitude":"130.65000000"},{"id":"63536","name":"Ibusuki Shi","state_id":840,"state_code":"46","country_id":109,"country_code":"JP","latitude":"31.22962000","longitude":"130.58060000"},{"id":"63540","name":"Ichikikushikino Shi","state_id":840,"state_code":"46","country_id":109,"country_code":"JP","latitude":"31.73281000","longitude":"130.28893000"},{"id":"63553","name":"Ijuin","state_id":840,"state_code":"46","country_id":109,"country_code":"JP","latitude":"31.61667000","longitude":"130.40000000"},{"id":"63580","name":"Isa Shi","state_id":840,"state_code":"46","country_id":109,"country_code":"JP","latitude":"32.05835000","longitude":"130.60104000"},{"id":"63641","name":"Izumi","state_id":840,"state_code":"46","country_id":109,"country_code":"JP","latitude":"32.08333000","longitude":"130.36667000"},{"id":"63642","name":"Izumi Shi","state_id":840,"state_code":"46","country_id":109,"country_code":"JP","latitude":"32.06412000","longitude":"130.36097000"},{"id":"63658","name":"Kagoshima","state_id":840,"state_code":"46","country_id":109,"country_code":"JP","latitude":"31.56667000","longitude":"130.55000000"},{"id":"63659","name":"Kagoshima Shi","state_id":840,"state_code":"46","country_id":109,"country_code":"JP","latitude":"31.58003000","longitude":"130.52806000"},{"id":"63667","name":"Kajiki","state_id":840,"state_code":"46","country_id":109,"country_code":"JP","latitude":"31.73333000","longitude":"130.66667000"},{"id":"63713","name":"Kanoya","state_id":840,"state_code":"46","country_id":109,"country_code":"JP","latitude":"31.38333000","longitude":"130.85000000"},{"id":"63714","name":"Kanoya Shi","state_id":840,"state_code":"46","country_id":109,"country_code":"JP","latitude":"31.42664000","longitude":"130.86735000"},{"id":"63732","name":"Kaseda-shirakame","state_id":840,"state_code":"46","country_id":109,"country_code":"JP","latitude":"31.41667000","longitude":"130.31667000"},{"id":"63789","name":"Kirishima Shi","state_id":840,"state_code":"46","country_id":109,"country_code":"JP","latitude":"31.80558000","longitude":"130.78164000"},{"id":"63829","name":"Kokubu-matsuki","state_id":840,"state_code":"46","country_id":109,"country_code":"JP","latitude":"31.73333000","longitude":"130.76667000"},{"id":"63847","name":"Koseda","state_id":840,"state_code":"46","country_id":109,"country_code":"JP","latitude":"30.38796000","longitude":"130.64924000"},{"id":"63849","name":"Koshima","state_id":840,"state_code":"46","country_id":109,"country_code":"JP","latitude":"30.23461000","longitude":"130.53517000"},{"id":"63873","name":"Kurio","state_id":840,"state_code":"46","country_id":109,"country_code":"JP","latitude":"30.27123000","longitude":"130.42360000"},{"id":"63883","name":"Kushikino","state_id":840,"state_code":"46","country_id":109,"country_code":"JP","latitude":"31.71667000","longitude":"130.26667000"},{"id":"63918","name":"Makurazaki","state_id":840,"state_code":"46","country_id":109,"country_code":"JP","latitude":"31.26667000","longitude":"130.31667000"},{"id":"63919","name":"Makurazaki Shi","state_id":840,"state_code":"46","country_id":109,"country_code":"JP","latitude":"31.29139000","longitude":"130.30681000"},{"id":"63967","name":"Minamikyushu Shi","state_id":840,"state_code":"46","country_id":109,"country_code":"JP","latitude":"31.34038000","longitude":"130.43677000"},{"id":"63969","name":"Minamisatsuma Shi","state_id":840,"state_code":"46","country_id":109,"country_code":"JP","latitude":"31.38793000","longitude":"130.26961000"},{"id":"64006","name":"Miyanoura","state_id":840,"state_code":"46","country_id":109,"country_code":"JP","latitude":"30.42690000","longitude":"130.57151000"},{"id":"64073","name":"Nagata","state_id":840,"state_code":"46","country_id":109,"country_code":"JP","latitude":"30.39516000","longitude":"130.42548000"},{"id":"64119","name":"Naze","state_id":840,"state_code":"46","country_id":109,"country_code":"JP","latitude":"28.36667000","longitude":"129.48333000"},{"id":"64150","name":"Nishinoomote","state_id":840,"state_code":"46","country_id":109,"country_code":"JP","latitude":"30.73333000","longitude":"131.00000000"},{"id":"64151","name":"Nishinoomote Shi","state_id":840,"state_code":"46","country_id":109,"country_code":"JP","latitude":"30.70536000","longitude":"131.01521000"},{"id":"64291","name":"Satsumasendai","state_id":840,"state_code":"46","country_id":109,"country_code":"JP","latitude":"31.81667000","longitude":"130.30000000"},{"id":"64292","name":"Satsumasendai Shi","state_id":840,"state_code":"46","country_id":109,"country_code":"JP","latitude":"31.82376000","longitude":"130.25899000"},{"id":"64314","name":"Shibushi","state_id":840,"state_code":"46","country_id":109,"country_code":"JP","latitude":"31.47600000","longitude":"131.10114000"},{"id":"64315","name":"Shibushi-shi","state_id":840,"state_code":"46","country_id":109,"country_code":"JP","latitude":"31.48333000","longitude":"131.10000000"},{"id":"64374","name":"Soo Shi","state_id":840,"state_code":"46","country_id":109,"country_code":"JP","latitude":"31.65615000","longitude":"130.97470000"},{"id":"64375","name":"Sueyoshicho-ninokata","state_id":840,"state_code":"46","country_id":109,"country_code":"JP","latitude":"31.65000000","longitude":"131.01667000"},{"id":"64470","name":"Tarumizu","state_id":840,"state_code":"46","country_id":109,"country_code":"JP","latitude":"31.48333000","longitude":"130.70000000"},{"id":"64471","name":"Tarumizu Shi","state_id":840,"state_code":"46","country_id":109,"country_code":"JP","latitude":"31.51583000","longitude":"130.76046000"},{"id":"64693","name":"Yudomari","state_id":840,"state_code":"46","country_id":109,"country_code":"JP","latitude":"30.23470000","longitude":"130.47942000"}]