[{"id":"63272","name":"Atsugi","state_id":842,"state_code":"14","country_id":109,"country_code":"JP","latitude":"35.44272000","longitude":"139.36931000"},{"id":"63273","name":"Atsugi Shi","state_id":842,"state_code":"14","country_id":109,"country_code":"JP","latitude":"35.46513000","longitude":"139.32707000"},{"id":"63279","name":"Ayase Shi","state_id":842,"state_code":"14","country_id":109,"country_code":"JP","latitude":"35.43995000","longitude":"139.43089000"},{"id":"64727","name":"Oiso","state_id":842,"state_code":"14","country_id":109,"country_code":"JP","latitude":"35.31558000","longitude":"139.31625000"},{"id":"63296","name":"Chigasaki","state_id":842,"state_code":"14","country_id":109,"country_code":"JP","latitude":"35.33638000","longitude":"139.40434000"},{"id":"63297","name":"Chigasaki Shi","state_id":842,"state_code":"14","country_id":109,"country_code":"JP","latitude":"35.34429000","longitude":"139.40958000"},{"id":"63327","name":"Ebina Shi","state_id":842,"state_code":"14","country_id":109,"country_code":"JP","latitude":"35.43762000","longitude":"139.39307000"},{"id":"63352","name":"Fujisawa","state_id":842,"state_code":"14","country_id":109,"country_code":"JP","latitude":"35.34926000","longitude":"139.47666000"},{"id":"63353","name":"Fujisawa Shi","state_id":842,"state_code":"14","country_id":109,"country_code":"JP","latitude":"35.36814000","longitude":"139.45899000"},{"id":"63411","name":"Hadano","state_id":842,"state_code":"14","country_id":109,"country_code":"JP","latitude":"35.37111000","longitude":"139.22361000"},{"id":"63412","name":"Hadano-shi","state_id":842,"state_code":"14","country_id":109,"country_code":"JP","latitude":"35.40000000","longitude":"139.20000000"},{"id":"63418","name":"Hakone","state_id":842,"state_code":"14","country_id":109,"country_code":"JP","latitude":"35.18945000","longitude":"139.02649000"},{"id":"63451","name":"Hayama","state_id":842,"state_code":"14","country_id":109,"country_code":"JP","latitude":"35.27651000","longitude":"139.57733000"},{"id":"63495","name":"Hiratsuka","state_id":842,"state_code":"14","country_id":109,"country_code":"JP","latitude":"35.32785000","longitude":"139.33735000"},{"id":"63496","name":"Hiratsuka Shi","state_id":842,"state_code":"14","country_id":109,"country_code":"JP","latitude":"35.35099000","longitude":"139.32013000"},{"id":"63586","name":"Isehara","state_id":842,"state_code":"14","country_id":109,"country_code":"JP","latitude":"35.39932000","longitude":"139.31019000"},{"id":"63587","name":"Isehara Shi","state_id":842,"state_code":"14","country_id":109,"country_code":"JP","latitude":"35.41011000","longitude":"139.29203000"},{"id":"63680","name":"Kamakura","state_id":842,"state_code":"14","country_id":109,"country_code":"JP","latitude":"35.30889000","longitude":"139.55028000"},{"id":"63681","name":"Kamakura Shi","state_id":842,"state_code":"14","country_id":109,"country_code":"JP","latitude":"35.33000000","longitude":"139.53798000"},{"id":"63775","name":"Kawasaki","state_id":842,"state_code":"14","country_id":109,"country_code":"JP","latitude":"35.52056000","longitude":"139.71722000"},{"id":"63777","name":"Kawasaki-shi","state_id":842,"state_code":"14","country_id":109,"country_code":"JP","latitude":"35.56996000","longitude":"139.62854000"},{"id":"63963","name":"Minamiashigara","state_id":842,"state_code":"14","country_id":109,"country_code":"JP","latitude":"35.31947000","longitude":"139.10960000"},{"id":"63964","name":"Minamiashigara Shi","state_id":842,"state_code":"14","country_id":109,"country_code":"JP","latitude":"35.30991000","longitude":"139.07016000"},{"id":"63968","name":"Minamirinkan","state_id":842,"state_code":"14","country_id":109,"country_code":"JP","latitude":"35.49527000","longitude":"139.44279000"},{"id":"63996","name":"Miura","state_id":842,"state_code":"14","country_id":109,"country_code":"JP","latitude":"35.14000000","longitude":"139.61917000"},{"id":"63997","name":"Miura Shi","state_id":842,"state_code":"14","country_id":109,"country_code":"JP","latitude":"35.16754000","longitude":"139.64104000"},{"id":"64142","name":"Ninomiya","state_id":842,"state_code":"14","country_id":109,"country_code":"JP","latitude":"35.30150000","longitude":"139.25581000"},{"id":"64183","name":"Odawara","state_id":842,"state_code":"14","country_id":109,"country_code":"JP","latitude":"35.25556000","longitude":"139.15972000"},{"id":"64184","name":"Odawara-shi","state_id":842,"state_code":"14","country_id":109,"country_code":"JP","latitude":"35.25000000","longitude":"139.13333000"},{"id":"64243","name":"Sagamihara-shi","state_id":842,"state_code":"14","country_id":109,"country_code":"JP","latitude":"35.55000000","longitude":"139.35000000"},{"id":"64642","name":"Yamakita","state_id":842,"state_code":"14","country_id":109,"country_code":"JP","latitude":"35.36344000","longitude":"139.07975000"},{"id":"64644","name":"Yamato-shi","state_id":842,"state_code":"14","country_id":109,"country_code":"JP","latitude":"35.46934000","longitude":"139.46165000"},{"id":"64670","name":"Yokohama","state_id":842,"state_code":"14","country_id":109,"country_code":"JP","latitude":"35.43333000","longitude":"139.65000000"},{"id":"64671","name":"Yokohama Shi","state_id":842,"state_code":"14","country_id":109,"country_code":"JP","latitude":"35.46225000","longitude":"139.57645000"},{"id":"64672","name":"Yokosuka","state_id":842,"state_code":"14","country_id":109,"country_code":"JP","latitude":"35.28361000","longitude":"139.66722000"},{"id":"64673","name":"Yokosuka Shi","state_id":842,"state_code":"14","country_id":109,"country_code":"JP","latitude":"35.24985000","longitude":"139.66033000"},{"id":"64695","name":"Yugawara","state_id":842,"state_code":"14","country_id":109,"country_code":"JP","latitude":"35.15000000","longitude":"139.06667000"},{"id":"64708","name":"Zama","state_id":842,"state_code":"14","country_id":109,"country_code":"JP","latitude":"35.48790000","longitude":"139.39101000"},{"id":"64709","name":"Zama Shi","state_id":842,"state_code":"14","country_id":109,"country_code":"JP","latitude":"35.48752000","longitude":"139.40925000"},{"id":"64711","name":"Zushi Shi","state_id":842,"state_code":"14","country_id":109,"country_code":"JP","latitude":"35.29900000","longitude":"139.59125000"}]