[{"id":"63257","name":"Asahi","state_id":848,"state_code":"18","country_id":109,"country_code":"JP","latitude":"35.97259000","longitude":"136.12455000"},{"id":"63276","name":"Awara-shi","state_id":848,"state_code":"18","country_id":109,"country_code":"JP","latitude":"36.22777000","longitude":"136.25154000"},{"id":"64726","name":"Oi-gun","state_id":848,"state_code":"18","country_id":109,"country_code":"JP","latitude":"35.49238000","longitude":"135.49311000"},{"id":"64748","name":"Ono-shi","state_id":848,"state_code":"18","country_id":109,"country_code":"JP","latitude":"35.90837000","longitude":"136.61696000"},{"id":"63329","name":"Echizen-shi","state_id":848,"state_code":"18","country_id":109,"country_code":"JP","latitude":"35.88946000","longitude":"136.17723000"},{"id":"63363","name":"Fukui-shi","state_id":848,"state_code":"18","country_id":109,"country_code":"JP","latitude":"36.06667000","longitude":"136.21667000"},{"id":"63763","name":"Katsuyama","state_id":848,"state_code":"18","country_id":109,"country_code":"JP","latitude":"36.06173000","longitude":"136.50101000"},{"id":"63764","name":"Katsuyama Shi","state_id":848,"state_code":"18","country_id":109,"country_code":"JP","latitude":"36.08440000","longitude":"136.52178000"},{"id":"63924","name":"Maruoka","state_id":848,"state_code":"18","country_id":109,"country_code":"JP","latitude":"36.15340000","longitude":"136.27029000"},{"id":"63955","name":"Mikuni","state_id":848,"state_code":"18","country_id":109,"country_code":"JP","latitude":"36.21706000","longitude":"136.15185000"},{"id":"64176","name":"Obama","state_id":848,"state_code":"18","country_id":109,"country_code":"JP","latitude":"35.49576000","longitude":"135.74604000"},{"id":"64177","name":"Obama-shi","state_id":848,"state_code":"18","country_id":109,"country_code":"JP","latitude":"35.45000000","longitude":"135.70000000"},{"id":"64209","name":"Ono","state_id":848,"state_code":"18","country_id":109,"country_code":"JP","latitude":"35.98106000","longitude":"136.48727000"},{"id":"64236","name":"Sabae","state_id":848,"state_code":"18","country_id":109,"country_code":"JP","latitude":"35.94647000","longitude":"136.18498000"},{"id":"64237","name":"Sabae-shi","state_id":848,"state_code":"18","country_id":109,"country_code":"JP","latitude":"35.95932000","longitude":"136.21835000"},{"id":"64259","name":"Sakai-shi","state_id":848,"state_code":"18","country_id":109,"country_code":"JP","latitude":"36.16406000","longitude":"136.25544000"},{"id":"64444","name":"Takefu","state_id":848,"state_code":"18","country_id":109,"country_code":"JP","latitude":"35.90393000","longitude":"136.16687000"},{"id":"64553","name":"Tsuruga","state_id":848,"state_code":"18","country_id":109,"country_code":"JP","latitude":"35.64547000","longitude":"136.05580000"},{"id":"64554","name":"Tsuruga-shi","state_id":848,"state_code":"18","country_id":109,"country_code":"JP","latitude":"35.63730000","longitude":"136.08068000"}]