[{"id":"64766","name":"Otsuki","state_id":852,"state_code":"19","country_id":109,"country_code":"JP","latitude":"35.61851000","longitude":"138.97396000"},{"id":"64767","name":"Otsuki-shi","state_id":852,"state_code":"19","country_id":109,"country_code":"JP","latitude":"35.64285000","longitude":"138.91993000"},{"id":"63316","name":"Chuo-shi","state_id":852,"state_code":"19","country_id":109,"country_code":"JP","latitude":"35.58418000","longitude":"138.54110000"},{"id":"63334","name":"Enzan","state_id":852,"state_code":"19","country_id":109,"country_code":"JP","latitude":"35.70000000","longitude":"138.73333000"},{"id":"63339","name":"Fuefuki-shi","state_id":852,"state_code":"19","country_id":109,"country_code":"JP","latitude":"35.59955000","longitude":"138.68067000"},{"id":"63341","name":"Fuji-yoshida Shi","state_id":852,"state_code":"19","country_id":109,"country_code":"JP","latitude":"35.43915000","longitude":"138.79368000"},{"id":"63344","name":"Fujikawaguchiko","state_id":852,"state_code":"19","country_id":109,"country_code":"JP","latitude":"35.48933000","longitude":"138.68832000"},{"id":"63355","name":"Fujiyoshida","state_id":852,"state_code":"19","country_id":109,"country_code":"JP","latitude":"35.44032000","longitude":"138.79586000"},{"id":"63517","name":"Hokuto","state_id":852,"state_code":"19","country_id":109,"country_code":"JP","latitude":"35.83458000","longitude":"138.39606000"},{"id":"63518","name":"Hokuto-shi","state_id":852,"state_code":"19","country_id":109,"country_code":"JP","latitude":"35.83717000","longitude":"138.39375000"},{"id":"63583","name":"Isawa","state_id":852,"state_code":"19","country_id":109,"country_code":"JP","latitude":"35.65000000","longitude":"138.63333000"},{"id":"63661","name":"Kai-shi","state_id":852,"state_code":"19","country_id":109,"country_code":"JP","latitude":"35.71627000","longitude":"138.51871000"},{"id":"63893","name":"Kofu","state_id":852,"state_code":"19","country_id":109,"country_code":"JP","latitude":"35.66667000","longitude":"138.56667000"},{"id":"63894","name":"Kofu-shi","state_id":852,"state_code":"19","country_id":109,"country_code":"JP","latitude":"35.69606000","longitude":"138.61261000"},{"id":"63902","name":"Koshu-shi","state_id":852,"state_code":"19","country_id":109,"country_code":"JP","latitude":"35.72649000","longitude":"138.79178000"},{"id":"63961","name":"Minami Alps-shi","state_id":852,"state_code":"19","country_id":109,"country_code":"JP","latitude":"35.65065000","longitude":"138.35413000"},{"id":"64143","name":"Nirasaki","state_id":852,"state_code":"19","country_id":109,"country_code":"JP","latitude":"35.70000000","longitude":"138.45000000"},{"id":"64144","name":"Nirasaki-shi","state_id":852,"state_code":"19","country_id":109,"country_code":"JP","latitude":"35.71772000","longitude":"138.41200000"},{"id":"64235","name":"Ryuo","state_id":852,"state_code":"19","country_id":109,"country_code":"JP","latitude":"35.65000000","longitude":"138.50000000"},{"id":"64552","name":"Tsuru-shi","state_id":852,"state_code":"19","country_id":109,"country_code":"JP","latitude":"35.53660000","longitude":"138.91489000"},{"id":"64582","name":"Uenohara","state_id":852,"state_code":"19","country_id":109,"country_code":"JP","latitude":"35.61667000","longitude":"139.11667000"},{"id":"64583","name":"Uenohara-shi","state_id":852,"state_code":"19","country_id":109,"country_code":"JP","latitude":"35.65000000","longitude":"139.05000000"},{"id":"64643","name":"Yamanashi-shi","state_id":852,"state_code":"19","country_id":109,"country_code":"JP","latitude":"35.79691000","longitude":"138.69743000"}]