[{"id":"64723","name":"Ogaki-shi","state_id":858,"state_code":"21","country_id":109,"country_code":"JP","latitude":"35.36485000","longitude":"136.60189000"},{"id":"63332","name":"Ena-shi","state_id":858,"state_code":"21","country_id":109,"country_code":"JP","latitude":"35.44722000","longitude":"137.41810000"},{"id":"63402","name":"Godo","state_id":858,"state_code":"21","country_id":109,"country_code":"JP","latitude":"35.41667000","longitude":"136.60000000"},{"id":"63384","name":"Gero","state_id":858,"state_code":"21","country_id":109,"country_code":"JP","latitude":"35.80000000","longitude":"137.23333000"},{"id":"63385","name":"Gero-shi","state_id":858,"state_code":"21","country_id":109,"country_code":"JP","latitude":"35.75000000","longitude":"137.25000000"},{"id":"63386","name":"Gifu-shi","state_id":858,"state_code":"21","country_id":109,"country_code":"JP","latitude":"35.44826000","longitude":"136.76470000"},{"id":"63398","name":"Gujo","state_id":858,"state_code":"21","country_id":109,"country_code":"JP","latitude":"35.73691000","longitude":"136.95852000"},{"id":"63399","name":"Gujo-shi","state_id":858,"state_code":"21","country_id":109,"country_code":"JP","latitude":"35.83298000","longitude":"136.94561000"},{"id":"63442","name":"Hashima","state_id":858,"state_code":"21","country_id":109,"country_code":"JP","latitude":"35.32900000","longitude":"136.68051000"},{"id":"63443","name":"Hashima-shi","state_id":858,"state_code":"21","country_id":109,"country_code":"JP","latitude":"35.30740000","longitude":"136.70161000"},{"id":"63455","name":"Hida","state_id":858,"state_code":"21","country_id":109,"country_code":"JP","latitude":"36.24483000","longitude":"137.17323000"},{"id":"63456","name":"Hida Shi","state_id":858,"state_code":"21","country_id":109,"country_code":"JP","latitude":"36.33272000","longitude":"137.20568000"},{"id":"63664","name":"Kaizu-shi","state_id":858,"state_code":"21","country_id":109,"country_code":"JP","latitude":"35.21381000","longitude":"136.62443000"},{"id":"63668","name":"Kakamigahara-shi","state_id":858,"state_code":"21","country_id":109,"country_code":"JP","latitude":"35.40283000","longitude":"136.87829000"},{"id":"63710","name":"Kani-shi","state_id":858,"state_code":"21","country_id":109,"country_code":"JP","latitude":"35.40589000","longitude":"137.06602000"},{"id":"63729","name":"Kasamatsucho","state_id":858,"state_code":"21","country_id":109,"country_code":"JP","latitude":"35.36667000","longitude":"136.76667000"},{"id":"63977","name":"Mino","state_id":858,"state_code":"21","country_id":109,"country_code":"JP","latitude":"35.53333000","longitude":"136.91667000"},{"id":"63978","name":"Mino-shi","state_id":858,"state_code":"21","country_id":109,"country_code":"JP","latitude":"35.57892000","longitude":"136.90120000"},{"id":"63979","name":"Minokamo","state_id":858,"state_code":"21","country_id":109,"country_code":"JP","latitude":"35.48199000","longitude":"137.02166000"},{"id":"63980","name":"Minokamo-shi","state_id":858,"state_code":"21","country_id":109,"country_code":"JP","latitude":"35.48386000","longitude":"137.02658000"},{"id":"63989","name":"Mitake","state_id":858,"state_code":"21","country_id":109,"country_code":"JP","latitude":"35.41667000","longitude":"137.13333000"},{"id":"64018","name":"Mizuho-shi","state_id":858,"state_code":"21","country_id":109,"country_code":"JP","latitude":"35.39663000","longitude":"136.67022000"},{"id":"64019","name":"Mizunami","state_id":858,"state_code":"21","country_id":109,"country_code":"JP","latitude":"35.36667000","longitude":"137.25000000"},{"id":"64020","name":"Mizunami-shi","state_id":858,"state_code":"21","country_id":109,"country_code":"JP","latitude":"35.38935000","longitude":"137.27360000"},{"id":"64041","name":"Motosu-shi","state_id":858,"state_code":"21","country_id":109,"country_code":"JP","latitude":"35.65553000","longitude":"136.61991000"},{"id":"64091","name":"Nakatsugawa","state_id":858,"state_code":"21","country_id":109,"country_code":"JP","latitude":"35.48333000","longitude":"137.50000000"},{"id":"64092","name":"Nakatsugawa-shi","state_id":858,"state_code":"21","country_id":109,"country_code":"JP","latitude":"35.56656000","longitude":"137.47433000"},{"id":"64298","name":"Seki-shi","state_id":858,"state_code":"21","country_id":109,"country_code":"JP","latitude":"35.48333000","longitude":"136.91667000"},{"id":"64415","name":"Tajimi","state_id":858,"state_code":"21","country_id":109,"country_code":"JP","latitude":"35.31667000","longitude":"137.13333000"},{"id":"64416","name":"Tajimi-shi","state_id":858,"state_code":"21","country_id":109,"country_code":"JP","latitude":"35.33401000","longitude":"137.11258000"},{"id":"64442","name":"Takayama Shi","state_id":858,"state_code":"21","country_id":109,"country_code":"JP","latitude":"36.13181000","longitude":"137.28585000"},{"id":"64469","name":"Tarui","state_id":858,"state_code":"21","country_id":109,"country_code":"JP","latitude":"35.36667000","longitude":"136.53333000"},{"id":"64491","name":"Toki","state_id":858,"state_code":"21","country_id":109,"country_code":"JP","latitude":"35.35000000","longitude":"137.18333000"},{"id":"64492","name":"Toki-shi","state_id":858,"state_code":"21","country_id":109,"country_code":"JP","latitude":"35.32418000","longitude":"137.20748000"},{"id":"64640","name":"Yamagata-shi","state_id":858,"state_code":"21","country_id":109,"country_code":"JP","latitude":"35.59892000","longitude":"136.74311000"}]