[{"id":"63227","name":"Akaiwa Shi","state_id":820,"state_code":"33","country_id":109,"country_code":"JP","latitude":"34.83767000","longitude":"134.01792000"},{"id":"63262","name":"Asakuchi Shi","state_id":820,"state_code":"33","country_id":109,"country_code":"JP","latitude":"34.53607000","longitude":"133.59456000"},{"id":"63286","name":"Bizen Shi","state_id":820,"state_code":"33","country_id":109,"country_code":"JP","latitude":"34.79504000","longitude":"134.23510000"},{"id":"63531","name":"Ibara","state_id":820,"state_code":"33","country_id":109,"country_code":"JP","latitude":"34.60000000","longitude":"133.46667000"},{"id":"63532","name":"Ibara Shi","state_id":820,"state_code":"33","country_id":109,"country_code":"JP","latitude":"34.65033000","longitude":"133.47371000"},{"id":"63701","name":"Kamogatacho-kamogata","state_id":820,"state_code":"33","country_id":109,"country_code":"JP","latitude":"34.53745000","longitude":"133.58967000"},{"id":"63730","name":"Kasaoka","state_id":820,"state_code":"33","country_id":109,"country_code":"JP","latitude":"34.50597000","longitude":"133.50391000"},{"id":"63731","name":"Kasaoka Shi","state_id":820,"state_code":"33","country_id":109,"country_code":"JP","latitude":"34.51520000","longitude":"133.50618000"},{"id":"63865","name":"Kurashiki","state_id":820,"state_code":"33","country_id":109,"country_code":"JP","latitude":"34.58333000","longitude":"133.76667000"},{"id":"63866","name":"Kurashiki Shi","state_id":820,"state_code":"33","country_id":109,"country_code":"JP","latitude":"34.55466000","longitude":"133.74826000"},{"id":"63920","name":"Maniwa-shi","state_id":820,"state_code":"33","country_id":109,"country_code":"JP","latitude":"35.13549000","longitude":"133.69358000"},{"id":"63957","name":"Mimasaka-shi","state_id":820,"state_code":"33","country_id":109,"country_code":"JP","latitude":"35.04419000","longitude":"134.23052000"},{"id":"64133","name":"Niimi","state_id":820,"state_code":"33","country_id":109,"country_code":"JP","latitude":"34.98333000","longitude":"133.46667000"},{"id":"64134","name":"Niimi Shi","state_id":820,"state_code":"33","country_id":109,"country_code":"JP","latitude":"35.01571000","longitude":"133.44900000"},{"id":"64195","name":"Okayama","state_id":820,"state_code":"33","country_id":109,"country_code":"JP","latitude":"34.65000000","longitude":"133.93333000"},{"id":"64196","name":"Okayama Shi","state_id":820,"state_code":"33","country_id":109,"country_code":"JP","latitude":"34.71251000","longitude":"133.92329000"},{"id":"64398","name":"Soja","state_id":820,"state_code":"33","country_id":109,"country_code":"JP","latitude":"34.67534000","longitude":"133.75091000"},{"id":"64399","name":"Soja Shi","state_id":820,"state_code":"33","country_id":109,"country_code":"JP","latitude":"34.70269000","longitude":"133.70218000"},{"id":"64306","name":"Setouchi Shi","state_id":820,"state_code":"33","country_id":109,"country_code":"JP","latitude":"34.66539000","longitude":"134.14161000"},{"id":"64422","name":"Takahashi","state_id":820,"state_code":"33","country_id":109,"country_code":"JP","latitude":"34.78333000","longitude":"133.61667000"},{"id":"64423","name":"Takahashi Shi","state_id":820,"state_code":"33","country_id":109,"country_code":"JP","latitude":"34.82103000","longitude":"133.52435000"},{"id":"64459","name":"Tamano","state_id":820,"state_code":"33","country_id":109,"country_code":"JP","latitude":"34.51745000","longitude":"133.94574000"},{"id":"64460","name":"Tamano Shi","state_id":820,"state_code":"33","country_id":109,"country_code":"JP","latitude":"34.52507000","longitude":"133.93769000"},{"id":"64563","name":"Tsuyama","state_id":820,"state_code":"33","country_id":109,"country_code":"JP","latitude":"35.05215000","longitude":"133.99885000"},{"id":"64564","name":"Tsuyama-shi","state_id":820,"state_code":"33","country_id":109,"country_code":"JP","latitude":"35.14048000","longitude":"134.03181000"},{"id":"63213","name":"Abiko","state_id":821,"state_code":"12","country_id":109,"country_code":"JP","latitude":"35.86667000","longitude":"140.01667000"},{"id":"63214","name":"Abiko-shi","state_id":821,"state_code":"12","country_id":109,"country_code":"JP","latitude":"35.86947000","longitude":"140.06510000"},{"id":"63258","name":"Asahi-shi","state_id":821,"state_code":"12","country_id":109,"country_code":"JP","latitude":"35.73443000","longitude":"140.65549000"},{"id":"64712","name":"Oami","state_id":821,"state_code":"12","country_id":109,"country_code":"JP","latitude":"35.51667000","longitude":"140.31667000"},{"id":"64713","name":"Oamishirasato-shi","state_id":821,"state_code":"12","country_id":109,"country_code":"JP","latitude":"35.51279000","longitude":"140.34295000"},{"id":"64724","name":"Ohara","state_id":821,"state_code":"12","country_id":109,"country_code":"JP","latitude":"35.24761000","longitude":"140.39289000"},{"id":"63314","name":"Choshi-shi","state_id":821,"state_code":"12","country_id":109,"country_code":"JP","latitude":"35.74303000","longitude":"140.77552000"},{"id":"63293","name":"Chiba","state_id":821,"state_code":"12","country_id":109,"country_code":"JP","latitude":"35.60000000","longitude":"140.11667000"},{"id":"63375","name":"Funabashi-shi","state_id":821,"state_code":"12","country_id":109,"country_code":"JP","latitude":"35.69455000","longitude":"139.98255000"},{"id":"63381","name":"Futtsu","state_id":821,"state_code":"12","country_id":109,"country_code":"JP","latitude":"35.31080000","longitude":"139.81877000"},{"id":"63441","name":"Hasaki","state_id":821,"state_code":"12","country_id":109,"country_code":"JP","latitude":"35.73333000","longitude":"140.83333000"},{"id":"63520","name":"Honcho","state_id":821,"state_code":"12","country_id":109,"country_code":"JP","latitude":"35.70129000","longitude":"139.98648000"},{"id":"63537","name":"Ichihara","state_id":821,"state_code":"12","country_id":109,"country_code":"JP","latitude":"35.51667000","longitude":"140.08333000"},{"id":"63538","name":"Ichihara Shi","state_id":821,"state_code":"12","country_id":109,"country_code":"JP","latitude":"35.42484000","longitude":"140.13725000"},{"id":"63539","name":"Ichikawa Shi","state_id":821,"state_code":"12","country_id":109,"country_code":"JP","latitude":"35.71865000","longitude":"139.93294000"},{"id":"63578","name":"Inzai-shi","state_id":821,"state_code":"12","country_id":109,"country_code":"JP","latitude":"35.81207000","longitude":"140.14098000"},{"id":"63603","name":"Isumi","state_id":821,"state_code":"12","country_id":109,"country_code":"JP","latitude":"35.23005000","longitude":"140.40492000"},{"id":"63604","name":"Isumi Shi","state_id":821,"state_code":"12","country_id":109,"country_code":"JP","latitude":"35.27777000","longitude":"140.34335000"},{"id":"63677","name":"Kamagaya Shi","state_id":821,"state_code":"12","country_id":109,"country_code":"JP","latitude":"35.77289000","longitude":"139.99883000"},{"id":"63702","name":"Kamogawa","state_id":821,"state_code":"12","country_id":109,"country_code":"JP","latitude":"35.09690000","longitude":"140.10030000"},{"id":"63703","name":"Kamogawa-shi","state_id":821,"state_code":"12","country_id":109,"country_code":"JP","latitude":"35.10000000","longitude":"140.10000000"},{"id":"63739","name":"Kashiwa","state_id":821,"state_code":"12","country_id":109,"country_code":"JP","latitude":"35.86224000","longitude":"139.97732000"},{"id":"63740","name":"Kashiwa Shi","state_id":821,"state_code":"12","country_id":109,"country_code":"JP","latitude":"35.86017000","longitude":"139.99386000"},{"id":"63754","name":"Katori-shi","state_id":821,"state_code":"12","country_id":109,"country_code":"JP","latitude":"35.88333000","longitude":"140.51667000"},{"id":"63760","name":"Katsuura","state_id":821,"state_code":"12","country_id":109,"country_code":"JP","latitude":"35.14621000","longitude":"140.31507000"},{"id":"63762","name":"Katsuura-shi","state_id":821,"state_code":"12","country_id":109,"country_code":"JP","latitude":"35.17535000","longitude":"140.26760000"},{"id":"63787","name":"Kimitsu","state_id":821,"state_code":"12","country_id":109,"country_code":"JP","latitude":"35.35043000","longitude":"139.87029000"},{"id":"63793","name":"Kisarazu","state_id":821,"state_code":"12","country_id":109,"country_code":"JP","latitude":"35.38329000","longitude":"139.93254000"},{"id":"63794","name":"Kisarazu Shi","state_id":821,"state_code":"12","country_id":109,"country_code":"JP","latitude":"35.36981000","longitude":"139.98749000"},{"id":"63932","name":"Matsudo Shi","state_id":821,"state_code":"12","country_id":109,"country_code":"JP","latitude":"35.79574000","longitude":"139.92908000"},{"id":"63966","name":"Minamiboso Shi","state_id":821,"state_code":"12","country_id":109,"country_code":"JP","latitude":"35.03657000","longitude":"139.92847000"},{"id":"64022","name":"Mobara","state_id":821,"state_code":"12","country_id":109,"country_code":"JP","latitude":"35.42583000","longitude":"140.29608000"},{"id":"64023","name":"Mobara Shi","state_id":821,"state_code":"12","country_id":109,"country_code":"JP","latitude":"35.44981000","longitude":"140.30163000"},{"id":"64069","name":"Nagareyama","state_id":821,"state_code":"12","country_id":109,"country_code":"JP","latitude":"35.85630000","longitude":"139.90266000"},{"id":"64070","name":"Nagareyama-shi","state_id":821,"state_code":"12","country_id":109,"country_code":"JP","latitude":"35.85631000","longitude":"139.90266000"},{"id":"64107","name":"Narashino-shi","state_id":821,"state_code":"12","country_id":109,"country_code":"JP","latitude":"35.68091000","longitude":"140.03418000"},{"id":"64108","name":"Narita","state_id":821,"state_code":"12","country_id":109,"country_code":"JP","latitude":"35.78333000","longitude":"140.31667000"},{"id":"64109","name":"Narita-shi","state_id":821,"state_code":"12","country_id":109,"country_code":"JP","latitude":"35.81547000","longitude":"140.35757000"},{"id":"64112","name":"Naruto","state_id":821,"state_code":"12","country_id":109,"country_code":"JP","latitude":"35.60000000","longitude":"140.41667000"},{"id":"64163","name":"Noda","state_id":821,"state_code":"12","country_id":109,"country_code":"JP","latitude":"35.94897000","longitude":"139.86793000"},{"id":"64164","name":"Noda-shi","state_id":821,"state_code":"12","country_id":109,"country_code":"JP","latitude":"35.98516000","longitude":"139.86215000"},{"id":"64204","name":"Omigawa","state_id":821,"state_code":"12","country_id":109,"country_code":"JP","latitude":"35.85000000","longitude":"140.61667000"},{"id":"64268","name":"Sakura","state_id":821,"state_code":"12","country_id":109,"country_code":"JP","latitude":"35.71667000","longitude":"140.23333000"},{"id":"64269","name":"Sakura-shi","state_id":821,"state_code":"12","country_id":109,"country_code":"JP","latitude":"35.70619000","longitude":"140.21326000"},{"id":"64275","name":"Sambu-gun","state_id":821,"state_code":"12","country_id":109,"country_code":"JP","latitude":"35.68843000","longitude":"140.45346000"},{"id":"64279","name":"Sanmu","state_id":821,"state_code":"12","country_id":109,"country_code":"JP","latitude":"35.62756000","longitude":"140.41762000"},{"id":"64280","name":"Sanmu-shi","state_id":821,"state_code":"12","country_id":109,"country_code":"JP","latitude":"35.62397000","longitude":"140.42079000"},{"id":"64295","name":"Sawara","state_id":821,"state_code":"12","country_id":109,"country_code":"JP","latitude":"35.88333000","longitude":"140.50000000"},{"id":"64404","name":"Sosa-shi","state_id":821,"state_code":"12","country_id":109,"country_code":"JP","latitude":"35.69983000","longitude":"140.55366000"},{"id":"64357","name":"Shiroi","state_id":821,"state_code":"12","country_id":109,"country_code":"JP","latitude":"35.80000000","longitude":"140.06667000"},{"id":"64358","name":"Shiroi-shi","state_id":821,"state_code":"12","country_id":109,"country_code":"JP","latitude":"35.80164000","longitude":"140.06005000"},{"id":"64362","name":"Shisui","state_id":821,"state_code":"12","country_id":109,"country_code":"JP","latitude":"35.71667000","longitude":"140.26667000"},{"id":"64373","name":"Sodegaura-shi","state_id":821,"state_code":"12","country_id":109,"country_code":"JP","latitude":"35.41642000","longitude":"140.01771000"},{"id":"64474","name":"Tateyama","state_id":821,"state_code":"12","country_id":109,"country_code":"JP","latitude":"34.98333000","longitude":"139.86667000"},{"id":"64475","name":"Tateyama-shi","state_id":821,"state_code":"12","country_id":109,"country_code":"JP","latitude":"34.97156000","longitude":"139.86163000"},{"id":"64566","name":"Togane","state_id":821,"state_code":"12","country_id":109,"country_code":"JP","latitude":"35.55000000","longitude":"140.36667000"},{"id":"64567","name":"Togane-shi","state_id":821,"state_code":"12","country_id":109,"country_code":"JP","latitude":"35.56517000","longitude":"140.36707000"},{"id":"64508","name":"Tomisato-shi","state_id":821,"state_code":"12","country_id":109,"country_code":"JP","latitude":"35.72024000","longitude":"140.34080000"},{"id":"64598","name":"Urayasu-shi","state_id":821,"state_code":"12","country_id":109,"country_code":"JP","latitude":"35.64250000","longitude":"139.90192000"},{"id":"64629","name":"Yachimata","state_id":821,"state_code":"12","country_id":109,"country_code":"JP","latitude":"35.65000000","longitude":"140.31667000"},{"id":"64630","name":"Yachimata-shi","state_id":821,"state_code":"12","country_id":109,"country_code":"JP","latitude":"35.64241000","longitude":"140.29686000"},{"id":"64631","name":"Yachiyo-shi","state_id":821,"state_code":"12","country_id":109,"country_code":"JP","latitude":"35.73921000","longitude":"140.10502000"},{"id":"64703","name":"Yokaichiba","state_id":821,"state_code":"12","country_id":109,"country_code":"JP","latitude":"35.70000000","longitude":"140.55000000"},{"id":"64690","name":"Yotsukaido","state_id":821,"state_code":"12","country_id":109,"country_code":"JP","latitude":"35.65000000","longitude":"140.16667000"},{"id":"64691","name":"Yotsukaido-shi","state_id":821,"state_code":"12","country_id":109,"country_code":"JP","latitude":"35.67167000","longitude":"140.17912000"},{"id":"64728","name":"Oita","state_id":822,"state_code":"44","country_id":109,"country_code":"JP","latitude":"33.23333000","longitude":"131.60000000"},{"id":"64729","name":"Oita-shi","state_id":822,"state_code":"44","country_id":109,"country_code":"JP","latitude":"33.17980000","longitude":"131.64085000"},{"id":"63283","name":"Beppu","state_id":822,"state_code":"44","country_id":109,"country_code":"JP","latitude":"33.27945000","longitude":"131.49751000"},{"id":"63284","name":"Beppu Shi","state_id":822,"state_code":"44","country_id":109,"country_code":"JP","latitude":"33.28573000","longitude":"131.45280000"},{"id":"63288","name":"Bungo-ono Shi","state_id":822,"state_code":"44","country_id":109,"country_code":"JP","latitude":"32.97249000","longitude":"131.51210000"},{"id":"63287","name":"Bungo-Takada-shi","state_id":822,"state_code":"44","country_id":109,"country_code":"JP","latitude":"33.55670000","longitude":"131.44506000"},{"id":"63472","name":"Hiji","state_id":822,"state_code":"44","country_id":109,"country_code":"JP","latitude":"33.37081000","longitude":"131.53025000"},{"id":"63502","name":"Hita","state_id":822,"state_code":"44","country_id":109,"country_code":"JP","latitude":"33.32130000","longitude":"130.94098000"},{"id":"63503","name":"Hita Shi","state_id":822,"state_code":"44","country_id":109,"country_code":"JP","latitude":"33.24452000","longitude":"130.95063000"},{"id":"63813","name":"Kitsuki","state_id":822,"state_code":"44","country_id":109,"country_code":"JP","latitude":"33.41998000","longitude":"131.61837000"},{"id":"63814","name":"Kitsuki Shi","state_id":822,"state_code":"44","country_id":109,"country_code":"JP","latitude":"33.44729000","longitude":"131.53670000"},{"id":"63863","name":"Kunisaki-shi","state_id":822,"state_code":"44","country_id":109,"country_code":"JP","latitude":"33.56543000","longitude":"131.73157000"},{"id":"64089","name":"Nakatsu","state_id":822,"state_code":"44","country_id":109,"country_code":"JP","latitude":"33.59811000","longitude":"131.18830000"},{"id":"64090","name":"Nakatsu Shi","state_id":822,"state_code":"44","country_id":109,"country_code":"JP","latitude":"33.46458000","longitude":"131.12642000"},{"id":"64248","name":"Saiki","state_id":822,"state_code":"44","country_id":109,"country_code":"JP","latitude":"32.95000000","longitude":"131.90000000"},{"id":"64249","name":"Saiki-shi","state_id":822,"state_code":"44","country_id":109,"country_code":"JP","latitude":"32.88598000","longitude":"131.77600000"},{"id":"64443","name":"Takedamachi","state_id":822,"state_code":"44","country_id":109,"country_code":"JP","latitude":"32.96667000","longitude":"131.40000000"},{"id":"64449","name":"Taketa-shi","state_id":822,"state_code":"44","country_id":109,"country_code":"JP","latitude":"32.99774000","longitude":"131.32724000"},{"id":"64544","name":"Tsukawaki","state_id":822,"state_code":"44","country_id":109,"country_code":"JP","latitude":"33.27668000","longitude":"131.15628000"},{"id":"64549","name":"Tsukumi-shi","state_id":822,"state_code":"44","country_id":109,"country_code":"JP","latitude":"33.06667000","longitude":"131.86667000"},{"id":"64550","name":"Tsukumiura","state_id":822,"state_code":"44","country_id":109,"country_code":"JP","latitude":"33.07539000","longitude":"131.86907000"},{"id":"64559","name":"Tsurusaki","state_id":822,"state_code":"44","country_id":109,"country_code":"JP","latitude":"33.24528000","longitude":"131.69165000"},{"id":"64601","name":"Usa Shi","state_id":822,"state_code":"44","country_id":109,"country_code":"JP","latitude":"33.44996000","longitude":"131.33662000"},{"id":"64605","name":"Usuki","state_id":822,"state_code":"44","country_id":109,"country_code":"JP","latitude":"33.12342000","longitude":"131.80401000"},{"id":"64606","name":"Usuki Shi","state_id":822,"state_code":"44","country_id":109,"country_code":"JP","latitude":"33.07223000","longitude":"131.74457000"},{"id":"64694","name":"Yufu-shi","state_id":822,"state_code":"44","country_id":109,"country_code":"JP","latitude":"33.17923000","longitude":"131.43219000"},{"id":"63215","name":"Adachi Ku","state_id":823,"state_code":"13","country_id":109,"country_code":"JP","latitude":"35.77880000","longitude":"139.79509000"},{"id":"63231","name":"Akiruno-shi","state_id":823,"state_code":"13","country_id":109,"country_code":"JP","latitude":"35.73285000","longitude":"139.22525000"},{"id":"63232","name":"Akishima-shi","state_id":823,"state_code":"13","country_id":109,"country_code":"JP","latitude":"35.70782000","longitude":"139.36418000"},{"id":"63252","name":"Arakawa Ku","state_id":823,"state_code":"13","country_id":109,"country_code":"JP","latitude":"35.73993000","longitude":"139.78130000"},{"id":"64738","name":"Ome","state_id":823,"state_code":"13","country_id":109,"country_code":"JP","latitude":"35.78389000","longitude":"139.24306000"},{"id":"64739","name":"Ome-shi","state_id":823,"state_code":"13","country_id":109,"country_code":"JP","latitude":"35.78814000","longitude":"139.27501000"},{"id":"64758","name":"Ota-ku","state_id":823,"state_code":"13","country_id":109,"country_code":"JP","latitude":"35.56126000","longitude":"139.71605000"},{"id":"63289","name":"Bunkyo-ku","state_id":823,"state_code":"13","country_id":109,"country_code":"JP","latitude":"35.71745000","longitude":"139.74729000"},{"id":"63312","name":"Chofu","state_id":823,"state_code":"13","country_id":109,"country_code":"JP","latitude":"35.65924000","longitude":"139.54837000"},{"id":"63313","name":"Chofu-shi","state_id":823,"state_code":"13","country_id":109,"country_code":"JP","latitude":"35.65000000","longitude":"139.55000000"},{"id":"63315","name":"Chuo Ku","state_id":823,"state_code":"13","country_id":109,"country_code":"JP","latitude":"35.66993000","longitude":"139.77705000"},{"id":"63311","name":"Chiyoda-ku","state_id":823,"state_code":"13","country_id":109,"country_code":"JP","latitude":"35.69402000","longitude":"139.75363000"},{"id":"63330","name":"Edogawa Ku","state_id":823,"state_code":"13","country_id":109,"country_code":"JP","latitude":"35.69242000","longitude":"139.87567000"},{"id":"63336","name":"Fuchu-shi","state_id":823,"state_code":"13","country_id":109,"country_code":"JP","latitude":"35.66667000","longitude":"139.50000000"},{"id":"63380","name":"Fussa","state_id":823,"state_code":"13","country_id":109,"country_code":"JP","latitude":"35.73667000","longitude":"139.32361000"},{"id":"63410","name":"Hachioji","state_id":823,"state_code":"13","country_id":109,"country_code":"JP","latitude":"35.65583000","longitude":"139.32389000"},{"id":"63429","name":"Hamura-shi","state_id":823,"state_code":"13","country_id":109,"country_code":"JP","latitude":"35.76351000","longitude":"139.31411000"},{"id":"63458","name":"Higashi-murayama-shi","state_id":823,"state_code":"13","country_id":109,"country_code":"JP","latitude":"35.75529000","longitude":"139.46972000"},{"id":"63461","name":"Higashikurume-shi","state_id":823,"state_code":"13","country_id":109,"country_code":"JP","latitude":"35.75821000","longitude":"139.52954000"},{"id":"63465","name":"Higashimurayama","state_id":823,"state_code":"13","country_id":109,"country_code":"JP","latitude":"35.75459000","longitude":"139.46852000"},{"id":"63468","name":"Higashiyamato","state_id":823,"state_code":"13","country_id":109,"country_code":"JP","latitude":"35.76298000","longitude":"139.44575000"},{"id":"63469","name":"Higashiyamato-shi","state_id":823,"state_code":"13","country_id":109,"country_code":"JP","latitude":"35.75031000","longitude":"139.42660000"},{"id":"63483","name":"Hino","state_id":823,"state_code":"13","country_id":109,"country_code":"JP","latitude":"35.67306000","longitude":"139.40028000"},{"id":"63484","name":"Hino-shi","state_id":823,"state_code":"13","country_id":109,"country_code":"JP","latitude":"35.66333000","longitude":"139.39865000"},{"id":"63569","name":"Inagi-shi","state_id":823,"state_code":"13","country_id":109,"country_code":"JP","latitude":"35.63290000","longitude":"139.49291000"},{"id":"63605","name":"Itabashi-ku","state_id":823,"state_code":"13","country_id":109,"country_code":"JP","latitude":"35.75118000","longitude":"139.70927000"},{"id":"63615","name":"Itsukaichi","state_id":823,"state_code":"13","country_id":109,"country_code":"JP","latitude":"35.72528000","longitude":"139.21778000"},{"id":"63697","name":"Kamirenjaku","state_id":823,"state_code":"13","country_id":109,"country_code":"JP","latitude":"35.69423000","longitude":"139.55495000"},{"id":"63758","name":"Katsushika Ku","state_id":823,"state_code":"13","country_id":109,"country_code":"JP","latitude":"35.75324000","longitude":"139.85567000"},{"id":"63903","name":"Koto-ku","state_id":823,"state_code":"13","country_id":109,"country_code":"JP","latitude":"35.66667000","longitude":"139.81667000"},{"id":"63797","name":"Kita-ku","state_id":823,"state_code":"13","country_id":109,"country_code":"JP","latitude":"35.75264000","longitude":"139.73348000"},{"id":"63815","name":"Kiyose-shi","state_id":823,"state_code":"13","country_id":109,"country_code":"JP","latitude":"35.78551000","longitude":"139.52628000"},{"id":"63821","name":"Kodaira-shi","state_id":823,"state_code":"13","country_id":109,"country_code":"JP","latitude":"35.72738000","longitude":"139.48173000"},{"id":"63827","name":"Koganei-shi","state_id":823,"state_code":"13","country_id":109,"country_code":"JP","latitude":"35.70108000","longitude":"139.51104000"},{"id":"63830","name":"Kokubunji","state_id":823,"state_code":"13","country_id":109,"country_code":"JP","latitude":"35.70222000","longitude":"139.47556000"},{"id":"63831","name":"Kokubunji-shi","state_id":823,"state_code":"13","country_id":109,"country_code":"JP","latitude":"35.70552000","longitude":"139.46125000"},{"id":"63832","name":"Komae-shi","state_id":823,"state_code":"13","country_id":109,"country_code":"JP","latitude":"35.63487000","longitude":"139.57723000"},{"id":"63864","name":"Kunitachi-shi","state_id":823,"state_code":"13","country_id":109,"country_code":"JP","latitude":"35.68634000","longitude":"139.43878000"},{"id":"63905","name":"Machida","state_id":823,"state_code":"13","country_id":109,"country_code":"JP","latitude":"35.54028000","longitude":"139.45083000"},{"id":"63906","name":"Machida-shi","state_id":823,"state_code":"13","country_id":109,"country_code":"JP","latitude":"35.57626000","longitude":"139.42998000"},{"id":"63943","name":"Meguro-ku","state_id":823,"state_code":"13","country_id":109,"country_code":"JP","latitude":"35.64146000","longitude":"139.69817000"},{"id":"63974","name":"Minato-ku","state_id":823,"state_code":"13","country_id":109,"country_code":"JP","latitude":"35.65000000","longitude":"139.73333000"},{"id":"63988","name":"Mitaka-shi","state_id":823,"state_code":"13","country_id":109,"country_code":"JP","latitude":"35.68351000","longitude":"139.55963000"},{"id":"64051","name":"Musashimurayama-shi","state_id":823,"state_code":"13","country_id":109,"country_code":"JP","latitude":"35.75037000","longitude":"139.38391000"},{"id":"64052","name":"Musashino","state_id":823,"state_code":"13","country_id":109,"country_code":"JP","latitude":"35.70611000","longitude":"139.55944000"},{"id":"64053","name":"Musashino-shi","state_id":823,"state_code":"13","country_id":109,"country_code":"JP","latitude":"35.71771000","longitude":"139.56600000"},{"id":"64087","name":"Nakano-ku","state_id":823,"state_code":"13","country_id":109,"country_code":"JP","latitude":"35.71091000","longitude":"139.66248000"},{"id":"64122","name":"Nerima-ku","state_id":823,"state_code":"13","country_id":109,"country_code":"JP","latitude":"35.73551000","longitude":"139.65168000"},{"id":"64146","name":"Nishi-Tokyo-shi","state_id":823,"state_code":"13","country_id":109,"country_code":"JP","latitude":"35.72526000","longitude":"139.53830000"},{"id":"64155","name":"Nishitokyo-shi","state_id":823,"state_code":"13","country_id":109,"country_code":"JP","latitude":"35.73485000","longitude":"139.54624000"},{"id":"64302","name":"Setagaya-ku","state_id":823,"state_code":"13","country_id":109,"country_code":"JP","latitude":"35.64657000","longitude":"139.65325000"},{"id":"64316","name":"Shibuya-ku","state_id":823,"state_code":"13","country_id":109,"country_code":"JP","latitude":"35.66404000","longitude":"139.69821000"},{"id":"64338","name":"Shinagawa-ku","state_id":823,"state_code":"13","country_id":109,"country_code":"JP","latitude":"35.60902000","longitude":"139.73017000"},{"id":"64342","name":"Shinjuku-ku","state_id":823,"state_code":"13","country_id":109,"country_code":"JP","latitude":"35.69384000","longitude":"139.70355000"},{"id":"64376","name":"Suginami-ku","state_id":823,"state_code":"13","country_id":109,"country_code":"JP","latitude":"35.69951000","longitude":"139.63641000"},{"id":"64383","name":"Sumida-ku","state_id":823,"state_code":"13","country_id":109,"country_code":"JP","latitude":"35.71072000","longitude":"139.80150000"},{"id":"64405","name":"Tachikawa-shi","state_id":823,"state_code":"13","country_id":109,"country_code":"JP","latitude":"35.71447000","longitude":"139.40453000"},{"id":"64414","name":"Taito-ku","state_id":823,"state_code":"13","country_id":109,"country_code":"JP","latitude":"35.71261000","longitude":"139.78000000"},{"id":"64455","name":"Tama-shi","state_id":823,"state_code":"13","country_id":109,"country_code":"JP","latitude":"35.63054000","longitude":"139.43976000"},{"id":"64465","name":"Tanashicho","state_id":823,"state_code":"13","country_id":109,"country_code":"JP","latitude":"35.72922000","longitude":"139.53813000"},{"id":"64500","name":"Tokyo","state_id":823,"state_code":"13","country_id":109,"country_code":"JP","latitude":"35.68950000","longitude":"139.69171000"},{"id":"64517","name":"Toshima-ku","state_id":823,"state_code":"13","country_id":109,"country_code":"JP","latitude":"35.73246000","longitude":"139.71540000"},{"id":"64597","name":"Urayasu","state_id":823,"state_code":"13","country_id":109,"country_code":"JP","latitude":"35.67056000","longitude":"139.88861000"},{"id":"63389","name":"Gojo","state_id":824,"state_code":"29","country_id":109,"country_code":"JP","latitude":"34.35000000","longitude":"135.70000000"},{"id":"63390","name":"Gojo-shi","state_id":824,"state_code":"29","country_id":109,"country_code":"JP","latitude":"34.35081000","longitude":"135.69489000"},{"id":"63391","name":"Gose","state_id":824,"state_code":"29","country_id":109,"country_code":"JP","latitude":"34.45000000","longitude":"135.73333000"},{"id":"63415","name":"Haibara-akanedai","state_id":824,"state_code":"29","country_id":109,"country_code":"JP","latitude":"34.53333000","longitude":"135.95000000"},{"id":"63530","name":"Horyuji","state_id":824,"state_code":"29","country_id":109,"country_code":"JP","latitude":"34.61234000","longitude":"135.73754000"},{"id":"63558","name":"Ikoma","state_id":824,"state_code":"29","country_id":109,"country_code":"JP","latitude":"34.68333000","longitude":"135.70000000"},{"id":"63559","name":"Ikoma-shi","state_id":824,"state_code":"29","country_id":109,"country_code":"JP","latitude":"34.69187000","longitude":"135.70057000"},{"id":"63733","name":"Kashiba-shi","state_id":824,"state_code":"29","country_id":109,"country_code":"JP","latitude":"34.54107000","longitude":"135.69918000"},{"id":"63735","name":"Kashihara-shi","state_id":824,"state_code":"29","country_id":109,"country_code":"JP","latitude":"34.50352000","longitude":"135.78986000"},{"id":"63755","name":"Katsuragi","state_id":824,"state_code":"29","country_id":109,"country_code":"JP","latitude":"34.48562000","longitude":"135.69698000"},{"id":"63756","name":"Katsuragi Shi","state_id":824,"state_code":"29","country_id":109,"country_code":"JP","latitude":"34.49682000","longitude":"135.70464000"},{"id":"64106","name":"Nara-shi","state_id":824,"state_code":"29","country_id":109,"country_code":"JP","latitude":"34.68506000","longitude":"135.80485000"},{"id":"64273","name":"Sakurai","state_id":824,"state_code":"29","country_id":109,"country_code":"JP","latitude":"34.50000000","longitude":"135.85000000"},{"id":"64274","name":"Sakurai-shi","state_id":824,"state_code":"29","country_id":109,"country_code":"JP","latitude":"34.51816000","longitude":"135.84320000"},{"id":"64479","name":"Tawaramoto","state_id":824,"state_code":"29","country_id":109,"country_code":"JP","latitude":"34.55420000","longitude":"135.79297000"},{"id":"64483","name":"Tenri","state_id":824,"state_code":"29","country_id":109,"country_code":"JP","latitude":"34.58333000","longitude":"135.83333000"},{"id":"64484","name":"Tenri-shi","state_id":824,"state_code":"29","country_id":109,"country_code":"JP","latitude":"34.59619000","longitude":"135.83736000"},{"id":"64577","name":"Uda Shi","state_id":824,"state_code":"29","country_id":109,"country_code":"JP","latitude":"34.52035000","longitude":"135.99787000"},{"id":"64645","name":"Yamatokoriyama-shi","state_id":824,"state_code":"29","country_id":109,"country_code":"JP","latitude":"34.64917000","longitude":"135.78278000"},{"id":"64646","name":"Yamatotakada-shi","state_id":824,"state_code":"29","country_id":109,"country_code":"JP","latitude":"34.51490000","longitude":"135.73660000"},{"id":"64687","name":"Yoshino-cho","state_id":824,"state_code":"29","country_id":109,"country_code":"JP","latitude":"34.39611000","longitude":"135.85768000"},{"id":"63270","name":"Atami","state_id":825,"state_code":"22","country_id":109,"country_code":"JP","latitude":"35.08834000","longitude":"139.05325000"},{"id":"63271","name":"Atami-shi","state_id":825,"state_code":"22","country_id":109,"country_code":"JP","latitude":"35.08957000","longitude":"139.06357000"},{"id":"64768","name":"Oyama","state_id":825,"state_code":"22","country_id":109,"country_code":"JP","latitude":"34.60359000","longitude":"138.21719000"},{"id":"63340","name":"Fuji Shi","state_id":825,"state_code":"22","country_id":109,"country_code":"JP","latitude":"35.20106000","longitude":"138.69905000"},{"id":"63342","name":"Fujieda Shi","state_id":825,"state_code":"22","country_id":109,"country_code":"JP","latitude":"34.91956000","longitude":"138.23379000"},{"id":"63347","name":"Fujinomiya","state_id":825,"state_code":"22","country_id":109,"country_code":"JP","latitude":"35.21667000","longitude":"138.61667000"},{"id":"63348","name":"Fujinomiya Shi","state_id":825,"state_code":"22","country_id":109,"country_code":"JP","latitude":"35.31753000","longitude":"138.62375000"},{"id":"63368","name":"Fukuroi","state_id":825,"state_code":"22","country_id":109,"country_code":"JP","latitude":"34.75000000","longitude":"137.91667000"},{"id":"63369","name":"Fukuroi-shi","state_id":825,"state_code":"22","country_id":109,"country_code":"JP","latitude":"34.74175000","longitude":"137.92805000"},{"id":"63396","name":"Gotenba Shi","state_id":825,"state_code":"22","country_id":109,"country_code":"JP","latitude":"35.29893000","longitude":"138.87902000"},{"id":"63425","name":"Hamakita","state_id":825,"state_code":"22","country_id":109,"country_code":"JP","latitude":"34.80000000","longitude":"137.78333000"},{"id":"63426","name":"Hamamatsu","state_id":825,"state_code":"22","country_id":109,"country_code":"JP","latitude":"34.70000000","longitude":"137.73333000"},{"id":"63427","name":"Hamamatsu-shi","state_id":825,"state_code":"22","country_id":109,"country_code":"JP","latitude":"34.95375000","longitude":"137.80733000"},{"id":"63452","name":"Heda","state_id":825,"state_code":"22","country_id":109,"country_code":"JP","latitude":"34.96277000","longitude":"138.78543000"},{"id":"63616","name":"Ito","state_id":825,"state_code":"22","country_id":109,"country_code":"JP","latitude":"34.96667000","longitude":"139.08333000"},{"id":"63617","name":"Ito Shi","state_id":825,"state_code":"22","country_id":109,"country_code":"JP","latitude":"34.93563000","longitude":"139.08725000"},{"id":"63632","name":"Iwata","state_id":825,"state_code":"22","country_id":109,"country_code":"JP","latitude":"34.70000000","longitude":"137.85000000"},{"id":"63633","name":"Iwata-shi","state_id":825,"state_code":"22","country_id":109,"country_code":"JP","latitude":"34.74451000","longitude":"137.85043000"},{"id":"63638","name":"Izu","state_id":825,"state_code":"22","country_id":109,"country_code":"JP","latitude":"34.97159000","longitude":"138.94643000"},{"id":"63639","name":"Izu-shi","state_id":825,"state_code":"22","country_id":109,"country_code":"JP","latitude":"34.92201000","longitude":"138.92585000"},{"id":"63650","name":"Izunokuni-shi","state_id":825,"state_code":"22","country_id":109,"country_code":"JP","latitude":"35.03799000","longitude":"138.97295000"},{"id":"63669","name":"Kakegawa","state_id":825,"state_code":"22","country_id":109,"country_code":"JP","latitude":"34.76667000","longitude":"138.01667000"},{"id":"63670","name":"Kakegawa Shi","state_id":825,"state_code":"22","country_id":109,"country_code":"JP","latitude":"34.77993000","longitude":"138.01897000"},{"id":"63705","name":"Kanaya","state_id":825,"state_code":"22","country_id":109,"country_code":"JP","latitude":"34.82022000","longitude":"138.12775000"},{"id":"63786","name":"Kikugawa-shi","state_id":825,"state_code":"22","country_id":109,"country_code":"JP","latitude":"34.75000000","longitude":"138.10000000"},{"id":"63845","name":"Kosai","state_id":825,"state_code":"22","country_id":109,"country_code":"JP","latitude":"34.70053000","longitude":"137.52253000"},{"id":"63846","name":"Kosai-shi","state_id":825,"state_code":"22","country_id":109,"country_code":"JP","latitude":"34.73092000","longitude":"137.51643000"},{"id":"63916","name":"Makinohara Shi","state_id":825,"state_code":"22","country_id":109,"country_code":"JP","latitude":"34.73226000","longitude":"138.18567000"},{"id":"63985","name":"Mishima","state_id":825,"state_code":"22","country_id":109,"country_code":"JP","latitude":"35.11667000","longitude":"138.91667000"},{"id":"63986","name":"Mishima Shi","state_id":825,"state_code":"22","country_id":109,"country_code":"JP","latitude":"35.13940000","longitude":"138.94882000"},{"id":"64028","name":"Mori","state_id":825,"state_code":"22","country_id":109,"country_code":"JP","latitude":"34.83333000","longitude":"137.93333000"},{"id":"64172","name":"Numazu-shi","state_id":825,"state_code":"22","country_id":109,"country_code":"JP","latitude":"35.09491000","longitude":"138.86667000"},{"id":"64203","name":"Omaezaki-shi","state_id":825,"state_code":"22","country_id":109,"country_code":"JP","latitude":"34.60000000","longitude":"138.21667000"},{"id":"64244","name":"Sagara","state_id":825,"state_code":"22","country_id":109,"country_code":"JP","latitude":"34.68503000","longitude":"138.20461000"},{"id":"64327","name":"Shimada","state_id":825,"state_code":"22","country_id":109,"country_code":"JP","latitude":"34.81667000","longitude":"138.18333000"},{"id":"64328","name":"Shimada-shi","state_id":825,"state_code":"22","country_id":109,"country_code":"JP","latitude":"34.91220000","longitude":"138.12662000"},{"id":"64330","name":"Shimoda","state_id":825,"state_code":"22","country_id":109,"country_code":"JP","latitude":"34.67652000","longitude":"138.94456000"},{"id":"64331","name":"Shimoda-shi","state_id":825,"state_code":"22","country_id":109,"country_code":"JP","latitude":"34.70879000","longitude":"138.92148000"},{"id":"64366","name":"Shizuoka","state_id":825,"state_code":"22","country_id":109,"country_code":"JP","latitude":"34.98333000","longitude":"138.38333000"},{"id":"64367","name":"Shizuoka-shi","state_id":825,"state_code":"22","country_id":109,"country_code":"JP","latitude":"35.20164000","longitude":"138.31426000"},{"id":"64388","name":"Susono","state_id":825,"state_code":"22","country_id":109,"country_code":"JP","latitude":"35.17388000","longitude":"138.90691000"},{"id":"64389","name":"Susono Shi","state_id":825,"state_code":"22","country_id":109,"country_code":"JP","latitude":"35.22551000","longitude":"138.87734000"},{"id":"64634","name":"Yaizu","state_id":825,"state_code":"22","country_id":109,"country_code":"JP","latitude":"34.86877000","longitude":"138.31952000"},{"id":"64635","name":"Yaizu Shi","state_id":825,"state_code":"22","country_id":109,"country_code":"JP","latitude":"34.84008000","longitude":"138.30127000"},{"id":"64717","name":"Oda Shi","state_id":826,"state_code":"32","country_id":109,"country_code":"JP","latitude":"35.13958000","longitude":"132.48811000"},{"id":"64718","name":"Odacho-oda","state_id":826,"state_code":"32","country_id":109,"country_code":"JP","latitude":"35.19025000","longitude":"132.50846000"},{"id":"63403","name":"Gotsu Shi","state_id":826,"state_code":"32","country_id":109,"country_code":"JP","latitude":"34.98095000","longitude":"132.29488000"},{"id":"63404","name":"Gotsucho","state_id":826,"state_code":"32","country_id":109,"country_code":"JP","latitude":"35.00856000","longitude":"132.22570000"},{"id":"63423","name":"Hamada","state_id":826,"state_code":"32","country_id":109,"country_code":"JP","latitude":"34.88333000","longitude":"132.08333000"},{"id":"63424","name":"Hamada Shi","state_id":826,"state_code":"32","country_id":109,"country_code":"JP","latitude":"34.82809000","longitude":"132.13914000"},{"id":"63494","name":"Hiratacho","state_id":826,"state_code":"32","country_id":109,"country_code":"JP","latitude":"35.43333000","longitude":"132.81667000"},{"id":"63648","name":"Izumo","state_id":826,"state_code":"32","country_id":109,"country_code":"JP","latitude":"35.36667000","longitude":"132.76667000"},{"id":"63649","name":"Izumo Shi","state_id":826,"state_code":"32","country_id":109,"country_code":"JP","latitude":"35.33858000","longitude":"132.73903000"},{"id":"63927","name":"Masuda","state_id":826,"state_code":"32","country_id":109,"country_code":"JP","latitude":"34.66667000","longitude":"131.85000000"},{"id":"63928","name":"Masuda Shi","state_id":826,"state_code":"32","country_id":109,"country_code":"JP","latitude":"34.62909000","longitude":"131.94590000"},{"id":"63933","name":"Matsue","state_id":826,"state_code":"32","country_id":109,"country_code":"JP","latitude":"35.48333000","longitude":"133.05000000"},{"id":"63934","name":"Matsue Shi","state_id":826,"state_code":"32","country_id":109,"country_code":"JP","latitude":"35.47702000","longitude":"133.05917000"},{"id":"64590","name":"Unnan Shi","state_id":826,"state_code":"32","country_id":109,"country_code":"JP","latitude":"35.24918000","longitude":"132.89478000"},{"id":"64660","name":"Yasugi Shi","state_id":826,"state_code":"32","country_id":109,"country_code":"JP","latitude":"35.33570000","longitude":"133.19761000"},{"id":"64661","name":"Yasugicho","state_id":826,"state_code":"32","country_id":109,"country_code":"JP","latitude":"35.42146000","longitude":"133.24224000"},{"id":"63223","name":"Aisai-shi","state_id":827,"state_code":"23","country_id":109,"country_code":"JP","latitude":"35.17234000","longitude":"136.69478000"},{"id":"63237","name":"Ama-gun","state_id":827,"state_code":"23","country_id":109,"country_code":"JP","latitude":"35.17174000","longitude":"136.82308000"},{"id":"63246","name":"Anjo-shi","state_id":827,"state_code":"23","country_id":109,"country_code":"JP","latitude":"34.94341000","longitude":"137.07165000"},{"id":"64715","name":"Obu","state_id":827,"state_code":"23","country_id":109,"country_code":"JP","latitude":"35.01756000","longitude":"136.94947000"},{"id":"64716","name":"Obu-shi","state_id":827,"state_code":"23","country_id":109,"country_code":"JP","latitude":"35.01920000","longitude":"136.95424000"},{"id":"63305","name":"Chiryu","state_id":827,"state_code":"23","country_id":109,"country_code":"JP","latitude":"35.00000000","longitude":"137.03333000"},{"id":"63306","name":"Chiryu-shi","state_id":827,"state_code":"23","country_id":109,"country_code":"JP","latitude":"34.99862000","longitude":"137.05000000"},{"id":"63307","name":"Chita","state_id":827,"state_code":"23","country_id":109,"country_code":"JP","latitude":"35.00267000","longitude":"136.86420000"},{"id":"63308","name":"Chita-shi","state_id":827,"state_code":"23","country_id":109,"country_code":"JP","latitude":"34.97048000","longitude":"136.86490000"},{"id":"63382","name":"Gamagori","state_id":827,"state_code":"23","country_id":109,"country_code":"JP","latitude":"34.83333000","longitude":"137.23333000"},{"id":"63383","name":"Gamagori-shi","state_id":827,"state_code":"23","country_id":109,"country_code":"JP","latitude":"34.82759000","longitude":"137.22752000"},{"id":"63433","name":"Handa","state_id":827,"state_code":"23","country_id":109,"country_code":"JP","latitude":"34.88333000","longitude":"136.93333000"},{"id":"63434","name":"Handa-shi","state_id":827,"state_code":"23","country_id":109,"country_code":"JP","latitude":"34.89903000","longitude":"136.92660000"},{"id":"63453","name":"Hekinan","state_id":827,"state_code":"23","country_id":109,"country_code":"JP","latitude":"34.88333000","longitude":"136.98333000"},{"id":"63454","name":"Hekinan-shi","state_id":827,"state_code":"23","country_id":109,"country_code":"JP","latitude":"34.87955000","longitude":"136.99155000"},{"id":"63542","name":"Ichinomiya","state_id":827,"state_code":"23","country_id":109,"country_code":"JP","latitude":"35.30000000","longitude":"136.80000000"},{"id":"63543","name":"Ichinomiya-shi","state_id":827,"state_code":"23","country_id":109,"country_code":"JP","latitude":"35.31037000","longitude":"136.79237000"},{"id":"63573","name":"Inazawa","state_id":827,"state_code":"23","country_id":109,"country_code":"JP","latitude":"35.25000000","longitude":"136.78333000"},{"id":"63574","name":"Inazawa-shi","state_id":827,"state_code":"23","country_id":109,"country_code":"JP","latitude":"35.24814000","longitude":"136.77979000"},{"id":"63576","name":"Inuyama","state_id":827,"state_code":"23","country_id":109,"country_code":"JP","latitude":"35.37995000","longitude":"136.94295000"},{"id":"63577","name":"Inuyama-shi","state_id":827,"state_code":"23","country_id":109,"country_code":"JP","latitude":"35.36232000","longitude":"136.98072000"},{"id":"63598","name":"Ishiki","state_id":827,"state_code":"23","country_id":109,"country_code":"JP","latitude":"34.80000000","longitude":"137.01667000"},{"id":"63624","name":"Iwakura","state_id":827,"state_code":"23","country_id":109,"country_code":"JP","latitude":"35.28333000","longitude":"136.86667000"},{"id":"63625","name":"Iwakura-shi","state_id":827,"state_code":"23","country_id":109,"country_code":"JP","latitude":"35.27927000","longitude":"136.86885000"},{"id":"63711","name":"Kanie","state_id":827,"state_code":"23","country_id":109,"country_code":"JP","latitude":"35.13333000","longitude":"136.80000000"},{"id":"63723","name":"Kariya","state_id":827,"state_code":"23","country_id":109,"country_code":"JP","latitude":"34.98333000","longitude":"136.98333000"},{"id":"63725","name":"Kariya-shi","state_id":827,"state_code":"23","country_id":109,"country_code":"JP","latitude":"35.01098000","longitude":"137.00166000"},{"id":"63745","name":"Kasugai","state_id":827,"state_code":"23","country_id":109,"country_code":"JP","latitude":"35.24762000","longitude":"136.97229000"},{"id":"63746","name":"Kasugai-shi","state_id":827,"state_code":"23","country_id":109,"country_code":"JP","latitude":"35.24762000","longitude":"136.97226000"},{"id":"63896","name":"Konan","state_id":827,"state_code":"23","country_id":109,"country_code":"JP","latitude":"35.33165000","longitude":"136.87042000"},{"id":"63897","name":"Konan-shi","state_id":827,"state_code":"23","country_id":109,"country_code":"JP","latitude":"35.33137000","longitude":"136.87077000"},{"id":"63811","name":"Kitanagoya","state_id":827,"state_code":"23","country_id":109,"country_code":"JP","latitude":"35.24702000","longitude":"136.87832000"},{"id":"63812","name":"Kitanagoya-shi","state_id":827,"state_code":"23","country_id":109,"country_code":"JP","latitude":"35.24640000","longitude":"136.87293000"},{"id":"63816","name":"Kiyosu-shi","state_id":827,"state_code":"23","country_id":109,"country_code":"JP","latitude":"35.21325000","longitude":"136.84771000"},{"id":"63835","name":"Komaki","state_id":827,"state_code":"23","country_id":109,"country_code":"JP","latitude":"35.28333000","longitude":"136.91667000"},{"id":"63836","name":"Komaki-shi","state_id":827,"state_code":"23","country_id":109,"country_code":"JP","latitude":"35.29103000","longitude":"136.91196000"},{"id":"63850","name":"Kozakai-cho","state_id":827,"state_code":"23","country_id":109,"country_code":"JP","latitude":"34.80000000","longitude":"137.35889000"},{"id":"63875","name":"Kuroda","state_id":827,"state_code":"23","country_id":109,"country_code":"JP","latitude":"35.35000000","longitude":"136.78333000"},{"id":"64017","name":"Miyoshi-shi","state_id":827,"state_code":"23","country_id":109,"country_code":"JP","latitude":"35.09480000","longitude":"137.08870000"},{"id":"64063","name":"Nagakute-shi","state_id":827,"state_code":"23","country_id":109,"country_code":"JP","latitude":"35.18335000","longitude":"137.04895000"},{"id":"64078","name":"Nagoya","state_id":827,"state_code":"23","country_id":109,"country_code":"JP","latitude":"35.18147000","longitude":"136.90641000"},{"id":"64152","name":"Nishio","state_id":827,"state_code":"23","country_id":109,"country_code":"JP","latitude":"34.86667000","longitude":"137.05000000"},{"id":"64153","name":"Nishio-shi","state_id":827,"state_code":"23","country_id":109,"country_code":"JP","latitude":"34.86223000","longitude":"137.05433000"},{"id":"64158","name":"Nisshin-shi","state_id":827,"state_code":"23","country_id":109,"country_code":"JP","latitude":"35.13114000","longitude":"137.03934000"},{"id":"64197","name":"Okazaki-shi","state_id":827,"state_code":"23","country_id":109,"country_code":"JP","latitude":"34.95245000","longitude":"137.25783000"},{"id":"64218","name":"Owariasahi-shi","state_id":827,"state_code":"23","country_id":109,"country_code":"JP","latitude":"35.21652000","longitude":"137.03542000"},{"id":"64304","name":"Seto","state_id":827,"state_code":"23","country_id":109,"country_code":"JP","latitude":"35.23333000","longitude":"137.10000000"},{"id":"64305","name":"Seto-shi","state_id":827,"state_code":"23","country_id":109,"country_code":"JP","latitude":"35.22340000","longitude":"137.08414000"},{"id":"64345","name":"Shinshiro","state_id":827,"state_code":"23","country_id":109,"country_code":"JP","latitude":"34.90000000","longitude":"137.50000000"},{"id":"64346","name":"Shinshiro-shi","state_id":827,"state_code":"23","country_id":109,"country_code":"JP","latitude":"34.96073000","longitude":"137.54360000"},{"id":"64372","name":"Sobue","state_id":827,"state_code":"23","country_id":109,"country_code":"JP","latitude":"35.25000000","longitude":"136.71667000"},{"id":"64410","name":"Tahara","state_id":827,"state_code":"23","country_id":109,"country_code":"JP","latitude":"34.66667000","longitude":"137.26667000"},{"id":"64411","name":"Tahara-shi","state_id":827,"state_code":"23","country_id":109,"country_code":"JP","latitude":"34.64140000","longitude":"137.18314000"},{"id":"64420","name":"Takahama","state_id":827,"state_code":"23","country_id":109,"country_code":"JP","latitude":"34.91667000","longitude":"136.98333000"},{"id":"64421","name":"Takahama-shi","state_id":827,"state_code":"23","country_id":109,"country_code":"JP","latitude":"34.93337000","longitude":"136.99490000"},{"id":"64450","name":"Taketoyo","state_id":827,"state_code":"23","country_id":109,"country_code":"JP","latitude":"34.85000000","longitude":"136.91667000"},{"id":"64568","name":"Tokai-shi","state_id":827,"state_code":"23","country_id":109,"country_code":"JP","latitude":"35.02676000","longitude":"136.89846000"},{"id":"64493","name":"Tokoname","state_id":827,"state_code":"23","country_id":109,"country_code":"JP","latitude":"34.88333000","longitude":"136.85000000"},{"id":"64494","name":"Tokoname-shi","state_id":827,"state_code":"23","country_id":109,"country_code":"JP","latitude":"34.88929000","longitude":"136.85299000"},{"id":"64522","name":"Toyoake","state_id":827,"state_code":"23","country_id":109,"country_code":"JP","latitude":"35.03800000","longitude":"136.99931000"},{"id":"64523","name":"Toyoake-shi","state_id":827,"state_code":"23","country_id":109,"country_code":"JP","latitude":"35.06248000","longitude":"137.00887000"},{"id":"64524","name":"Toyohama","state_id":827,"state_code":"23","country_id":109,"country_code":"JP","latitude":"34.70933000","longitude":"136.93425000"},{"id":"64525","name":"Toyohashi","state_id":827,"state_code":"23","country_id":109,"country_code":"JP","latitude":"34.76667000","longitude":"137.38333000"},{"id":"64526","name":"Toyohashi-shi","state_id":827,"state_code":"23","country_id":109,"country_code":"JP","latitude":"34.74050000","longitude":"137.40714000"},{"id":"64527","name":"Toyokawa","state_id":827,"state_code":"23","country_id":109,"country_code":"JP","latitude":"34.81667000","longitude":"137.40000000"},{"id":"64528","name":"Toyokawa-shi","state_id":827,"state_code":"23","country_id":109,"country_code":"JP","latitude":"34.85032000","longitude":"137.36175000"},{"id":"64534","name":"Toyota-shi","state_id":827,"state_code":"23","country_id":109,"country_code":"JP","latitude":"35.08700000","longitude":"137.15000000"},{"id":"64560","name":"Tsushima","state_id":827,"state_code":"23","country_id":109,"country_code":"JP","latitude":"35.16667000","longitude":"136.71667000"},{"id":"64562","name":"Tsushima-shi","state_id":827,"state_code":"23","country_id":109,"country_code":"JP","latitude":"35.17718000","longitude":"136.74168000"},{"id":"64662","name":"Yatomi-shi","state_id":827,"state_code":"23","country_id":109,"country_code":"JP","latitude":"35.10938000","longitude":"136.72451000"},{"id":"63230","name":"Aki-takata Shi","state_id":828,"state_code":"34","country_id":109,"country_code":"JP","latitude":"34.70248000","longitude":"132.67770000"},{"id":"64747","name":"Ono-hara","state_id":828,"state_code":"34","country_id":109,"country_code":"JP","latitude":"34.28333000","longitude":"132.26667000"},{"id":"64760","name":"Otake","state_id":828,"state_code":"34","country_id":109,"country_code":"JP","latitude":"34.20754000","longitude":"132.22063000"},{"id":"64761","name":"Otake-shi","state_id":828,"state_code":"34","country_id":109,"country_code":"JP","latitude":"34.25787000","longitude":"132.18756000"},{"id":"63335","name":"Etajima-shi","state_id":828,"state_code":"34","country_id":109,"country_code":"JP","latitude":"34.21989000","longitude":"132.44345000"},{"id":"63337","name":"Fuchu-shi","state_id":828,"state_code":"34","country_id":109,"country_code":"JP","latitude":"34.56667000","longitude":"133.23333000"},{"id":"63338","name":"Fuchucho","state_id":828,"state_code":"34","country_id":109,"country_code":"JP","latitude":"34.57350000","longitude":"133.23513000"},{"id":"63373","name":"Fukuyama","state_id":828,"state_code":"34","country_id":109,"country_code":"JP","latitude":"34.48333000","longitude":"133.36667000"},{"id":"63374","name":"Fukuyama Shi","state_id":828,"state_code":"34","country_id":109,"country_code":"JP","latitude":"34.52342000","longitude":"133.33779000"},{"id":"63449","name":"Hatsukaichi","state_id":828,"state_code":"34","country_id":109,"country_code":"JP","latitude":"34.35000000","longitude":"132.33333000"},{"id":"63450","name":"Hatsukaichi-shi","state_id":828,"state_code":"34","country_id":109,"country_code":"JP","latitude":"34.35000000","longitude":"132.30000000"},{"id":"63459","name":"Higashihiroshima Shi","state_id":828,"state_code":"34","country_id":109,"country_code":"JP","latitude":"34.44755000","longitude":"132.76116000"},{"id":"63499","name":"Hiroshima","state_id":828,"state_code":"34","country_id":109,"country_code":"JP","latitude":"34.40000000","longitude":"132.45000000"},{"id":"63500","name":"Hiroshima-shi","state_id":828,"state_code":"34","country_id":109,"country_code":"JP","latitude":"34.47942000","longitude":"132.45312000"},{"id":"63575","name":"Innoshima","state_id":828,"state_code":"34","country_id":109,"country_code":"JP","latitude":"34.28333000","longitude":"133.18333000"},{"id":"63712","name":"Kannabecho-yahiro","state_id":828,"state_code":"34","country_id":109,"country_code":"JP","latitude":"34.55808000","longitude":"133.41796000"},{"id":"63868","name":"Kure","state_id":828,"state_code":"34","country_id":109,"country_code":"JP","latitude":"34.23222000","longitude":"132.56658000"},{"id":"63869","name":"Kure-shi","state_id":828,"state_code":"34","country_id":109,"country_code":"JP","latitude":"34.22448000","longitude":"132.62914000"},{"id":"63948","name":"Mihara","state_id":828,"state_code":"34","country_id":109,"country_code":"JP","latitude":"34.40000000","longitude":"133.08333000"},{"id":"63949","name":"Mihara Shi","state_id":828,"state_code":"34","country_id":109,"country_code":"JP","latitude":"34.45817000","longitude":"133.00395000"},{"id":"63998","name":"Miyajima","state_id":828,"state_code":"34","country_id":109,"country_code":"JP","latitude":"34.29907000","longitude":"132.32186000"},{"id":"64013","name":"Miyoshi","state_id":828,"state_code":"34","country_id":109,"country_code":"JP","latitude":"34.80000000","longitude":"132.85000000"},{"id":"64014","name":"Miyoshi Shi","state_id":828,"state_code":"34","country_id":109,"country_code":"JP","latitude":"34.79201000","longitude":"132.86435000"},{"id":"64212","name":"Onomichi","state_id":828,"state_code":"34","country_id":109,"country_code":"JP","latitude":"34.41667000","longitude":"133.20000000"},{"id":"64213","name":"Onomichi-shi","state_id":828,"state_code":"34","country_id":109,"country_code":"JP","latitude":"34.42630000","longitude":"133.16329000"},{"id":"64368","name":"Shobara","state_id":828,"state_code":"34","country_id":109,"country_code":"JP","latitude":"34.85000000","longitude":"133.01667000"},{"id":"64369","name":"Shobara-shi","state_id":828,"state_code":"34","country_id":109,"country_code":"JP","latitude":"34.94831000","longitude":"133.06769000"},{"id":"64347","name":"Shin\u2019ichi","state_id":828,"state_code":"34","country_id":109,"country_code":"JP","latitude":"34.55543000","longitude":"133.27297000"},{"id":"64445","name":"Takehara","state_id":828,"state_code":"34","country_id":109,"country_code":"JP","latitude":"34.33833000","longitude":"132.91667000"},{"id":"64446","name":"Takehara-shi","state_id":828,"state_code":"34","country_id":109,"country_code":"JP","latitude":"34.35000000","longitude":"132.90000000"},{"id":"63233","name":"Akita","state_id":829,"state_code":"05","country_id":109,"country_code":"JP","latitude":"39.71667000","longitude":"140.11667000"},{"id":"63234","name":"Akita Shi","state_id":829,"state_code":"05","country_id":109,"country_code":"JP","latitude":"39.71043000","longitude":"140.23207000"},{"id":"64719","name":"Odate","state_id":829,"state_code":"05","country_id":109,"country_code":"JP","latitude":"40.27178000","longitude":"140.55756000"},{"id":"64720","name":"Odate-shi","state_id":829,"state_code":"05","country_id":109,"country_code":"JP","latitude":"40.30000000","longitude":"140.55000000"},{"id":"64736","name":"Omagari","state_id":829,"state_code":"05","country_id":109,"country_code":"JP","latitude":"39.45000000","longitude":"140.48333000"},{"id":"63318","name":"Daisen","state_id":829,"state_code":"05","country_id":109,"country_code":"JP","latitude":"39.44116000","longitude":"140.48961000"},{"id":"63319","name":"Daisen-shi","state_id":829,"state_code":"05","country_id":109,"country_code":"JP","latitude":"39.53710000","longitude":"140.44139000"},{"id":"63432","name":"Hanawa","state_id":829,"state_code":"05","country_id":109,"country_code":"JP","latitude":"40.18361000","longitude":"140.78722000"},{"id":"63675","name":"Kakunodatemachi","state_id":829,"state_code":"05","country_id":109,"country_code":"JP","latitude":"39.58926000","longitude":"140.56724000"},{"id":"63751","name":"Katagami","state_id":829,"state_code":"05","country_id":109,"country_code":"JP","latitude":"39.87869000","longitude":"139.99767000"},{"id":"63752","name":"Katagami-shi","state_id":829,"state_code":"05","country_id":109,"country_code":"JP","latitude":"39.87209000","longitude":"140.04910000"},{"id":"63780","name":"Kazuno Shi","state_id":829,"state_code":"05","country_id":109,"country_code":"JP","latitude":"40.21035000","longitude":"140.83030000"},{"id":"63798","name":"Kitaakita-shi","state_id":829,"state_code":"05","country_id":109,"country_code":"JP","latitude":"40.23446000","longitude":"140.39978000"},{"id":"64137","name":"Nikaho-shi","state_id":829,"state_code":"05","country_id":109,"country_code":"JP","latitude":"39.19677000","longitude":"139.97305000"},{"id":"64168","name":"Noshiro","state_id":829,"state_code":"05","country_id":109,"country_code":"JP","latitude":"40.20838000","longitude":"140.02740000"},{"id":"64169","name":"Noshiro Shi","state_id":829,"state_code":"05","country_id":109,"country_code":"JP","latitude":"40.20289000","longitude":"140.14486000"},{"id":"64185","name":"Oga","state_id":829,"state_code":"05","country_id":109,"country_code":"JP","latitude":"39.87100000","longitude":"139.84926000"},{"id":"64186","name":"Oga-shi","state_id":829,"state_code":"05","country_id":109,"country_code":"JP","latitude":"39.93793000","longitude":"139.83611000"},{"id":"64299","name":"Semboku-shi","state_id":829,"state_code":"05","country_id":109,"country_code":"JP","latitude":"39.75709000","longitude":"140.66998000"},{"id":"64430","name":"Takanosu","state_id":829,"state_code":"05","country_id":109,"country_code":"JP","latitude":"40.22268000","longitude":"140.36611000"},{"id":"64482","name":"Tenno","state_id":829,"state_code":"05","country_id":109,"country_code":"JP","latitude":"39.90000000","longitude":"139.96667000"},{"id":"64674","name":"Yokote","state_id":829,"state_code":"05","country_id":109,"country_code":"JP","latitude":"39.31691000","longitude":"140.55034000"},{"id":"64675","name":"Yokote-shi","state_id":829,"state_code":"05","country_id":109,"country_code":"JP","latitude":"39.28369000","longitude":"140.54432000"},{"id":"64698","name":"Yurihonjo","state_id":829,"state_code":"05","country_id":109,"country_code":"JP","latitude":"39.38950000","longitude":"140.05813000"},{"id":"64699","name":"Yurihonjo-shi","state_id":829,"state_code":"05","country_id":109,"country_code":"JP","latitude":"39.29336000","longitude":"140.16498000"},{"id":"64701","name":"Yuzawa","state_id":829,"state_code":"05","country_id":109,"country_code":"JP","latitude":"39.16667000","longitude":"140.50000000"},{"id":"64702","name":"Yuzawa-shi","state_id":829,"state_code":"05","country_id":109,"country_code":"JP","latitude":"39.03658000","longitude":"140.54267000"},{"id":"63420","name":"Hakui","state_id":830,"state_code":"17","country_id":109,"country_code":"JP","latitude":"36.88333000","longitude":"136.78333000"},{"id":"63421","name":"Hakui Shi","state_id":830,"state_code":"17","country_id":109,"country_code":"JP","latitude":"36.91136000","longitude":"136.81626000"},{"id":"63422","name":"Hakusan Shi","state_id":830,"state_code":"17","country_id":109,"country_code":"JP","latitude":"36.27558000","longitude":"136.66966000"},{"id":"63657","name":"Kaga Shi","state_id":830,"state_code":"17","country_id":109,"country_code":"JP","latitude":"36.25503000","longitude":"136.37963000"},{"id":"63660","name":"Kahoku Shi","state_id":830,"state_code":"17","country_id":109,"country_code":"JP","latitude":"36.74365000","longitude":"136.73273000"},{"id":"63706","name":"Kanazawa","state_id":830,"state_code":"17","country_id":109,"country_code":"JP","latitude":"36.60000000","longitude":"136.61667000"},{"id":"63707","name":"Kanazawa-shi","state_id":830,"state_code":"17","country_id":109,"country_code":"JP","latitude":"36.51919000","longitude":"136.70836000"},{"id":"63837","name":"Komatsu","state_id":830,"state_code":"17","country_id":109,"country_code":"JP","latitude":"36.40263000","longitude":"136.45088000"},{"id":"63938","name":"Matsuto","state_id":830,"state_code":"17","country_id":109,"country_code":"JP","latitude":"36.51667000","longitude":"136.56667000"},{"id":"64099","name":"Nanao Shi","state_id":830,"state_code":"17","country_id":109,"country_code":"JP","latitude":"37.07844000","longitude":"136.92860000"},{"id":"64165","name":"Nomi Shi","state_id":830,"state_code":"17","country_id":109,"country_code":"JP","latitude":"36.43593000","longitude":"136.54456000"},{"id":"64166","name":"Nonoichi","state_id":830,"state_code":"17","country_id":109,"country_code":"JP","latitude":"36.53333000","longitude":"136.61667000"},{"id":"64167","name":"Nonoichi-shi","state_id":830,"state_code":"17","country_id":109,"country_code":"JP","latitude":"36.52288000","longitude":"136.60589000"},{"id":"64394","name":"Suzu","state_id":830,"state_code":"17","country_id":109,"country_code":"JP","latitude":"37.43459000","longitude":"137.26009000"},{"id":"64395","name":"Suzu Shi","state_id":830,"state_code":"17","country_id":109,"country_code":"JP","latitude":"37.45533000","longitude":"137.22587000"},{"id":"64539","name":"Tsubata","state_id":830,"state_code":"17","country_id":109,"country_code":"JP","latitude":"36.67012000","longitude":"136.74030000"},{"id":"64556","name":"Tsurugi-asahimachi","state_id":830,"state_code":"17","country_id":109,"country_code":"JP","latitude":"36.45000000","longitude":"136.63333000"},{"id":"64615","name":"Wajima Shi","state_id":830,"state_code":"17","country_id":109,"country_code":"JP","latitude":"37.33753000","longitude":"136.88757000"},{"id":"63220","name":"Aioi","state_id":831,"state_code":"28","country_id":109,"country_code":"JP","latitude":"34.80361000","longitude":"134.46806000"},{"id":"63221","name":"Aioi Shi","state_id":831,"state_code":"28","country_id":109,"country_code":"JP","latitude":"34.82719000","longitude":"134.46699000"},{"id":"63228","name":"Akashi","state_id":831,"state_code":"28","country_id":109,"country_code":"JP","latitude":"34.65524000","longitude":"135.00687000"},{"id":"63229","name":"Akashi Shi","state_id":831,"state_code":"28","country_id":109,"country_code":"JP","latitude":"34.68277000","longitude":"134.94029000"},{"id":"63238","name":"Amagasaki Shi","state_id":831,"state_code":"28","country_id":109,"country_code":"JP","latitude":"34.73544000","longitude":"135.41181000"},{"id":"63256","name":"Asago-shi","state_id":831,"state_code":"28","country_id":109,"country_code":"JP","latitude":"35.26249000","longitude":"134.82527000"},{"id":"63267","name":"Ashiya","state_id":831,"state_code":"28","country_id":109,"country_code":"JP","latitude":"34.72807000","longitude":"135.30264000"},{"id":"63268","name":"Ashiya Shi","state_id":831,"state_code":"28","country_id":109,"country_code":"JP","latitude":"34.74853000","longitude":"135.29759000"},{"id":"63275","name":"Awaji Shi","state_id":831,"state_code":"28","country_id":109,"country_code":"JP","latitude":"34.49749000","longitude":"134.91331000"},{"id":"63367","name":"Fukura","state_id":831,"state_code":"28","country_id":109,"country_code":"JP","latitude":"34.25765000","longitude":"134.71535000"},{"id":"63478","name":"Himeji","state_id":831,"state_code":"28","country_id":109,"country_code":"JP","latitude":"34.81667000","longitude":"134.70000000"},{"id":"63479","name":"Himeji Shi","state_id":831,"state_code":"28","country_id":109,"country_code":"JP","latitude":"34.90134000","longitude":"134.66316000"},{"id":"63608","name":"Itami","state_id":831,"state_code":"28","country_id":109,"country_code":"JP","latitude":"34.78427000","longitude":"135.40126000"},{"id":"63609","name":"Itami Shi","state_id":831,"state_code":"28","country_id":109,"country_code":"JP","latitude":"34.78675000","longitude":"135.40562000"},{"id":"63671","name":"Kakogawa Shi","state_id":831,"state_code":"28","country_id":109,"country_code":"JP","latitude":"34.78472000","longitude":"134.84897000"},{"id":"63672","name":"Kakogawacho-honmachi","state_id":831,"state_code":"28","country_id":109,"country_code":"JP","latitude":"34.76943000","longitude":"134.82905000"},{"id":"63724","name":"Kariya","state_id":831,"state_code":"28","country_id":109,"country_code":"JP","latitude":"34.75136000","longitude":"134.38734000"},{"id":"63726","name":"Kasai Shi","state_id":831,"state_code":"28","country_id":109,"country_code":"JP","latitude":"34.92476000","longitude":"134.85359000"},{"id":"63765","name":"Kato Shi","state_id":831,"state_code":"28","country_id":109,"country_code":"JP","latitude":"34.92714000","longitude":"135.02134000"},{"id":"63772","name":"Kawanishi","state_id":831,"state_code":"28","country_id":109,"country_code":"JP","latitude":"34.81667000","longitude":"135.41667000"},{"id":"63773","name":"Kawanishi Shi","state_id":831,"state_code":"28","country_id":109,"country_code":"JP","latitude":"34.87955000","longitude":"135.40919000"},{"id":"63820","name":"Kobe","state_id":831,"state_code":"28","country_id":109,"country_code":"JP","latitude":"34.69130000","longitude":"135.18300000"},{"id":"63953","name":"Miki","state_id":831,"state_code":"28","country_id":109,"country_code":"JP","latitude":"34.80000000","longitude":"134.98333000"},{"id":"63954","name":"Miki Shi","state_id":831,"state_code":"28","country_id":109,"country_code":"JP","latitude":"34.83553000","longitude":"135.05822000"},{"id":"63965","name":"Minamiawaji Shi","state_id":831,"state_code":"28","country_id":109,"country_code":"JP","latitude":"34.27530000","longitude":"134.76465000"},{"id":"64148","name":"Nishinomiya Shi","state_id":831,"state_code":"28","country_id":109,"country_code":"JP","latitude":"34.78194000","longitude":"135.30247000"},{"id":"64149","name":"Nishinomiya-hama","state_id":831,"state_code":"28","country_id":109,"country_code":"JP","latitude":"34.71562000","longitude":"135.33199000"},{"id":"64156","name":"Nishiwaki","state_id":831,"state_code":"28","country_id":109,"country_code":"JP","latitude":"34.98419000","longitude":"134.97407000"},{"id":"64157","name":"Nishiwaki-shi","state_id":831,"state_code":"28","country_id":109,"country_code":"JP","latitude":"35.01098000","longitude":"134.99650000"},{"id":"64208","name":"Ono","state_id":831,"state_code":"28","country_id":109,"country_code":"JP","latitude":"34.85000000","longitude":"134.93333000"},{"id":"64210","name":"Ono Shi","state_id":831,"state_code":"28","country_id":109,"country_code":"JP","latitude":"34.85750000","longitude":"134.95129000"},{"id":"64276","name":"Sanda Shi","state_id":831,"state_code":"28","country_id":109,"country_code":"JP","latitude":"34.95506000","longitude":"135.21660000"},{"id":"64277","name":"Sandacho","state_id":831,"state_code":"28","country_id":109,"country_code":"JP","latitude":"34.88444000","longitude":"135.22694000"},{"id":"64288","name":"Sasayama","state_id":831,"state_code":"28","country_id":109,"country_code":"JP","latitude":"35.06667000","longitude":"135.21667000"},{"id":"64289","name":"Sasayama-shi","state_id":831,"state_code":"28","country_id":109,"country_code":"JP","latitude":"35.07523000","longitude":"135.23087000"},{"id":"64352","name":"Shirahamacho-usazakiminami","state_id":831,"state_code":"28","country_id":109,"country_code":"JP","latitude":"34.78333000","longitude":"134.71667000"},{"id":"64363","name":"Shiso-shi","state_id":831,"state_code":"28","country_id":109,"country_code":"JP","latitude":"35.15466000","longitude":"134.54337000"},{"id":"64384","name":"Sumoto","state_id":831,"state_code":"28","country_id":109,"country_code":"JP","latitude":"34.34322000","longitude":"134.88911000"},{"id":"64385","name":"Sumoto Shi","state_id":831,"state_code":"28","country_id":109,"country_code":"JP","latitude":"34.34533000","longitude":"134.85858000"},{"id":"64418","name":"Taka-gun","state_id":831,"state_code":"28","country_id":109,"country_code":"JP","latitude":"35.08473000","longitude":"134.90474000"},{"id":"64433","name":"Takarazuka","state_id":831,"state_code":"28","country_id":109,"country_code":"JP","latitude":"34.79936000","longitude":"135.35697000"},{"id":"64434","name":"Takarazuka Shi","state_id":831,"state_code":"28","country_id":109,"country_code":"JP","latitude":"34.86008000","longitude":"135.33197000"},{"id":"64435","name":"Takasago Shi","state_id":831,"state_code":"28","country_id":109,"country_code":"JP","latitude":"34.77796000","longitude":"134.78665000"},{"id":"64466","name":"Tanba-shi","state_id":831,"state_code":"28","country_id":109,"country_code":"JP","latitude":"35.17715000","longitude":"135.04972000"},{"id":"64477","name":"Tatsuno-shi","state_id":831,"state_code":"28","country_id":109,"country_code":"JP","latitude":"34.88804000","longitude":"134.51910000"},{"id":"64478","name":"Tatsunocho-tominaga","state_id":831,"state_code":"28","country_id":109,"country_code":"JP","latitude":"34.86437000","longitude":"134.55200000"},{"id":"64531","name":"Toyooka","state_id":831,"state_code":"28","country_id":109,"country_code":"JP","latitude":"35.54008000","longitude":"134.82038000"},{"id":"64532","name":"Toyooka-shi","state_id":831,"state_code":"28","country_id":109,"country_code":"JP","latitude":"35.51384000","longitude":"134.82724000"},{"id":"64627","name":"Yabu","state_id":831,"state_code":"28","country_id":109,"country_code":"JP","latitude":"35.40304000","longitude":"134.77118000"},{"id":"64628","name":"Yabu-shi","state_id":831,"state_code":"28","country_id":109,"country_code":"JP","latitude":"35.38333000","longitude":"134.81667000"},{"id":"64647","name":"Yamazakicho-nakabirose","state_id":831,"state_code":"28","country_id":109,"country_code":"JP","latitude":"35.00000000","longitude":"134.55000000"},{"id":"64658","name":"Yashiro","state_id":831,"state_code":"28","country_id":109,"country_code":"JP","latitude":"34.91667000","longitude":"134.96667000"},{"id":"64678","name":"Yonedacho Sendo","state_id":831,"state_code":"28","country_id":109,"country_code":"JP","latitude":"34.77560000","longitude":"134.82551000"},{"id":"63211","name":"Abashiri","state_id":832,"state_code":"01","country_id":109,"country_code":"JP","latitude":"44.02127000","longitude":"144.26971000"},{"id":"63212","name":"Abashiri Shi","state_id":832,"state_code":"01","country_id":109,"country_code":"JP","latitude":"43.98565000","longitude":"144.21051000"},{"id":"63225","name":"Akabira","state_id":832,"state_code":"01","country_id":109,"country_code":"JP","latitude":"43.55139000","longitude":"142.05306000"},{"id":"63226","name":"Akabira-shi","state_id":832,"state_code":"01","country_id":109,"country_code":"JP","latitude":"43.56790000","longitude":"142.06281000"},{"id":"63259","name":"Asahikawa","state_id":832,"state_code":"01","country_id":109,"country_code":"JP","latitude":"43.77063000","longitude":"142.36489000"},{"id":"63264","name":"Ashibetsu","state_id":832,"state_code":"01","country_id":109,"country_code":"JP","latitude":"43.50972000","longitude":"142.18556000"},{"id":"63265","name":"Ashibetsu-shi","state_id":832,"state_code":"01","country_id":109,"country_code":"JP","latitude":"43.42542000","longitude":"142.20161000"},{"id":"63285","name":"Bibai","state_id":832,"state_code":"01","country_id":109,"country_code":"JP","latitude":"43.32472000","longitude":"141.85861000"},{"id":"63309","name":"Chitose","state_id":832,"state_code":"01","country_id":109,"country_code":"JP","latitude":"42.81944000","longitude":"141.65222000"},{"id":"63310","name":"Chitose Shi","state_id":832,"state_code":"01","country_id":109,"country_code":"JP","latitude":"42.80048000","longitude":"141.50951000"},{"id":"63322","name":"Date","state_id":832,"state_code":"01","country_id":109,"country_code":"JP","latitude":"42.46806000","longitude":"140.86806000"},{"id":"63324","name":"Date-shi","state_id":832,"state_code":"01","country_id":109,"country_code":"JP","latitude":"42.49337000","longitude":"140.89142000"},{"id":"63326","name":"Ebetsu","state_id":832,"state_code":"01","country_id":109,"country_code":"JP","latitude":"43.10806000","longitude":"141.55056000"},{"id":"63333","name":"Eniwa-shi","state_id":832,"state_code":"01","country_id":109,"country_code":"JP","latitude":"42.88333000","longitude":"141.56667000"},{"id":"63356","name":"Fukagawa","state_id":832,"state_code":"01","country_id":109,"country_code":"JP","latitude":"43.70806000","longitude":"142.03917000"},{"id":"63357","name":"Fukagawa-shi","state_id":832,"state_code":"01","country_id":109,"country_code":"JP","latitude":"43.79334000","longitude":"142.09923000"},{"id":"63378","name":"Furano-shi","state_id":832,"state_code":"01","country_id":109,"country_code":"JP","latitude":"43.28182000","longitude":"142.47349000"},{"id":"63416","name":"Hakodate","state_id":832,"state_code":"01","country_id":109,"country_code":"JP","latitude":"41.77583000","longitude":"140.73667000"},{"id":"63417","name":"Hakodate Shi","state_id":832,"state_code":"01","country_id":109,"country_code":"JP","latitude":"41.83754000","longitude":"140.92597000"},{"id":"63516","name":"Hokuto","state_id":832,"state_code":"01","country_id":109,"country_code":"JP","latitude":"41.81626000","longitude":"140.63472000"},{"id":"63519","name":"Hokuto-shi","state_id":832,"state_code":"01","country_id":109,"country_code":"JP","latitude":"41.86411000","longitude":"140.55424000"},{"id":"63521","name":"Honcho","state_id":832,"state_code":"01","country_id":109,"country_code":"JP","latitude":"41.89440000","longitude":"140.69386000"},{"id":"63594","name":"Ishikari","state_id":832,"state_code":"01","country_id":109,"country_code":"JP","latitude":"43.23972000","longitude":"141.35389000"},{"id":"63595","name":"Ishikari-shi","state_id":832,"state_code":"01","country_id":109,"country_code":"JP","latitude":"43.46596000","longitude":"141.44298000"},{"id":"63626","name":"Iwamizawa","state_id":832,"state_code":"01","country_id":109,"country_code":"JP","latitude":"43.20028000","longitude":"141.75972000"},{"id":"63627","name":"Iwamizawa-shi","state_id":832,"state_code":"01","country_id":109,"country_code":"JP","latitude":"43.18086000","longitude":"141.79744000"},{"id":"63628","name":"Iwanai","state_id":832,"state_code":"01","country_id":109,"country_code":"JP","latitude":"42.97444000","longitude":"140.50889000"},{"id":"63691","name":"Kamiiso","state_id":832,"state_code":"01","country_id":109,"country_code":"JP","latitude":"41.82013000","longitude":"140.64482000"},{"id":"63692","name":"Kamikawa","state_id":832,"state_code":"01","country_id":109,"country_code":"JP","latitude":"43.84000000","longitude":"142.77111000"},{"id":"63800","name":"Kitahiroshima","state_id":832,"state_code":"01","country_id":109,"country_code":"JP","latitude":"42.97583000","longitude":"141.56722000"},{"id":"63801","name":"Kitahiroshima-shi","state_id":832,"state_code":"01","country_id":109,"country_code":"JP","latitude":"42.98581000","longitude":"141.55678000"},{"id":"63809","name":"Kitami","state_id":832,"state_code":"01","country_id":109,"country_code":"JP","latitude":"43.80306000","longitude":"143.89083000"},{"id":"63851","name":"Ktiami Shi","state_id":832,"state_code":"01","country_id":109,"country_code":"JP","latitude":"43.85160000","longitude":"143.71520000"},{"id":"63886","name":"Kushiro","state_id":832,"state_code":"01","country_id":109,"country_code":"JP","latitude":"42.97500000","longitude":"144.37472000"},{"id":"63887","name":"Kushiro Shi","state_id":832,"state_code":"01","country_id":109,"country_code":"JP","latitude":"43.15910000","longitude":"144.06647000"},{"id":"63917","name":"Makubetsu","state_id":832,"state_code":"01","country_id":109,"country_code":"JP","latitude":"45.37139000","longitude":"141.82111000"},{"id":"63951","name":"Mikasa","state_id":832,"state_code":"01","country_id":109,"country_code":"JP","latitude":"43.25581000","longitude":"141.88818000"},{"id":"63952","name":"Mikasa-shi","state_id":832,"state_code":"01","country_id":109,"country_code":"JP","latitude":"43.23976000","longitude":"141.99273000"},{"id":"64024","name":"Mombetsu","state_id":832,"state_code":"01","country_id":109,"country_code":"JP","latitude":"44.35250000","longitude":"143.35250000"},{"id":"64025","name":"Monbetsu Shi","state_id":832,"state_code":"01","country_id":109,"country_code":"JP","latitude":"44.20323000","longitude":"143.29293000"},{"id":"64038","name":"Motomachi","state_id":832,"state_code":"01","country_id":109,"country_code":"JP","latitude":"43.82634000","longitude":"144.09638000"},{"id":"64049","name":"Muroran","state_id":832,"state_code":"01","country_id":109,"country_code":"JP","latitude":"42.31722000","longitude":"140.98806000"},{"id":"64050","name":"Muroran-shi","state_id":832,"state_code":"01","country_id":109,"country_code":"JP","latitude":"42.36659000","longitude":"140.98845000"},{"id":"64117","name":"Nayoro","state_id":832,"state_code":"01","country_id":109,"country_code":"JP","latitude":"44.35056000","longitude":"142.45778000"},{"id":"64118","name":"Nayoro Shi","state_id":832,"state_code":"01","country_id":109,"country_code":"JP","latitude":"44.33951000","longitude":"142.45932000"},{"id":"64120","name":"Nemuro","state_id":832,"state_code":"01","country_id":109,"country_code":"JP","latitude":"43.32361000","longitude":"145.57500000"},{"id":"64121","name":"Nemuro-shi","state_id":832,"state_code":"01","country_id":109,"country_code":"JP","latitude":"43.33333000","longitude":"145.61667000"},{"id":"64145","name":"Niseko Town","state_id":832,"state_code":"01","country_id":109,"country_code":"JP","latitude":"42.77871000","longitude":"140.66903000"},{"id":"64161","name":"Noboribetsu","state_id":832,"state_code":"01","country_id":109,"country_code":"JP","latitude":"42.45215000","longitude":"141.17914000"},{"id":"64162","name":"Noboribetsu-shi","state_id":832,"state_code":"01","country_id":109,"country_code":"JP","latitude":"42.46565000","longitude":"141.07578000"},{"id":"64180","name":"Obihiro","state_id":832,"state_code":"01","country_id":109,"country_code":"JP","latitude":"42.91722000","longitude":"143.20444000"},{"id":"64181","name":"Obihiro Shi","state_id":832,"state_code":"01","country_id":109,"country_code":"JP","latitude":"42.75736000","longitude":"143.03061000"},{"id":"64215","name":"Otaru","state_id":832,"state_code":"01","country_id":109,"country_code":"JP","latitude":"43.18944000","longitude":"141.00222000"},{"id":"64216","name":"Otaru-shi","state_id":832,"state_code":"01","country_id":109,"country_code":"JP","latitude":"43.15628000","longitude":"141.02572000"},{"id":"64217","name":"Otofuke","state_id":832,"state_code":"01","country_id":109,"country_code":"JP","latitude":"42.99167000","longitude":"143.20028000"},{"id":"64224","name":"Rebun Gun","state_id":832,"state_code":"01","country_id":109,"country_code":"JP","latitude":"45.38263000","longitude":"141.02839000"},{"id":"64227","name":"Rishiri Gun","state_id":832,"state_code":"01","country_id":109,"country_code":"JP","latitude":"45.18244000","longitude":"141.22859000"},{"id":"64228","name":"Rishiri Town","state_id":832,"state_code":"01","country_id":109,"country_code":"JP","latitude":"45.15928000","longitude":"141.19629000"},{"id":"64230","name":"Rumoi","state_id":832,"state_code":"01","country_id":109,"country_code":"JP","latitude":"43.93444000","longitude":"141.64278000"},{"id":"64231","name":"Rumoi-shi","state_id":832,"state_code":"01","country_id":109,"country_code":"JP","latitude":"43.88560000","longitude":"141.75567000"},{"id":"64285","name":"Sapporo","state_id":832,"state_code":"01","country_id":109,"country_code":"JP","latitude":"43.06667000","longitude":"141.35000000"},{"id":"64286","name":"Sapporo-shi","state_id":832,"state_code":"01","country_id":109,"country_code":"JP","latitude":"43.06667000","longitude":"141.35000000"},{"id":"64310","name":"Shibetsu","state_id":832,"state_code":"01","country_id":109,"country_code":"JP","latitude":"43.65899000","longitude":"145.13197000"},{"id":"64311","name":"Shibetsu Shi","state_id":832,"state_code":"01","country_id":109,"country_code":"JP","latitude":"44.11522000","longitude":"142.54054000"},{"id":"64329","name":"Shimo-furano","state_id":832,"state_code":"01","country_id":109,"country_code":"JP","latitude":"43.35000000","longitude":"142.38333000"},{"id":"64354","name":"Shiraoi","state_id":832,"state_code":"01","country_id":109,"country_code":"JP","latitude":"42.55000000","longitude":"141.35000000"},{"id":"64365","name":"Shizunai-furukawacho","state_id":832,"state_code":"01","country_id":109,"country_code":"JP","latitude":"42.33389000","longitude":"142.36694000"},{"id":"64386","name":"Sunagawa","state_id":832,"state_code":"01","country_id":109,"country_code":"JP","latitude":"43.48639000","longitude":"141.90556000"},{"id":"64387","name":"Sunagawa-shi","state_id":832,"state_code":"01","country_id":109,"country_code":"JP","latitude":"43.50328000","longitude":"141.93274000"},{"id":"64451","name":"Takikawa","state_id":832,"state_code":"01","country_id":109,"country_code":"JP","latitude":"43.55278000","longitude":"141.90639000"},{"id":"64452","name":"Takikawa-shi","state_id":832,"state_code":"01","country_id":109,"country_code":"JP","latitude":"43.60837000","longitude":"141.94988000"},{"id":"64565","name":"Tobetsu","state_id":832,"state_code":"01","country_id":109,"country_code":"JP","latitude":"43.21694000","longitude":"141.51694000"},{"id":"64501","name":"Tomakomai","state_id":832,"state_code":"01","country_id":109,"country_code":"JP","latitude":"42.63694000","longitude":"141.60333000"},{"id":"64502","name":"Tomakomai Shi","state_id":832,"state_code":"01","country_id":109,"country_code":"JP","latitude":"42.68226000","longitude":"141.57948000"},{"id":"64607","name":"Utashinai","state_id":832,"state_code":"01","country_id":109,"country_code":"JP","latitude":"43.51667000","longitude":"142.05000000"},{"id":"64608","name":"Utashinai-shi","state_id":832,"state_code":"01","country_id":109,"country_code":"JP","latitude":"43.49366000","longitude":"142.03878000"},{"id":"64619","name":"Wakkanai","state_id":832,"state_code":"01","country_id":109,"country_code":"JP","latitude":"45.40944000","longitude":"141.67389000"},{"id":"64620","name":"Wakkanai Shi","state_id":832,"state_code":"01","country_id":109,"country_code":"JP","latitude":"45.33243000","longitude":"141.82831000"},{"id":"64704","name":"Yubari","state_id":832,"state_code":"01","country_id":109,"country_code":"JP","latitude":"43.03778000","longitude":"141.95778000"},{"id":"64705","name":"Yubari-shi","state_id":832,"state_code":"01","country_id":109,"country_code":"JP","latitude":"43.04336000","longitude":"142.11065000"},{"id":"64668","name":"Yoichi","state_id":832,"state_code":"01","country_id":109,"country_code":"JP","latitude":"43.20389000","longitude":"140.77028000"},{"id":"63501","name":"Hisai-motomachi","state_id":833,"state_code":"24","country_id":109,"country_code":"JP","latitude":"34.66667000","longitude":"136.46667000"},{"id":"63546","name":"Iga-shi","state_id":833,"state_code":"24","country_id":109,"country_code":"JP","latitude":"34.76855000","longitude":"136.13013000"},{"id":"63567","name":"Inabe","state_id":833,"state_code":"24","country_id":109,"country_code":"JP","latitude":"35.11344000","longitude":"136.57205000"},{"id":"63568","name":"Inabe-shi","state_id":833,"state_code":"24","country_id":109,"country_code":"JP","latitude":"35.16061000","longitude":"136.50788000"},{"id":"63584","name":"Ise","state_id":833,"state_code":"24","country_id":109,"country_code":"JP","latitude":"34.48333000","longitude":"136.70000000"},{"id":"63585","name":"Ise-shi","state_id":833,"state_code":"24","country_id":109,"country_code":"JP","latitude":"34.46740000","longitude":"136.71585000"},{"id":"63685","name":"Kameyama","state_id":833,"state_code":"24","country_id":109,"country_code":"JP","latitude":"34.85000000","longitude":"136.45000000"},{"id":"63686","name":"Kameyama Shi","state_id":833,"state_code":"24","country_id":109,"country_code":"JP","latitude":"34.86866000","longitude":"136.39345000"},{"id":"63767","name":"Kawage","state_id":833,"state_code":"24","country_id":109,"country_code":"JP","latitude":"34.80447000","longitude":"136.54645000"},{"id":"63840","name":"Komono","state_id":833,"state_code":"24","country_id":109,"country_code":"JP","latitude":"35.00000000","longitude":"136.51667000"},{"id":"63861","name":"Kumano","state_id":833,"state_code":"24","country_id":109,"country_code":"JP","latitude":"33.90389000","longitude":"136.12214000"},{"id":"63862","name":"Kumano-shi","state_id":833,"state_code":"24","country_id":109,"country_code":"JP","latitude":"33.92290000","longitude":"136.02646000"},{"id":"63888","name":"Kuwana","state_id":833,"state_code":"24","country_id":109,"country_code":"JP","latitude":"35.05192000","longitude":"136.66958000"},{"id":"63889","name":"Kuwana-shi","state_id":833,"state_code":"24","country_id":109,"country_code":"JP","latitude":"35.06176000","longitude":"136.68348000"},{"id":"63942","name":"Matsuzaka-shi","state_id":833,"state_code":"24","country_id":109,"country_code":"JP","latitude":"34.56667000","longitude":"136.53333000"},{"id":"64057","name":"Nabari","state_id":833,"state_code":"24","country_id":109,"country_code":"JP","latitude":"34.61667000","longitude":"136.08333000"},{"id":"64058","name":"Nabari-shi","state_id":833,"state_code":"24","country_id":109,"country_code":"JP","latitude":"34.62643000","longitude":"136.10825000"},{"id":"64219","name":"Owase","state_id":833,"state_code":"24","country_id":109,"country_code":"JP","latitude":"34.06667000","longitude":"136.20000000"},{"id":"64323","name":"Shima","state_id":833,"state_code":"24","country_id":109,"country_code":"JP","latitude":"34.33333000","longitude":"136.83333000"},{"id":"64324","name":"Shima-shi","state_id":833,"state_code":"24","country_id":109,"country_code":"JP","latitude":"34.33795000","longitude":"136.81336000"},{"id":"64396","name":"Suzuka","state_id":833,"state_code":"24","country_id":109,"country_code":"JP","latitude":"34.88333000","longitude":"136.58333000"},{"id":"64397","name":"Suzuka-shi","state_id":833,"state_code":"24","country_id":109,"country_code":"JP","latitude":"34.88114000","longitude":"136.58443000"},{"id":"64485","name":"Toba","state_id":833,"state_code":"24","country_id":109,"country_code":"JP","latitude":"34.48330000","longitude":"136.84186000"},{"id":"64486","name":"Toba-shi","state_id":833,"state_code":"24","country_id":109,"country_code":"JP","latitude":"34.48333000","longitude":"136.83333000"},{"id":"64535","name":"Tsu","state_id":833,"state_code":"24","country_id":109,"country_code":"JP","latitude":"34.73333000","longitude":"136.51667000"},{"id":"64536","name":"Tsu-shi","state_id":833,"state_code":"24","country_id":109,"country_code":"JP","latitude":"34.71706000","longitude":"136.50616000"},{"id":"64581","name":"Ueno-ebisumachi","state_id":833,"state_code":"24","country_id":109,"country_code":"JP","latitude":"34.75856000","longitude":"136.13108000"},{"id":"64669","name":"Yokkaichi-shi","state_id":833,"state_code":"24","country_id":109,"country_code":"JP","latitude":"34.96475000","longitude":"136.62443000"},{"id":"63254","name":"Arashiyama","state_id":834,"state_code":"26","country_id":109,"country_code":"JP","latitude":"35.01481000","longitude":"135.67755000"},{"id":"63277","name":"Ayabe","state_id":834,"state_code":"26","country_id":109,"country_code":"JP","latitude":"35.30000000","longitude":"135.25000000"},{"id":"63278","name":"Ayabe-shi","state_id":834,"state_code":"26","country_id":109,"country_code":"JP","latitude":"35.35263000","longitude":"135.34465000"},{"id":"63361","name":"Fukuchiyama-shi","state_id":834,"state_code":"26","country_id":109,"country_code":"JP","latitude":"35.32404000","longitude":"135.11332000"},{"id":"63654","name":"Joyo Shi","state_id":834,"state_code":"26","country_id":109,"country_code":"JP","latitude":"34.84566000","longitude":"135.79760000"},{"id":"63683","name":"Kameoka","state_id":834,"state_code":"26","country_id":109,"country_code":"JP","latitude":"35.00000000","longitude":"135.58333000"},{"id":"63684","name":"Kameoka-shi","state_id":834,"state_code":"26","country_id":109,"country_code":"JP","latitude":"35.01021000","longitude":"135.53900000"},{"id":"63689","name":"Kamigyo-ku","state_id":834,"state_code":"26","country_id":109,"country_code":"JP","latitude":"35.02954000","longitude":"135.75666000"},{"id":"63817","name":"Kizugawa-shi","state_id":834,"state_code":"26","country_id":109,"country_code":"JP","latitude":"34.73781000","longitude":"135.82128000"},{"id":"63891","name":"Kyotanabe Shi","state_id":834,"state_code":"26","country_id":109,"country_code":"JP","latitude":"34.80779000","longitude":"135.76300000"},{"id":"63892","name":"Kyotango-shi","state_id":834,"state_code":"26","country_id":109,"country_code":"JP","latitude":"35.63089000","longitude":"135.04785000"},{"id":"63890","name":"Kyoto","state_id":834,"state_code":"26","country_id":109,"country_code":"JP","latitude":"35.02107000","longitude":"135.75385000"},{"id":"63912","name":"Maizuru","state_id":834,"state_code":"26","country_id":109,"country_code":"JP","latitude":"35.45000000","longitude":"135.33333000"},{"id":"63913","name":"Maizuru-shi","state_id":834,"state_code":"26","country_id":109,"country_code":"JP","latitude":"35.47009000","longitude":"135.34003000"},{"id":"64011","name":"Miyazu","state_id":834,"state_code":"26","country_id":109,"country_code":"JP","latitude":"35.53333000","longitude":"135.18333000"},{"id":"64012","name":"Miyazu-shi","state_id":834,"state_code":"26","country_id":109,"country_code":"JP","latitude":"35.55596000","longitude":"135.17662000"},{"id":"64043","name":"Muko Shi","state_id":834,"state_code":"26","country_id":109,"country_code":"JP","latitude":"34.94975000","longitude":"135.70269000"},{"id":"64068","name":"Nagaokakyo Shi","state_id":834,"state_code":"26","country_id":109,"country_code":"JP","latitude":"34.92840000","longitude":"135.67881000"},{"id":"64102","name":"Nantan-shi","state_id":834,"state_code":"26","country_id":109,"country_code":"JP","latitude":"35.22740000","longitude":"135.55939000"},{"id":"64463","name":"Tanabe","state_id":834,"state_code":"26","country_id":109,"country_code":"JP","latitude":"34.82242000","longitude":"135.76604000"},{"id":"64584","name":"Uji","state_id":834,"state_code":"26","country_id":109,"country_code":"JP","latitude":"34.89044000","longitude":"135.80325000"},{"id":"64585","name":"Uji Shi","state_id":834,"state_code":"26","country_id":109,"country_code":"JP","latitude":"34.90296000","longitude":"135.82039000"},{"id":"64665","name":"Yawata","state_id":834,"state_code":"26","country_id":109,"country_code":"JP","latitude":"34.87009000","longitude":"135.70270000"},{"id":"64666","name":"Yawata Shi","state_id":834,"state_code":"26","country_id":109,"country_code":"JP","latitude":"34.86662000","longitude":"135.71470000"},{"id":"63413","name":"Hagi","state_id":835,"state_code":"35","country_id":109,"country_code":"JP","latitude":"34.40000000","longitude":"131.41667000"},{"id":"63414","name":"Hagi Shi","state_id":835,"state_code":"35","country_id":109,"country_code":"JP","latitude":"34.43206000","longitude":"131.50623000"},{"id":"63528","name":"Hofu","state_id":835,"state_code":"35","country_id":109,"country_code":"JP","latitude":"34.05000000","longitude":"131.56667000"},{"id":"63473","name":"Hikari","state_id":835,"state_code":"35","country_id":109,"country_code":"JP","latitude":"33.95500000","longitude":"131.95000000"},{"id":"63474","name":"Hikari Shi","state_id":835,"state_code":"35","country_id":109,"country_code":"JP","latitude":"33.98247000","longitude":"131.97485000"},{"id":"63514","name":"Hofu Shi","state_id":835,"state_code":"35","country_id":109,"country_code":"JP","latitude":"34.07287000","longitude":"131.56808000"},{"id":"63623","name":"Iwakuni Shi","state_id":835,"state_code":"35","country_id":109,"country_code":"JP","latitude":"34.20608000","longitude":"132.06286000"},{"id":"63852","name":"Kudamatsu","state_id":835,"state_code":"35","country_id":109,"country_code":"JP","latitude":"34.00000000","longitude":"131.86667000"},{"id":"63853","name":"Kudamatsu Shi","state_id":835,"state_code":"35","country_id":109,"country_code":"JP","latitude":"34.03243000","longitude":"131.88683000"},{"id":"63975","name":"Mine Shi","state_id":835,"state_code":"35","country_id":109,"country_code":"JP","latitude":"34.21083000","longitude":"131.25170000"},{"id":"64074","name":"Nagato","state_id":835,"state_code":"35","country_id":109,"country_code":"JP","latitude":"34.38333000","longitude":"131.20000000"},{"id":"64075","name":"Nagato Shi","state_id":835,"state_code":"35","country_id":109,"country_code":"JP","latitude":"34.34880000","longitude":"131.14703000"},{"id":"64190","name":"Ogori-shimogo","state_id":835,"state_code":"35","country_id":109,"country_code":"JP","latitude":"34.10000000","longitude":"131.40000000"},{"id":"64211","name":"Onoda","state_id":835,"state_code":"35","country_id":109,"country_code":"JP","latitude":"34.00139000","longitude":"131.18361000"},{"id":"64284","name":"Sanyoonoda Shi","state_id":835,"state_code":"35","country_id":109,"country_code":"JP","latitude":"34.03956000","longitude":"131.15417000"},{"id":"64371","name":"Shunan Shi","state_id":835,"state_code":"35","country_id":109,"country_code":"JP","latitude":"34.15136000","longitude":"131.82498000"},{"id":"64334","name":"Shimonoseki Shi","state_id":835,"state_code":"35","country_id":109,"country_code":"JP","latitude":"34.17277000","longitude":"130.98766000"},{"id":"64499","name":"Tokuyama","state_id":835,"state_code":"35","country_id":109,"country_code":"JP","latitude":"34.05000000","longitude":"131.81667000"},{"id":"64576","name":"Ube","state_id":835,"state_code":"35","country_id":109,"country_code":"JP","latitude":"33.94306000","longitude":"131.25111000"},{"id":"64641","name":"Yamaguchi Shi","state_id":835,"state_code":"35","country_id":109,"country_code":"JP","latitude":"34.17753000","longitude":"131.54667000"},{"id":"64653","name":"Yanai Shi","state_id":835,"state_code":"35","country_id":109,"country_code":"JP","latitude":"33.96243000","longitude":"132.13111000"},{"id":"63245","name":"Anan Shi","state_id":836,"state_code":"36","country_id":109,"country_code":"JP","latitude":"33.87716000","longitude":"134.60644000"},{"id":"63274","name":"Awa-shi","state_id":836,"state_code":"36","country_id":109,"country_code":"JP","latitude":"34.10000000","longitude":"134.25000000"},{"id":"63556","name":"Ikedacho","state_id":836,"state_code":"36","country_id":109,"country_code":"JP","latitude":"34.02849000","longitude":"133.80616000"},{"id":"63593","name":"Ishii","state_id":836,"state_code":"36","country_id":109,"country_code":"JP","latitude":"34.06752000","longitude":"134.44208000"},{"id":"63704","name":"Kamojimacho-jogejima","state_id":836,"state_code":"36","country_id":109,"country_code":"JP","latitude":"34.06803000","longitude":"134.35033000"},{"id":"63761","name":"Katsuura Gun","state_id":836,"state_code":"36","country_id":109,"country_code":"JP","latitude":"33.91380000","longitude":"134.42641000"},{"id":"63838","name":"Komatsushima Shi","state_id":836,"state_code":"36","country_id":109,"country_code":"JP","latitude":"33.98071000","longitude":"134.59529000"},{"id":"63839","name":"Komatsushimacho","state_id":836,"state_code":"36","country_id":109,"country_code":"JP","latitude":"34.00000000","longitude":"134.58333000"},{"id":"63956","name":"Mima Shi","state_id":836,"state_code":"36","country_id":109,"country_code":"JP","latitude":"34.01889000","longitude":"134.14333000"},{"id":"64015","name":"Miyoshi Shi","state_id":836,"state_code":"36","country_id":109,"country_code":"JP","latitude":"33.93349000","longitude":"133.85184000"},{"id":"64016","name":"Miyoshi-gun","state_id":836,"state_code":"36","country_id":109,"country_code":"JP","latitude":"34.03647000","longitude":"133.91818000"},{"id":"64110","name":"Naruto-shi","state_id":836,"state_code":"36","country_id":109,"country_code":"JP","latitude":"34.17881000","longitude":"134.61357000"},{"id":"64111","name":"Narutocho-mitsuishi","state_id":836,"state_code":"36","country_id":109,"country_code":"JP","latitude":"34.19933000","longitude":"134.60932000"},{"id":"64497","name":"Tokushima","state_id":836,"state_code":"36","country_id":109,"country_code":"JP","latitude":"34.06667000","longitude":"134.56667000"},{"id":"64498","name":"Tokushima Shi","state_id":836,"state_code":"36","country_id":109,"country_code":"JP","latitude":"34.04922000","longitude":"134.52359000"},{"id":"64618","name":"Wakimachi","state_id":836,"state_code":"36","country_id":109,"country_code":"JP","latitude":"34.06667000","longitude":"134.15000000"},{"id":"64688","name":"Yoshinogawa Shi","state_id":836,"state_code":"36","country_id":109,"country_code":"JP","latitude":"34.03705000","longitude":"134.28354000"},{"id":"63466","name":"Higashine","state_id":837,"state_code":"06","country_id":109,"country_code":"JP","latitude":"38.43889000","longitude":"140.40056000"},{"id":"63467","name":"Higashine Shi","state_id":837,"state_code":"06","country_id":109,"country_code":"JP","latitude":"38.42559000","longitude":"140.46670000"},{"id":"63695","name":"Kaminoyama","state_id":837,"state_code":"06","country_id":109,"country_code":"JP","latitude":"38.15389000","longitude":"140.27361000"},{"id":"63696","name":"Kaminoyama-shi","state_id":837,"state_code":"06","country_id":109,"country_code":"JP","latitude":"38.13333000","longitude":"140.33333000"},{"id":"64047","name":"Murayama","state_id":837,"state_code":"06","country_id":109,"country_code":"JP","latitude":"38.46972000","longitude":"140.41441000"},{"id":"64048","name":"Murayama Shi","state_id":837,"state_code":"06","country_id":109,"country_code":"JP","latitude":"38.51671000","longitude":"140.33518000"},{"id":"64061","name":"Nagai","state_id":837,"state_code":"06","country_id":109,"country_code":"JP","latitude":"38.10361000","longitude":"140.03500000"},{"id":"64062","name":"Nagai-shi","state_id":837,"state_code":"06","country_id":109,"country_code":"JP","latitude":"38.16667000","longitude":"140.00000000"},{"id":"64105","name":"Nanyo Shi","state_id":837,"state_code":"06","country_id":109,"country_code":"JP","latitude":"38.10319000","longitude":"140.15609000"},{"id":"64178","name":"Obanazawa","state_id":837,"state_code":"06","country_id":109,"country_code":"JP","latitude":"38.60333000","longitude":"140.40194000"},