[{"id":"31612","name":"J\u00e4rvakandi","state_id":3559,"state_code":"70","country_id":69,"country_code":"EE","latitude":"58.77889000","longitude":"24.82583000"},{"id":"31627","name":"Kehtna","state_id":3559,"state_code":"70","country_id":69,"country_code":"EE","latitude":"58.93028000","longitude":"24.87806000"},{"id":"31628","name":"Kehtna vald","state_id":3559,"state_code":"70","country_id":69,"country_code":"EE","latitude":"58.84274000","longitude":"24.89002000"},{"id":"31636","name":"Kohila","state_id":3559,"state_code":"70","country_id":69,"country_code":"EE","latitude":"59.16806000","longitude":"24.75750000"},{"id":"31637","name":"Kohila vald","state_id":3559,"state_code":"70","country_id":69,"country_code":"EE","latitude":"59.15283000","longitude":"24.73337000"},{"id":"31662","name":"M\u00e4rjamaa","state_id":3559,"state_code":"70","country_id":69,"country_code":"EE","latitude":"58.90389000","longitude":"24.43056000"},{"id":"31663","name":"M\u00e4rjamaa vald","state_id":3559,"state_code":"70","country_id":69,"country_code":"EE","latitude":"58.90262000","longitude":"24.39423000"},{"id":"31693","name":"Rapla","state_id":3559,"state_code":"70","country_id":69,"country_code":"EE","latitude":"59.00722000","longitude":"24.79278000"},{"id":"31694","name":"Rapla vald","state_id":3559,"state_code":"70","country_id":69,"country_code":"EE","latitude":"59.03309000","longitude":"24.71793000"}]