[{"id":"31596","name":"Antsla","state_id":3560,"state_code":"86","country_id":69,"country_code":"EE","latitude":"57.82556000","longitude":"26.54056000"},{"id":"31597","name":"Antsla vald","state_id":3560,"state_code":"86","country_id":69,"country_code":"EE","latitude":"57.77738000","longitude":"26.59520000"},{"id":"31701","name":"R\u00f5uge","state_id":3560,"state_code":"86","country_id":69,"country_code":"EE","latitude":"57.72778000","longitude":"26.90972000"},{"id":"31702","name":"R\u00f5uge vald","state_id":3560,"state_code":"86","country_id":69,"country_code":"EE","latitude":"57.72780000","longitude":"26.88033000"},{"id":"31736","name":"Vana-Antsla","state_id":3560,"state_code":"86","country_id":69,"country_code":"EE","latitude":"57.86611000","longitude":"26.53222000"},{"id":"31750","name":"V\u00e4rska","state_id":3560,"state_code":"86","country_id":69,"country_code":"EE","latitude":"57.95806000","longitude":"27.63806000"},{"id":"31752","name":"V\u00f5ru","state_id":3560,"state_code":"86","country_id":69,"country_code":"EE","latitude":"57.83389000","longitude":"27.01944000"},{"id":"31753","name":"V\u00f5ru vald","state_id":3560,"state_code":"86","country_id":69,"country_code":"EE","latitude":"57.86618000","longitude":"26.97418000"}]