[{"id":"31611","name":"J\u00e4rva-Jaani","state_id":3566,"state_code":"51","country_id":69,"country_code":"EE","latitude":"59.03861000","longitude":"25.88639000"},{"id":"31635","name":"Koeru","state_id":3566,"state_code":"51","country_id":69,"country_code":"EE","latitude":"58.96306000","longitude":"26.03083000"},{"id":"31672","name":"Paide","state_id":3566,"state_code":"51","country_id":69,"country_code":"EE","latitude":"58.88556000","longitude":"25.55722000"},{"id":"31673","name":"Paide linn","state_id":3566,"state_code":"51","country_id":69,"country_code":"EE","latitude":"58.88504000","longitude":"25.56021000"},{"id":"31712","name":"S\u00e4revere","state_id":3566,"state_code":"51","country_id":69,"country_code":"EE","latitude":"58.79000000","longitude":"25.42806000"},{"id":"31729","name":"T\u00fcri","state_id":3566,"state_code":"51","country_id":69,"country_code":"EE","latitude":"58.80861000","longitude":"25.43250000"},{"id":"31730","name":"T\u00fcri vald","state_id":3566,"state_code":"51","country_id":69,"country_code":"EE","latitude":"58.74143000","longitude":"25.46443000"}]