[{"id":"66463","name":"Dambulla","state_id":2798,"state_code":"2","country_id":208,"country_code":"LK","latitude":"7.86000000","longitude":"80.65167000"},{"id":"66472","name":"Gampola","state_id":2798,"state_code":"2","country_id":208,"country_code":"LK","latitude":"7.16430000","longitude":"80.56960000"},{"id":"66476","name":"Hatton","state_id":2798,"state_code":"2","country_id":208,"country_code":"LK","latitude":"6.89160000","longitude":"80.59550000"},{"id":"66485","name":"Kadugannawa","state_id":2798,"state_code":"2","country_id":208,"country_code":"LK","latitude":"7.25470000","longitude":"80.52420000"},{"id":"66489","name":"Kandy","state_id":2798,"state_code":"2","country_id":208,"country_code":"LK","latitude":"7.29060000","longitude":"80.63360000"},{"id":"66490","name":"Kandy District","state_id":2798,"state_code":"2","country_id":208,"country_code":"LK","latitude":"7.30440000","longitude":"80.70730000"},{"id":"66505","name":"Matale","state_id":2798,"state_code":"2","country_id":208,"country_code":"LK","latitude":"7.46980000","longitude":"80.62170000"},{"id":"66506","name":"Matale District","state_id":2798,"state_code":"2","country_id":208,"country_code":"LK","latitude":"7.65980000","longitude":"80.70730000"},{"id":"66517","name":"Nuwara Eliya","state_id":2798,"state_code":"2","country_id":208,"country_code":"LK","latitude":"6.97078000","longitude":"80.78286000"},{"id":"66518","name":"Nuwara Eliya District","state_id":2798,"state_code":"2","country_id":208,"country_code":"LK","latitude":"6.97850000","longitude":"80.71330000"},{"id":"66529","name":"Sigiriya","state_id":2798,"state_code":"2","country_id":208,"country_code":"LK","latitude":"7.94946000","longitude":"80.75037000"},{"id":"66531","name":"Talawakele","state_id":2798,"state_code":"2","country_id":208,"country_code":"LK","latitude":"6.93710000","longitude":"80.65810000"}]