[{"id":"135234","name":"\u00deorl\u00e1ksh\u00f6fn","state_id":3434,"state_code":"8","country_id":100,"country_code":"IS","latitude":"63.85591000","longitude":"-21.38337000"},{"id":"135229","name":"\u00c1sahreppur","state_id":3434,"state_code":"8","country_id":100,"country_code":"IS","latitude":"63.87589000","longitude":"-20.59484000"},{"id":"135164","name":"Bl\u00e1sk\u00f3gabygg\u00f0","state_id":3434,"state_code":"8","country_id":100,"country_code":"IS","latitude":"64.41667000","longitude":"-20.33333000"},{"id":"135180","name":"Fl\u00f3ahreppur","state_id":3434,"state_code":"8","country_id":100,"country_code":"IS","latitude":"63.89569000","longitude":"-20.80159000"},{"id":"135184","name":"Gr\u00edmsnes- og Grafningshreppur","state_id":3434,"state_code":"8","country_id":100,"country_code":"IS","latitude":"64.08533000","longitude":"-20.96710000"},{"id":"135188","name":"Hrunamannahreppur","state_id":3434,"state_code":"8","country_id":100,"country_code":"IS","latitude":"64.40944000","longitude":"-19.72237000"},{"id":"135190","name":"Hverager\u00f0i","state_id":3434,"state_code":"8","country_id":100,"country_code":"IS","latitude":"64.00039000","longitude":"-21.18602000"},{"id":"135202","name":"M\u00fdrdalshreppur","state_id":3434,"state_code":"8","country_id":100,"country_code":"IS","latitude":"63.50000000","longitude":"-19.00000000"},{"id":"135210","name":"Selfoss","state_id":3434,"state_code":"8","country_id":100,"country_code":"IS","latitude":"63.93311000","longitude":"-20.99712000"},{"id":"135213","name":"Skaft\u00e1rhreppur","state_id":3434,"state_code":"8","country_id":100,"country_code":"IS","latitude":"63.95948000","longitude":"-18.14491000"},{"id":"135215","name":"Skei\u00f0a- og Gn\u00fapverjahreppur","state_id":3434,"state_code":"8","country_id":100,"country_code":"IS","latitude":"64.34738000","longitude":"-19.37757000"},{"id":"135225","name":"Vestmannaeyjab\u00e6r","state_id":3434,"state_code":"8","country_id":100,"country_code":"IS","latitude":"63.43877000","longitude":"-20.26900000"},{"id":"135226","name":"Vestmannaeyjar","state_id":3434,"state_code":"8","country_id":100,"country_code":"IS","latitude":"63.44273000","longitude":"-20.27339000"}]