[{"id":"135161","name":"Akrahreppur","state_id":3435,"state_code":"5","country_id":100,"country_code":"IS","latitude":"65.35505000","longitude":"-18.79572000"},{"id":"135193","name":"H\u00fana\u00feing Vestra","state_id":3435,"state_code":"5","country_id":100,"country_code":"IS","latitude":"65.25000000","longitude":"-20.91667000"},{"id":"135209","name":"Sau\u00f0\u00e1rkr\u00f3kur","state_id":3435,"state_code":"5","country_id":100,"country_code":"IS","latitude":"65.74611000","longitude":"-19.63944000"},{"id":"135214","name":"Skagabygg\u00f0","state_id":3435,"state_code":"5","country_id":100,"country_code":"IS","latitude":"65.95000000","longitude":"-20.25000000"},{"id":"135222","name":"Sveitarf\u00e9lagi\u00f0 Skagafj\u00f6r\u00f0ur","state_id":3435,"state_code":"5","country_id":100,"country_code":"IS","latitude":"65.50018000","longitude":"-19.44566000"}]