[{"id":"52040","name":"Akhaldaba","state_id":900,"state_code":"AJ","country_id":81,"country_code":"GE","latitude":"41.65395000","longitude":"42.15163000"},{"id":"52053","name":"Batumi","state_id":900,"state_code":"AJ","country_id":81,"country_code":"GE","latitude":"41.64228000","longitude":"41.63392000"},{"id":"52058","name":"Chakvi","state_id":900,"state_code":"AJ","country_id":81,"country_code":"GE","latitude":"41.72528000","longitude":"41.73278000"},{"id":"52061","name":"Dioknisi","state_id":900,"state_code":"AJ","country_id":81,"country_code":"GE","latitude":"41.62933000","longitude":"42.39171000"},{"id":"52081","name":"Khelvachauri","state_id":900,"state_code":"AJ","country_id":81,"country_code":"GE","latitude":"41.58556000","longitude":"41.66889000"},{"id":"52084","name":"Khulo","state_id":900,"state_code":"AJ","country_id":81,"country_code":"GE","latitude":"41.64353000","longitude":"42.30397000"},{"id":"52085","name":"Kobuleti","state_id":900,"state_code":"AJ","country_id":81,"country_code":"GE","latitude":"41.82143000","longitude":"41.77921000"},{"id":"52093","name":"Makhinjauri","state_id":900,"state_code":"AJ","country_id":81,"country_code":"GE","latitude":"41.67385000","longitude":"41.69401000"},{"id":"52104","name":"Ochkhamuri","state_id":900,"state_code":"AJ","country_id":81,"country_code":"GE","latitude":"41.85975000","longitude":"41.85309000"},{"id":"52119","name":"Shuakhevi","state_id":900,"state_code":"AJ","country_id":81,"country_code":"GE","latitude":"41.63000000","longitude":"42.19083000"},{"id":"52134","name":"Tsikhisdziri","state_id":900,"state_code":"AJ","country_id":81,"country_code":"GE","latitude":"41.76659000","longitude":"41.75517000"}]