[{"id":"52035","name":"Abasha","state_id":908,"state_code":"SZ","country_id":81,"country_code":"GE","latitude":"42.20000000","longitude":"42.20000000"},{"id":"52076","name":"Jvari","state_id":908,"state_code":"SZ","country_id":81,"country_code":"GE","latitude":"42.71693000","longitude":"42.05200000"},{"id":"52082","name":"Khobi","state_id":908,"state_code":"SZ","country_id":81,"country_code":"GE","latitude":"42.31558000","longitude":"41.89871000"},{"id":"52087","name":"Kveda Chkhorots\u2019q\u2019u","state_id":908,"state_code":"SZ","country_id":81,"country_code":"GE","latitude":"42.48103000","longitude":"42.09661000"},{"id":"52097","name":"Mart\u2019vili","state_id":908,"state_code":"SZ","country_id":81,"country_code":"GE","latitude":"42.41436000","longitude":"42.37924000"},{"id":"52098","name":"Mest\u2019ia","state_id":908,"state_code":"SZ","country_id":81,"country_code":"GE","latitude":"43.04581000","longitude":"42.72780000"},{"id":"52099","name":"Mest\u2019iis Munitsip\u2019alit\u2019et\u2019i","state_id":908,"state_code":"SZ","country_id":81,"country_code":"GE","latitude":"43.05000000","longitude":"42.55000000"},{"id":"52107","name":"Orsant\u2019ia","state_id":908,"state_code":"SZ","country_id":81,"country_code":"GE","latitude":"42.46777000","longitude":"41.67377000"},{"id":"52110","name":"P\u2019ot\u2019i","state_id":908,"state_code":"SZ","country_id":81,"country_code":"GE","latitude":"42.14616000","longitude":"41.67197000"},{"id":"52117","name":"Senak\u2019i","state_id":908,"state_code":"SZ","country_id":81,"country_code":"GE","latitude":"42.27042000","longitude":"42.06750000"},{"id":"52132","name":"Tsalenjikha","state_id":908,"state_code":"SZ","country_id":81,"country_code":"GE","latitude":"42.60444000","longitude":"42.06825000"},{"id":"52146","name":"Zugdidi","state_id":908,"state_code":"SZ","country_id":81,"country_code":"GE","latitude":"42.50880000","longitude":"41.87088000"}]