[{"id":"52126","name":"Tbilisi","state_id":899,"state_code":"TB","country_id":81,"country_code":"GE","latitude":"41.69411000","longitude":"44.83368000"},{"id":"52040","name":"Akhaldaba","state_id":900,"state_code":"AJ","country_id":81,"country_code":"GE","latitude":"41.65395000","longitude":"42.15163000"},{"id":"52053","name":"Batumi","state_id":900,"state_code":"AJ","country_id":81,"country_code":"GE","latitude":"41.64228000","longitude":"41.63392000"},{"id":"52058","name":"Chakvi","state_id":900,"state_code":"AJ","country_id":81,"country_code":"GE","latitude":"41.72528000","longitude":"41.73278000"},{"id":"52061","name":"Dioknisi","state_id":900,"state_code":"AJ","country_id":81,"country_code":"GE","latitude":"41.62933000","longitude":"42.39171000"},{"id":"52081","name":"Khelvachauri","state_id":900,"state_code":"AJ","country_id":81,"country_code":"GE","latitude":"41.58556000","longitude":"41.66889000"},{"id":"52084","name":"Khulo","state_id":900,"state_code":"AJ","country_id":81,"country_code":"GE","latitude":"41.64353000","longitude":"42.30397000"},{"id":"52085","name":"Kobuleti","state_id":900,"state_code":"AJ","country_id":81,"country_code":"GE","latitude":"41.82143000","longitude":"41.77921000"},{"id":"52093","name":"Makhinjauri","state_id":900,"state_code":"AJ","country_id":81,"country_code":"GE","latitude":"41.67385000","longitude":"41.69401000"},{"id":"52104","name":"Ochkhamuri","state_id":900,"state_code":"AJ","country_id":81,"country_code":"GE","latitude":"41.85975000","longitude":"41.85309000"},{"id":"52119","name":"Shuakhevi","state_id":900,"state_code":"AJ","country_id":81,"country_code":"GE","latitude":"41.63000000","longitude":"42.19083000"},{"id":"52134","name":"Tsikhisdziri","state_id":900,"state_code":"AJ","country_id":81,"country_code":"GE","latitude":"41.76659000","longitude":"41.75517000"},{"id":"52054","name":"Bich\u2019vinta","state_id":901,"state_code":"AB","country_id":81,"country_code":"GE","latitude":"43.16197000","longitude":"40.34102000"},{"id":"52063","name":"Dranda","state_id":901,"state_code":"AB","country_id":81,"country_code":"GE","latitude":"42.87167000","longitude":"41.15333000"},{"id":"52065","name":"Gagra","state_id":901,"state_code":"AB","country_id":81,"country_code":"GE","latitude":"43.27858000","longitude":"40.27124000"},{"id":"52066","name":"Gali","state_id":901,"state_code":"AB","country_id":81,"country_code":"GE","latitude":"42.62655000","longitude":"41.73808000"},{"id":"52067","name":"Gantiadi","state_id":901,"state_code":"AB","country_id":81,"country_code":"GE","latitude":"43.38111000","longitude":"40.07944000"},{"id":"52073","name":"Gudauta","state_id":901,"state_code":"AB","country_id":81,"country_code":"GE","latitude":"43.10547000","longitude":"40.62067000"},{"id":"52078","name":"Kelasuri","state_id":901,"state_code":"AB","country_id":81,"country_code":"GE","latitude":"42.97877000","longitude":"41.07067000"},{"id":"52105","name":"Och\u2019amch\u2019ire","state_id":901,"state_code":"AB","country_id":81,"country_code":"GE","latitude":"42.71232000","longitude":"41.46863000"},{"id":"52111","name":"P\u2019rimorsk\u2019oe","state_id":901,"state_code":"AB","country_id":81,"country_code":"GE","latitude":"43.09236000","longitude":"40.69650000"},{"id":"52122","name":"Sokhumi","state_id":901,"state_code":"AB","country_id":81,"country_code":"GE","latitude":"43.00697000","longitude":"40.98930000"},{"id":"52123","name":"Stantsiya Novyy Afon","state_id":901,"state_code":"AB","country_id":81,"country_code":"GE","latitude":"43.08056000","longitude":"40.83833000"},{"id":"52130","name":"Tqvarch'eli","state_id":901,"state_code":"AB","country_id":81,"country_code":"GE","latitude":"42.84035000","longitude":"41.68007000"},{"id":"52041","name":"Akhalgori","state_id":902,"state_code":"MM","country_id":81,"country_code":"GE","latitude":"42.12597000","longitude":"44.48333000"},{"id":"52064","name":"Dzegvi","state_id":902,"state_code":"MM","country_id":81,"country_code":"GE","latitude":"41.84569000","longitude":"44.60097000"},{"id":"52072","name":"Gudauri","state_id":902,"state_code":"MM","country_id":81,"country_code":"GE","latitude":"42.47797000","longitude":"44.47616000"},{"id":"52075","name":"Java","state_id":902,"state_code":"MM","country_id":81,"country_code":"GE","latitude":"42.39972000","longitude":"43.93667000"},{"id":"52100","name":"Mtskheta","state_id":902,"state_code":"MM","country_id":81,"country_code":"GE","latitude":"41.84514000","longitude":"44.71875000"},{"id":"52109","name":"P\u2019asanauri","state_id":902,"state_code":"MM","country_id":81,"country_code":"GE","latitude":"42.35060000","longitude":"44.68912000"},{"id":"52124","name":"Step\u2019antsminda","state_id":902,"state_code":"MM","country_id":81,"country_code":"GE","latitude":"42.65667000","longitude":"44.64333000"},{"id":"52145","name":"Zhinvali","state_id":902,"state_code":"MM","country_id":81,"country_code":"GE","latitude":"42.13181000","longitude":"44.77264000"},{"id":"52038","name":"Agara","state_id":903,"state_code":"SK","country_id":81,"country_code":"GE","latitude":"42.03761000","longitude":"43.82382000"},{"id":"52070","name":"Gori","state_id":903,"state_code":"SK","country_id":81,"country_code":"GE","latitude":"41.98422000","longitude":"44.11578000"},{"id":"52071","name":"Goris Munitsip\u2019alit\u2019et\u2019i","state_id":903,"state_code":"SK","country_id":81,"country_code":"GE","latitude":"42.06667000","longitude":"44.11667000"},{"id":"52077","name":"Kaspi","state_id":903,"state_code":"SK","country_id":81,"country_code":"GE","latitude":"41.92520000","longitude":"44.42568000"},{"id":"52080","name":"Khashuri","state_id":903,"state_code":"SK","country_id":81,"country_code":"GE","latitude":"41.99414000","longitude":"43.59994000"},{"id":"52125","name":"Surami","state_id":903,"state_code":"SK","country_id":81,"country_code":"GE","latitude":"42.02431000","longitude":"43.55556000"},{"id":"52139","name":"Ts\u2019khinvali","state_id":903,"state_code":"SK","country_id":81,"country_code":"GE","latitude":"42.22764000","longitude":"43.96861000"},{"id":"52055","name":"Bolnisi","state_id":904,"state_code":"KK","country_id":81,"country_code":"GE","latitude":"41.44794000","longitude":"44.53838000"},{"id":"52056","name":"Bolnisis Munitsip\u2019alit\u2019et\u2019i","state_id":904,"state_code":"KK","country_id":81,"country_code":"GE","latitude":"41.36667000","longitude":"44.51667000"},{"id":"52060","name":"Didi Lilo","state_id":904,"state_code":"KK","country_id":81,"country_code":"GE","latitude":"41.73611000","longitude":"44.96472000"},{"id":"52062","name":"Dmanisis Munitsip\u2019alit\u2019et\u2019i","state_id":904,"state_code":"KK","country_id":81,"country_code":"GE","latitude":"41.35000000","longitude":"44.13333000"},{"id":"52068","name":"Gardabani","state_id":904,"state_code":"KK","country_id":81,"country_code":"GE","latitude":"41.46054000","longitude":"45.09283000"},{"id":"52069","name":"Gardabnis Munitsip\u2019alit\u2019et\u2019i","state_id":904,"state_code":"KK","country_id":81,"country_code":"GE","latitude":"41.61667000","longitude":"45.00000000"},{"id":"52094","name":"Manglisi","state_id":904,"state_code":"KK","country_id":81,"country_code":"GE","latitude":"41.69698000","longitude":"44.38448000"},{"id":"52095","name":"Marneuli","state_id":904,"state_code":"KK","country_id":81,"country_code":"GE","latitude":"41.47588000","longitude":"44.80895000"},{"id":"52096","name":"Marneulis Munitsip\u2019alit\u2019et\u2019i","state_id":904,"state_code":"KK","country_id":81,"country_code":"GE","latitude":"41.38333000","longitude":"44.85000000"},{"id":"52101","name":"Naghvarevi","state_id":904,"state_code":"KK","country_id":81,"country_code":"GE","latitude":"41.35272000","longitude":"44.76178000"},{"id":"52113","name":"Rust\u2019avi","state_id":904,"state_code":"KK","country_id":81,"country_code":"GE","latitude":"41.54949000","longitude":"44.99323000"},{"id":"52140","name":"T\u2019et\u2019ri Tsqaro","state_id":904,"state_code":"KK","country_id":81,"country_code":"GE","latitude":"41.54448000","longitude":"44.46153000"},{"id":"52128","name":"Tetrits\u2019q\u2019alos Munitsip\u2019alit\u2019et\u2019i","state_id":904,"state_code":"KK","country_id":81,"country_code":"GE","latitude":"41.60000000","longitude":"44.50000000"},{"id":"52133","name":"Tsalka","state_id":904,"state_code":"KK","country_id":81,"country_code":"GE","latitude":"41.59460000","longitude":"44.08909000"},{"id":"52138","name":"Ts\u2019alk\u2019is Munitsip\u2019alit\u2019et\u2019i","state_id":904,"state_code":"KK","country_id":81,"country_code":"GE","latitude":"41.63333000","longitude":"43.96667000"},{"id":"52051","name":"Baghdatis Munitsip\u2019alit\u2019et\u2019i","state_id":905,"state_code":"IM","country_id":81,"country_code":"GE","latitude":"42.00000000","longitude":"42.90000000"},{"id":"52059","name":"Chiat\u2019ura","state_id":905,"state_code":"IM","country_id":81,"country_code":"GE","latitude":"42.29806000","longitude":"43.29889000"},{"id":"52088","name":"K\u2019alak\u2019i Chiat\u2019ura","state_id":905,"state_code":"IM","country_id":81,"country_code":"GE","latitude":"42.28333000","longitude":"43.25000000"},{"id":"52089","name":"K\u2019ulashi","state_id":905,"state_code":"IM","country_id":81,"country_code":"GE","latitude":"42.20405000","longitude":"42.34289000"},{"id":"52079","name":"Kharagauli","state_id":905,"state_code":"IM","country_id":81,"country_code":"GE","latitude":"42.02137000","longitude":"43.19773000"},{"id":"52083","name":"Khoni","state_id":905,"state_code":"IM","country_id":81,"country_code":"GE","latitude":"42.32260000","longitude":"42.42061000"},{"id":"52086","name":"Kutaisi","state_id":905,"state_code":"IM","country_id":81,"country_code":"GE","latitude":"42.26791000","longitude":"42.69459000"},{"id":"52114","name":"Sach\u2019khere","state_id":905,"state_code":"IM","country_id":81,"country_code":"GE","latitude":"42.34528000","longitude":"43.41944000"},{"id":"52116","name":"Samtredia","state_id":905,"state_code":"IM","country_id":81,"country_code":"GE","latitude":"42.15370000","longitude":"42.33517000"},{"id":"52118","name":"Shorapani","state_id":905,"state_code":"IM","country_id":81,"country_code":"GE","latitude":"42.08980000","longitude":"43.08662000"},{"id":"52129","name":"Tqibuli","state_id":905,"state_code":"IM","country_id":81,"country_code":"GE","latitude":"42.35121000","longitude":"42.99874000"},{"id":"52137","name":"Tsqaltubo","state_id":905,"state_code":"IM","country_id":81,"country_code":"GE","latitude":"42.34129000","longitude":"42.59760000"},{"id":"52143","name":"Vani","state_id":905,"state_code":"IM","country_id":81,"country_code":"GE","latitude":"42.08320000","longitude":"42.52163000"},{"id":"52144","name":"Zestap\u2019oni","state_id":905,"state_code":"IM","country_id":81,"country_code":"GE","latitude":"42.11000000","longitude":"43.05250000"},{"id":"52036","name":"Adigeni","state_id":906,"state_code":"SJ","country_id":81,"country_code":"GE","latitude":"41.68191000","longitude":"42.69867000"},{"id":"52037","name":"Adigeni Municipality","state_id":906,"state_code":"SJ","country_id":81,"country_code":"GE","latitude":"41.71667000","longitude":"42.73333000"},{"id":"52039","name":"Akhaldaba","state_id":906,"state_code":"SJ","country_id":81,"country_code":"GE","latitude":"41.92945000","longitude":"43.48762000"},{"id":"52042","name":"Akhalk\u2019alak\u2019i","state_id":906,"state_code":"SJ","country_id":81,"country_code":"GE","latitude":"41.40514000","longitude":"43.48629000"},{"id":"52043","name":"Akhaltsikhe","state_id":906,"state_code":"SJ","country_id":81,"country_code":"GE","latitude":"41.63901000","longitude":"42.98262000"},{"id":"52044","name":"Akhaltsikhis Munitsip\u2019alit\u2019et\u2019i","state_id":906,"state_code":"SJ","country_id":81,"country_code":"GE","latitude":"41.63333000","longitude":"43.00000000"},{"id":"52050","name":"Asp\u2019indzis Munitsip\u2019alit\u2019et\u2019i","state_id":906,"state_code":"SJ","country_id":81,"country_code":"GE","latitude":"41.50000000","longitude":"43.25000000"},{"id":"52049","name":"Aspindza","state_id":906,"state_code":"SJ","country_id":81,"country_code":"GE","latitude":"41.57389000","longitude":"43.24826000"},{"id":"52052","name":"Bakuriani","state_id":906,"state_code":"SJ","country_id":81,"country_code":"GE","latitude":"41.74972000","longitude":"43.53250000"},{"id":"52057","name":"Borjomi","state_id":906,"state_code":"SJ","country_id":81,"country_code":"GE","latitude":"41.85272000","longitude":"43.41284000"},{"id":"52103","name":"Ninotsminda","state_id":906,"state_code":"SJ","country_id":81,"country_code":"GE","latitude":"41.26458000","longitude":"43.59161000"},{"id":"52131","name":"Tsaghveri","state_id":906,"state_code":"SJ","country_id":81,"country_code":"GE","latitude":"41.80365000","longitude":"43.48194000"},{"id":"52142","name":"Vale","state_id":906,"state_code":"SJ","country_id":81,"country_code":"GE","latitude":"41.61558000","longitude":"42.87224000"},{"id":"52091","name":"Lanchkhuti","state_id":907,"state_code":"GU","country_id":81,"country_code":"GE","latitude":"42.09027000","longitude":"42.03239000"},{"id":"52102","name":"Naruja","state_id":907,"state_code":"GU","country_id":81,"country_code":"GE","latitude":"41.90694000","longitude":"41.95417000"},{"id":"52108","name":"Ozurgeti","state_id":907,"state_code":"GU","country_id":81,"country_code":"GE","latitude":"41.92442000","longitude":"42.00682000"},{"id":"52141","name":"Urek\u2019i","state_id":907,"state_code":"GU","country_id":81,"country_code":"GE","latitude":"41.99556000","longitude":"41.77861000"},{"id":"52035","name":"Abasha","state_id":908,"state_code":"SZ","country_id":81,"country_code":"GE","latitude":"42.20000000","longitude":"42.20000000"},{"id":"52076","name":"Jvari","state_id":908,"state_code":"SZ","country_id":81,"country_code":"GE","latitude":"42.71693000","longitude":"42.05200000"},{"id":"52082","name":"Khobi","state_id":908,"state_code":"SZ","country_id":81,"country_code":"GE","latitude":"42.31558000","longitude":"41.89871000"},{"id":"52087","name":"Kveda Chkhorots\u2019q\u2019u","state_id":908,"state_code":"SZ","country_id":81,"country_code":"GE","latitude":"42.48103000","longitude":"42.09661000"},{"id":"52097","name":"Mart\u2019vili","state_id":908,"state_code":"SZ","country_id":81,"country_code":"GE","latitude":"42.41436000","longitude":"42.37924000"},{"id":"52098","name":"Mest\u2019ia","state_id":908,"state_code":"SZ","country_id":81,"country_code":"GE","latitude":"43.04581000","longitude":"42.72780000"},{"id":"52099","name":"Mest\u2019iis Munitsip\u2019alit\u2019et\u2019i","state_id":908,"state_code":"SZ","country_id":81,"country_code":"GE","latitude":"43.05000000","longitude":"42.55000000"},{"id":"52107","name":"Orsant\u2019ia","state_id":908,"state_code":"SZ","country_id":81,"country_code":"GE","latitude":"42.46777000","longitude":"41.67377000"},{"id":"52110","name":"P\u2019ot\u2019i","state_id":908,"state_code":"SZ","country_id":81,"country_code":"GE","latitude":"42.14616000","longitude":"41.67197000"},{"id":"52117","name":"Senak\u2019i","state_id":908,"state_code":"SZ","country_id":81,"country_code":"GE","latitude":"42.27042000","longitude":"42.06750000"},{"id":"52132","name":"Tsalenjikha","state_id":908,"state_code":"SZ","country_id":81,"country_code":"GE","latitude":"42.60444000","longitude":"42.06825000"},{"id":"52146","name":"Zugdidi","state_id":908,"state_code":"SZ","country_id":81,"country_code":"GE","latitude":"42.50880000","longitude":"41.87088000"},{"id":"52047","name":"Ambrolauri","state_id":909,"state_code":"RL","country_id":81,"country_code":"GE","latitude":"42.52111000","longitude":"43.16222000"},{"id":"52048","name":"Ambrolauris Munitsip\u2019alit\u2019et\u2019i","state_id":909,"state_code":"RL","country_id":81,"country_code":"GE","latitude":"42.56667000","longitude":"43.10000000"},{"id":"52092","name":"Lent\u2019ekhi","state_id":909,"state_code":"RL","country_id":81,"country_code":"GE","latitude":"42.78893000","longitude":"42.72226000"},{"id":"52106","name":"Oni","state_id":909,"state_code":"RL","country_id":81,"country_code":"GE","latitude":"42.57944000","longitude":"43.44250000"},{"id":"52045","name":"Akhmet\u2019a","state_id":910,"state_code":"KA","country_id":81,"country_code":"GE","latitude":"42.03111000","longitude":"45.20750000"},{"id":"52046","name":"Akhmet\u2019is Munitsip\u2019alit\u2019et\u2019i","state_id":910,"state_code":"KA","country_id":81,"country_code":"GE","latitude":"42.25000000","longitude":"45.33333000"},{"id":"52074","name":"Gurjaani","state_id":910,"state_code":"KA","country_id":81,"country_code":"GE","latitude":"41.74292000","longitude":"45.80111000"},{"id":"52090","name":"Lagodekhi","state_id":910,"state_code":"KA","country_id":81,"country_code":"GE","latitude":"41.82681000","longitude":"46.27667000"},{"id":"52112","name":"Qvareli","state_id":910,"state_code":"KA","country_id":81,"country_code":"GE","latitude":"41.95493000","longitude":"45.81716000"},{"id":"52115","name":"Sagarejo","state_id":910,"state_code":"KA","country_id":81,"country_code":"GE","latitude":"41.73397000","longitude":"45.33149000"},{"id":"52120","name":"Sighnaghi","state_id":910,"state_code":"KA","country_id":81,"country_code":"GE","latitude":"41.62046000","longitude":"45.92198000"},{"id":"52121","name":"Sighnaghis Munitsip\u2019alit\u2019et\u2019i","state_id":910,"state_code":"KA","country_id":81,"country_code":"GE","latitude":"41.56667000","longitude":"45.85000000"},{"id":"52127","name":"Telavi","state_id":910,"state_code":"KA","country_id":81,"country_code":"GE","latitude":"41.91978000","longitude":"45.47315000"},{"id":"52135","name":"Tsinandali","state_id":910,"state_code":"KA","country_id":81,"country_code":"GE","latitude":"41.89315000","longitude":"45.57129000"},{"id":"52136","name":"Tsnori","state_id":910,"state_code":"KA","country_id":81,"country_code":"GE","latitude":"41.62088000","longitude":"45.96943000"}]