[{"id":"57082","name":"Athenry","state_id":1087,"state_code":"C","country_id":105,"country_code":"IE","latitude":"53.29639000","longitude":"-8.74306000"},{"id":"57092","name":"Ballaghaderreen","state_id":1087,"state_code":"C","country_id":105,"country_code":"IE","latitude":"53.90000000","longitude":"-8.58333000"},{"id":"57093","name":"Ballina","state_id":1087,"state_code":"C","country_id":105,"country_code":"IE","latitude":"54.11667000","longitude":"-9.16667000"},{"id":"57095","name":"Ballinasloe","state_id":1087,"state_code":"C","country_id":105,"country_code":"IE","latitude":"53.32750000","longitude":"-8.21944000"},{"id":"57097","name":"Ballinrobe","state_id":1087,"state_code":"C","country_id":105,"country_code":"IE","latitude":"53.63333000","longitude":"-9.23333000"},{"id":"57099","name":"Ballisodare","state_id":1087,"state_code":"C","country_id":105,"country_code":"IE","latitude":"54.21110000","longitude":"-8.50865000"},{"id":"57107","name":"Ballyhaunis","state_id":1087,"state_code":"C","country_id":105,"country_code":"IE","latitude":"53.76667000","longitude":"-8.76667000"},{"id":"57111","name":"Ballymote","state_id":1087,"state_code":"C","country_id":105,"country_code":"IE","latitude":"54.08333000","longitude":"-8.51667000"},{"id":"57121","name":"Bearna","state_id":1087,"state_code":"C","country_id":105,"country_code":"IE","latitude":"53.25194000","longitude":"-9.14972000"},{"id":"57123","name":"Belmullet","state_id":1087,"state_code":"C","country_id":105,"country_code":"IE","latitude":"54.22500000","longitude":"-9.99083000"},{"id":"57132","name":"Boyle","state_id":1087,"state_code":"C","country_id":105,"country_code":"IE","latitude":"53.96667000","longitude":"-8.30000000"},{"id":"57147","name":"Carrick-on-Shannon","state_id":1087,"state_code":"C","country_id":105,"country_code":"IE","latitude":"53.94694000","longitude":"-8.09000000"},{"id":"57153","name":"Castlebar","state_id":1087,"state_code":"C","country_id":105,"country_code":"IE","latitude":"53.85000000","longitude":"-9.30000000"},{"id":"57164","name":"Castlerea","state_id":1087,"state_code":"C","country_id":105,"country_code":"IE","latitude":"53.76667000","longitude":"-8.50000000"},{"id":"57176","name":"Claregalway","state_id":1087,"state_code":"C","country_id":105,"country_code":"IE","latitude":"53.33861000","longitude":"-8.94500000"},{"id":"57177","name":"Claremorris","state_id":1087,"state_code":"C","country_id":105,"country_code":"IE","latitude":"53.71667000","longitude":"-9.00000000"},{"id":"57178","name":"Clifden","state_id":1087,"state_code":"C","country_id":105,"country_code":"IE","latitude":"53.48907000","longitude":"-10.01910000"},{"id":"57187","name":"Collooney","state_id":1087,"state_code":"C","country_id":105,"country_code":"IE","latitude":"54.18333000","longitude":"-8.50000000"},{"id":"57197","name":"County Galway","state_id":1087,"state_code":"C","country_id":105,"country_code":"IE","latitude":"53.33333000","longitude":"-9.00000000"},{"id":"57198","name":"County Leitrim","state_id":1087,"state_code":"C","country_id":105,"country_code":"IE","latitude":"54.11667000","longitude":"-8.00000000"},{"id":"57204","name":"Crossmolina","state_id":1087,"state_code":"C","country_id":105,"country_code":"IE","latitude":"54.10000000","longitude":"-9.31667000"},{"id":"57253","name":"Foxford","state_id":1087,"state_code":"C","country_id":105,"country_code":"IE","latitude":"53.98070000","longitude":"-9.11551000"},{"id":"57255","name":"Gaillimh","state_id":1087,"state_code":"C","country_id":105,"country_code":"IE","latitude":"53.27194000","longitude":"-9.04889000"},{"id":"57256","name":"Galway City","state_id":1087,"state_code":"C","country_id":105,"country_code":"IE","latitude":"53.28770000","longitude":"-9.05004000"},{"id":"57259","name":"Gort","state_id":1087,"state_code":"C","country_id":105,"country_code":"IE","latitude":"53.06639000","longitude":"-8.81667000"},{"id":"57267","name":"Inishcrone","state_id":1087,"state_code":"C","country_id":105,"country_code":"IE","latitude":"54.21591000","longitude":"-9.09197000"},{"id":"57291","name":"Kiltamagh","state_id":1087,"state_code":"C","country_id":105,"country_code":"IE","latitude":"53.85000000","longitude":"-9.00000000"},{"id":"57293","name":"Kinlough","state_id":1087,"state_code":"C","country_id":105,"country_code":"IE","latitude":"54.45000000","longitude":"-8.28333000"},{"id":"57310","name":"Loughrea","state_id":1087,"state_code":"C","country_id":105,"country_code":"IE","latitude":"53.19694000","longitude":"-8.56694000"},{"id":"57318","name":"Manorhamilton","state_id":1087,"state_code":"C","country_id":105,"country_code":"IE","latitude":"54.30639000","longitude":"-8.17611000"},{"id":"57321","name":"Mayo County","state_id":1087,"state_code":"C","country_id":105,"country_code":"IE","latitude":"53.90000000","longitude":"-9.25000000"},{"id":"57337","name":"Moycullen","state_id":1087,"state_code":"C","country_id":105,"country_code":"IE","latitude":"53.33783000","longitude":"-9.18002000"},{"id":"57356","name":"Oranmore","state_id":1087,"state_code":"C","country_id":105,"country_code":"IE","latitude":"53.26833000","longitude":"-8.92000000"},{"id":"57357","name":"Oughterard","state_id":1087,"state_code":"C","country_id":105,"country_code":"IE","latitude":"53.41667000","longitude":"-9.33333000"},{"id":"57366","name":"Portumna","state_id":1087,"state_code":"C","country_id":105,"country_code":"IE","latitude":"53.08917000","longitude":"-8.21889000"},{"id":"57385","name":"Roscommon","state_id":1087,"state_code":"C","country_id":105,"country_code":"IE","latitude":"53.75000000","longitude":"-8.25000000"},{"id":"57400","name":"Sligo","state_id":1087,"state_code":"C","country_id":105,"country_code":"IE","latitude":"54.25000000","longitude":"-8.66667000"},{"id":"57404","name":"Strandhill","state_id":1087,"state_code":"C","country_id":105,"country_code":"IE","latitude":"54.27194000","longitude":"-8.59333000"},{"id":"57406","name":"Swinford","state_id":1087,"state_code":"C","country_id":105,"country_code":"IE","latitude":"53.95000000","longitude":"-8.95000000"},{"id":"57416","name":"Tobercurry","state_id":1087,"state_code":"C","country_id":105,"country_code":"IE","latitude":"54.05000000","longitude":"-8.73333000"},{"id":"57421","name":"Tuam","state_id":1087,"state_code":"C","country_id":105,"country_code":"IE","latitude":"53.51667000","longitude":"-8.85000000"},{"id":"57430","name":"Westport","state_id":1087,"state_code":"C","country_id":105,"country_code":"IE","latitude":"53.80000000","longitude":"-9.51667000"}]