[{"id":"9825","name":"Abap\u00f3","state_id":3377,"state_code":"S","country_id":27,"country_code":"BO","latitude":"-18.88279000","longitude":"-63.38026000"},{"id":"9830","name":"Ascenci\u00f3n de Guarayos","state_id":3377,"state_code":"S","country_id":27,"country_code":"BO","latitude":"-15.89299000","longitude":"-63.18855000"},{"id":"9831","name":"Ascensi\u00f3n","state_id":3377,"state_code":"S","country_id":27,"country_code":"BO","latitude":"-15.70000000","longitude":"-63.08333000"},{"id":"9837","name":"Boyuibe","state_id":3377,"state_code":"S","country_id":27,"country_code":"BO","latitude":"-20.43227000","longitude":"-63.28147000"},{"id":"9838","name":"Buena Vista","state_id":3377,"state_code":"S","country_id":27,"country_code":"BO","latitude":"-17.45830000","longitude":"-63.67126000"},{"id":"9840","name":"Camiri","state_id":3377,"state_code":"S","country_id":27,"country_code":"BO","latitude":"-20.03849000","longitude":"-63.51833000"},{"id":"9844","name":"Charagua","state_id":3377,"state_code":"S","country_id":27,"country_code":"BO","latitude":"-19.79151000","longitude":"-63.19864000"},{"id":"9855","name":"Comarapa","state_id":3377,"state_code":"S","country_id":27,"country_code":"BO","latitude":"-17.91537000","longitude":"-64.53163000"},{"id":"9856","name":"Concepci\u00f3n","state_id":3377,"state_code":"S","country_id":27,"country_code":"BO","latitude":"-16.43333000","longitude":"-60.90000000"},{"id":"9859","name":"Cotoca","state_id":3377,"state_code":"S","country_id":27,"country_code":"BO","latitude":"-17.81667000","longitude":"-63.05000000"},{"id":"9864","name":"German Busch","state_id":3377,"state_code":"S","country_id":27,"country_code":"BO","latitude":"-17.77317000","longitude":"-63.19087000"},{"id":"9866","name":"Guarayos","state_id":3377,"state_code":"S","country_id":27,"country_code":"BO","latitude":"-15.82132000","longitude":"-63.24280000"},{"id":"9873","name":"Jorochito","state_id":3377,"state_code":"S","country_id":27,"country_code":"BO","latitude":"-18.05514000","longitude":"-63.42821000"},{"id":"9875","name":"La B\u00e9lgica","state_id":3377,"state_code":"S","country_id":27,"country_code":"BO","latitude":"-17.55000000","longitude":"-63.21667000"},{"id":"9878","name":"Limoncito","state_id":3377,"state_code":"S","country_id":27,"country_code":"BO","latitude":"-18.03104000","longitude":"-63.40523000"},{"id":"9881","name":"Los Negros","state_id":3377,"state_code":"S","country_id":27,"country_code":"BO","latitude":"-17.73333000","longitude":"-63.43333000"},{"id":"9883","name":"Mairana","state_id":3377,"state_code":"S","country_id":27,"country_code":"BO","latitude":"-18.11919000","longitude":"-63.95965000"},{"id":"9885","name":"Mineros","state_id":3377,"state_code":"S","country_id":27,"country_code":"BO","latitude":"-17.11876000","longitude":"-63.23100000"},{"id":"9888","name":"Montero","state_id":3377,"state_code":"S","country_id":27,"country_code":"BO","latitude":"-17.33866000","longitude":"-63.25050000"},{"id":"9890","name":"Okinawa N\u00famero Uno","state_id":3377,"state_code":"S","country_id":27,"country_code":"BO","latitude":"-17.23333000","longitude":"-62.81667000"},{"id":"9893","name":"Pail\u00f3n","state_id":3377,"state_code":"S","country_id":27,"country_code":"BO","latitude":"-17.65000000","longitude":"-62.75000000"},{"id":"9895","name":"Paurito","state_id":3377,"state_code":"S","country_id":27,"country_code":"BO","latitude":"-17.88333000","longitude":"-62.96667000"},{"id":"9897","name":"Portachuelo","state_id":3377,"state_code":"S","country_id":27,"country_code":"BO","latitude":"-17.35168000","longitude":"-63.39282000"},{"id":"9901","name":"Provincia Andr\u00e9s Ib\u00e1\u00f1ez","state_id":3377,"state_code":"S","country_id":27,"country_code":"BO","latitude":"-17.75000000","longitude":"-63.25000000"},{"id":"9997","name":"Provincia \u00c1ngel Sandoval","state_id":3377,"state_code":"S","country_id":27,"country_code":"BO","latitude":"-17.50000000","longitude":"-58.50000000"},{"id":"9998","name":"Provincia \u00d1uflo de Ch\u00e1vez","state_id":3377,"state_code":"S","country_id":27,"country_code":"BO","latitude":"-15.91667000","longitude":"-62.50000000"},{"id":"9924","name":"Provincia Chiquitos","state_id":3377,"state_code":"S","country_id":27,"country_code":"BO","latitude":"-18.00000000","longitude":"-60.00000000"},{"id":"9925","name":"Provincia Cordillera","state_id":3377,"state_code":"S","country_id":27,"country_code":"BO","latitude":"-19.00000000","longitude":"-61.50000000"},{"id":"9928","name":"Provincia Florida","state_id":3377,"state_code":"S","country_id":27,"country_code":"BO","latitude":"-18.00000000","longitude":"-63.91667000"},{"id":"9937","name":"Provincia Ichilo","state_id":3377,"state_code":"S","country_id":27,"country_code":"BO","latitude":"-17.00000000","longitude":"-64.00000000"},{"id":"9951","name":"Provincia Manuel Mar\u00eda Caballero","state_id":3377,"state_code":"S","country_id":27,"country_code":"BO","latitude":"-17.83333000","longitude":"-64.41667000"},{"id":"9979","name":"Provincia Santiesteban","state_id":3377,"state_code":"S","country_id":27,"country_code":"BO","latitude":"-16.50000000","longitude":"-63.50000000"},{"id":"9980","name":"Provincia Sara","state_id":3377,"state_code":"S","country_id":27,"country_code":"BO","latitude":"-16.83333000","longitude":"-63.91667000"},{"id":"9991","name":"Provincia Vallegrande","state_id":3377,"state_code":"S","country_id":27,"country_code":"BO","latitude":"-18.50000000","longitude":"-64.16667000"},{"id":"9992","name":"Provincia Velasco","state_id":3377,"state_code":"S","country_id":27,"country_code":"BO","latitude":"-15.50000000","longitude":"-61.00000000"},{"id":"9993","name":"Provincia Warnes","state_id":3377,"state_code":"S","country_id":27,"country_code":"BO","latitude":"-17.33333000","longitude":"-63.00000000"},{"id":"9999","name":"Puerto Quijarro","state_id":3377,"state_code":"S","country_id":27,"country_code":"BO","latitude":"-17.78333000","longitude":"-57.76667000"},{"id":"10001","name":"Puesto de Pailas","state_id":3377,"state_code":"S","country_id":27,"country_code":"BO","latitude":"-17.65000000","longitude":"-62.80000000"},{"id":"10007","name":"Robor\u00e9","state_id":3377,"state_code":"S","country_id":27,"country_code":"BO","latitude":"-18.33473000","longitude":"-59.76142000"},{"id":"10010","name":"Samaipata","state_id":3377,"state_code":"S","country_id":27,"country_code":"BO","latitude":"-18.18005000","longitude":"-63.87552000"},{"id":"10012","name":"San Carlos","state_id":3377,"state_code":"S","country_id":27,"country_code":"BO","latitude":"-17.40000000","longitude":"-63.75000000"},{"id":"10013","name":"San Ignacio de Velasco","state_id":3377,"state_code":"S","country_id":27,"country_code":"BO","latitude":"-16.36667000","longitude":"-60.95000000"},{"id":"10014","name":"San Juan del Surut\u00fa","state_id":3377,"state_code":"S","country_id":27,"country_code":"BO","latitude":"-17.48333000","longitude":"-63.70000000"},{"id":"10015","name":"San Julian","state_id":3377,"state_code":"S","country_id":27,"country_code":"BO","latitude":"-17.78333000","longitude":"-62.86667000"},{"id":"10016","name":"San Mat\u00edas","state_id":3377,"state_code":"S","country_id":27,"country_code":"BO","latitude":"-16.36667000","longitude":"-58.40000000"},{"id":"10018","name":"San Pedro","state_id":3377,"state_code":"S","country_id":27,"country_code":"BO","latitude":"-18.28333000","longitude":"-59.81667000"},{"id":"10023","name":"Santa Cruz de la Sierra","state_id":3377,"state_code":"S","country_id":27,"country_code":"BO","latitude":"-17.78629000","longitude":"-63.18117000"},{"id":"10024","name":"Santa Rita","state_id":3377,"state_code":"S","country_id":27,"country_code":"BO","latitude":"-17.96667000","longitude":"-63.35000000"},{"id":"10026","name":"Santa Rosa del Sara","state_id":3377,"state_code":"S","country_id":27,"country_code":"BO","latitude":"-17.10916000","longitude":"-63.59514000"},{"id":"10027","name":"Santiago del Torno","state_id":3377,"state_code":"S","country_id":27,"country_code":"BO","latitude":"-17.98674000","longitude":"-63.38118000"},{"id":"10043","name":"Urubich\u00e1","state_id":3377,"state_code":"S","country_id":27,"country_code":"BO","latitude":"-15.39286000","longitude":"-62.94661000"},{"id":"10045","name":"Vallegrande","state_id":3377,"state_code":"S","country_id":27,"country_code":"BO","latitude":"-18.48923000","longitude":"-64.10609000"},{"id":"10046","name":"Villa Yapacan\u00ed","state_id":3377,"state_code":"S","country_id":27,"country_code":"BO","latitude":"-17.40000000","longitude":"-63.83333000"},{"id":"10050","name":"Warnes","state_id":3377,"state_code":"S","country_id":27,"country_code":"BO","latitude":"-17.51630000","longitude":"-63.16778000"}]