[{"id":"9834","name":"Bermejo","state_id":3378,"state_code":"T","country_id":27,"country_code":"BO","latitude":"-22.73206000","longitude":"-64.33724000"},{"id":"9862","name":"Entre R\u00edos","state_id":3378,"state_code":"T","country_id":27,"country_code":"BO","latitude":"-21.52661000","longitude":"-64.17299000"},{"id":"9903","name":"Provincia Arce","state_id":3378,"state_code":"T","country_id":27,"country_code":"BO","latitude":"-22.16667000","longitude":"-64.33333000"},{"id":"9907","name":"Provincia Avilez","state_id":3378,"state_code":"T","country_id":27,"country_code":"BO","latitude":"-21.66667000","longitude":"-65.00000000"},{"id":"9919","name":"Provincia Cercado","state_id":3378,"state_code":"T","country_id":27,"country_code":"BO","latitude":"-21.58333000","longitude":"-64.58333000"},{"id":"9934","name":"Provincia Gran Chaco","state_id":3378,"state_code":"T","country_id":27,"country_code":"BO","latitude":"-21.66667000","longitude":"-63.00000000"},{"id":"9959","name":"Provincia M\u00e9ndez","state_id":3378,"state_code":"T","country_id":27,"country_code":"BO","latitude":"-21.16667000","longitude":"-64.91667000"},{"id":"9967","name":"Provincia O\u2019Connor","state_id":3378,"state_code":"T","country_id":27,"country_code":"BO","latitude":"-21.58333000","longitude":"-64.16667000"},{"id":"10035","name":"Tarija","state_id":3378,"state_code":"T","country_id":27,"country_code":"BO","latitude":"-21.53549000","longitude":"-64.72956000"},{"id":"10047","name":"Villamontes","state_id":3378,"state_code":"T","country_id":27,"country_code":"BO","latitude":"-21.26235000","longitude":"-63.46903000"},{"id":"10051","name":"Yacuiba","state_id":3378,"state_code":"T","country_id":27,"country_code":"BO","latitude":"-22.01643000","longitude":"-63.67753000"}]