[{"id":"65572","name":"Al A\u1e29madi","state_id":977,"state_code":"AH","country_id":117,"country_code":"KW","latitude":"29.07694000","longitude":"48.08389000"},{"id":"65574","name":"Al Fa\u1e29a\u1e29il","state_id":977,"state_code":"AH","country_id":117,"country_code":"KW","latitude":"29.08250000","longitude":"48.13028000"},{"id":"65575","name":"Al Fintas","state_id":977,"state_code":"AH","country_id":117,"country_code":"KW","latitude":"29.17389000","longitude":"48.12111000"},{"id":"65578","name":"Al Mahbulah","state_id":977,"state_code":"AH","country_id":117,"country_code":"KW","latitude":"29.14500000","longitude":"48.13028000"},{"id":"65579","name":"Al Manqaf","state_id":977,"state_code":"AH","country_id":117,"country_code":"KW","latitude":"29.09611000","longitude":"48.13278000"},{"id":"65580","name":"Al Wafrah","state_id":977,"state_code":"AH","country_id":117,"country_code":"KW","latitude":"28.63917000","longitude":"47.93056000"},{"id":"65582","name":"Ar Riqqah","state_id":977,"state_code":"AH","country_id":117,"country_code":"KW","latitude":"29.14583000","longitude":"48.09472000"}]