[{"id":"80572","name":"Bagua Grande","state_id":3685,"state_code":"AMA","country_id":173,"country_code":"PE","latitude":"-5.75611000","longitude":"-78.44111000"},{"id":"80582","name":"Cajaruro","state_id":3685,"state_code":"AMA","country_id":173,"country_code":"PE","latitude":"-5.73639000","longitude":"-78.42556000"},{"id":"80602","name":"Chachapoyas","state_id":3685,"state_code":"AMA","country_id":173,"country_code":"PE","latitude":"-6.23169000","longitude":"-77.86903000"},{"id":"80632","name":"Condorcanqui","state_id":3685,"state_code":"AMA","country_id":173,"country_code":"PE","latitude":"-4.16515000","longitude":"-78.03840000"},{"id":"80689","name":"La Peca","state_id":3685,"state_code":"AMA","country_id":173,"country_code":"PE","latitude":"-5.61111000","longitude":"-78.43500000"},{"id":"80781","name":"Provincia de Bagua","state_id":3685,"state_code":"AMA","country_id":173,"country_code":"PE","latitude":"-5.09006000","longitude":"-78.39972000"},{"id":"80784","name":"Provincia de Bongar\u00e1","state_id":3685,"state_code":"AMA","country_id":173,"country_code":"PE","latitude":"-5.68341000","longitude":"-77.87308000"},{"id":"80803","name":"Provincia de Chachapoyas","state_id":3685,"state_code":"AMA","country_id":173,"country_code":"PE","latitude":"-6.27480000","longitude":"-77.81067000"},{"id":"80857","name":"Provincia de Luya","state_id":3685,"state_code":"AMA","country_id":173,"country_code":"PE","latitude":"-6.41667000","longitude":"-78.00000000"},{"id":"80885","name":"Provincia de Rodr\u00edguez de Mendoza","state_id":3685,"state_code":"AMA","country_id":173,"country_code":"PE","latitude":"-6.33333000","longitude":"-77.41667000"},{"id":"81006","name":"Utcubamba","state_id":3685,"state_code":"AMA","country_id":173,"country_code":"PE","latitude":"-5.77031000","longitude":"-78.32850000"}]