[{"id":"80558","name":"Ambo","state_id":3687,"state_code":"HUC","country_id":173,"country_code":"PE","latitude":"-10.13083000","longitude":"-76.20472000"},{"id":"80646","name":"Huacaybamba","state_id":3687,"state_code":"HUC","country_id":173,"country_code":"PE","latitude":"-8.99480000","longitude":"-76.81027000"},{"id":"80665","name":"Hu\u00e1nuco","state_id":3687,"state_code":"HUC","country_id":173,"country_code":"PE","latitude":"-9.93062000","longitude":"-76.24223000"},{"id":"80691","name":"La Uni\u00f3n","state_id":3687,"state_code":"HUC","country_id":173,"country_code":"PE","latitude":"-9.82702000","longitude":"-76.80199000"},{"id":"80699","name":"Lauricocha","state_id":3687,"state_code":"HUC","country_id":173,"country_code":"PE","latitude":"-10.20055000","longitude":"-76.70359000"},{"id":"80703","name":"Llata","state_id":3687,"state_code":"HUC","country_id":173,"country_code":"PE","latitude":"-9.41667000","longitude":"-76.78333000"},{"id":"80771","name":"Provincia de Ambo","state_id":3687,"state_code":"HUC","country_id":173,"country_code":"PE","latitude":"-10.16667000","longitude":"-76.16667000"},{"id":"80821","name":"Provincia de Dos de Mayo","state_id":3687,"state_code":"HUC","country_id":173,"country_code":"PE","latitude":"-9.91667000","longitude":"-76.75000000"},{"id":"80828","name":"Provincia de Huamal\u00edes","state_id":3687,"state_code":"HUC","country_id":173,"country_code":"PE","latitude":"-9.25000000","longitude":"-76.50000000"},{"id":"80842","name":"Provincia de Hu\u00e1nuco","state_id":3687,"state_code":"HUC","country_id":173,"country_code":"PE","latitude":"-9.66667000","longitude":"-76.08333000"},{"id":"80855","name":"Provincia de Leoncio Prado","state_id":3687,"state_code":"HUC","country_id":173,"country_code":"PE","latitude":"-9.16667000","longitude":"-76.00000000"},{"id":"80859","name":"Provincia de Mara\u00f1\u00f3n","state_id":3687,"state_code":"HUC","country_id":173,"country_code":"PE","latitude":"-8.75000000","longitude":"-76.66667000"},{"id":"80869","name":"Provincia de Pachitea","state_id":3687,"state_code":"HUC","country_id":173,"country_code":"PE","latitude":"-9.95262000","longitude":"-75.81390000"},{"id":"80917","name":"Puerto Inca","state_id":3687,"state_code":"HUC","country_id":173,"country_code":"PE","latitude":"-9.36696000","longitude":"-75.08958000"},{"id":"80952","name":"San Miguel de Cauri","state_id":3687,"state_code":"HUC","country_id":173,"country_code":"PE","latitude":"-10.13818000","longitude":"-76.62288000"},{"id":"80992","name":"Tingo Mar\u00eda","state_id":3687,"state_code":"HUC","country_id":173,"country_code":"PE","latitude":"-9.29532000","longitude":"-75.99574000"},{"id":"81014","name":"Yanacancha","state_id":3687,"state_code":"HUC","country_id":173,"country_code":"PE","latitude":"-10.24111000","longitude":"-76.64556000"},{"id":"81016","name":"Yarowilca","state_id":3687,"state_code":"HUC","country_id":173,"country_code":"PE","latitude":"-9.80263000","longitude":"-76.59516000"}]