[{"id":"80557","name":"Aguas Verdes","state_id":3689,"state_code":"TUM","country_id":173,"country_code":"PE","latitude":"-3.48139000","longitude":"-80.24500000"},{"id":"80751","name":"Papayal","state_id":3689,"state_code":"TUM","country_id":173,"country_code":"PE","latitude":"-4.07771000","longitude":"-80.73690000"},{"id":"80813","name":"Provincia de Contralmirante Villar","state_id":3689,"state_code":"TUM","country_id":173,"country_code":"PE","latitude":"-4.00000000","longitude":"-80.75000000"},{"id":"80905","name":"Provincia de Tumbes","state_id":3689,"state_code":"TUM","country_id":173,"country_code":"PE","latitude":"-3.75000000","longitude":"-80.41667000"},{"id":"80912","name":"Provincia de Zarumilla","state_id":3689,"state_code":"TUM","country_id":173,"country_code":"PE","latitude":"-3.66667000","longitude":"-80.25000000"},{"id":"80999","name":"Tumbes","state_id":3689,"state_code":"TUM","country_id":173,"country_code":"PE","latitude":"-3.56694000","longitude":"-80.45153000"},{"id":"81021","name":"Zarumilla","state_id":3689,"state_code":"TUM","country_id":173,"country_code":"PE","latitude":"-3.50306000","longitude":"-80.27306000"},{"id":"81022","name":"Zorritos","state_id":3689,"state_code":"TUM","country_id":173,"country_code":"PE","latitude":"-3.68046000","longitude":"-80.67819000"}]