[{"id":"80563","name":"Asentamiento Humano Nicolas de Pierola","state_id":3695,"state_code":"LIM","country_id":173,"country_code":"PE","latitude":"-11.93573000","longitude":"-76.70611000"},{"id":"80574","name":"Barranca","state_id":3695,"state_code":"LIM","country_id":173,"country_code":"PE","latitude":"-10.75000000","longitude":"-77.76667000"},{"id":"80585","name":"Caleta de Carqu\u00edn","state_id":3695,"state_code":"LIM","country_id":173,"country_code":"PE","latitude":"-11.09250000","longitude":"-77.62667000"},{"id":"80603","name":"Chancay","state_id":3695,"state_code":"LIM","country_id":173,"country_code":"PE","latitude":"-11.57139000","longitude":"-77.26722000"},{"id":"80614","name":"Chilca","state_id":3695,"state_code":"LIM","country_id":173,"country_code":"PE","latitude":"-12.52111000","longitude":"-76.73722000"},{"id":"80622","name":"Chosica","state_id":3695,"state_code":"LIM","country_id":173,"country_code":"PE","latitude":"-11.94306000","longitude":"-76.70944000"},{"id":"80647","name":"Huacho","state_id":3695,"state_code":"LIM","country_id":173,"country_code":"PE","latitude":"-11.10667000","longitude":"-77.60500000"},{"id":"80648","name":"Hualmay","state_id":3695,"state_code":"LIM","country_id":173,"country_code":"PE","latitude":"-11.09639000","longitude":"-77.61389000"},{"id":"80654","name":"Huaral","state_id":3695,"state_code":"LIM","country_id":173,"country_code":"PE","latitude":"-11.49500000","longitude":"-77.20778000"},{"id":"80660","name":"Huaura","state_id":3695,"state_code":"LIM","country_id":173,"country_code":"PE","latitude":"-11.07000000","longitude":"-77.59944000"},{"id":"80671","name":"Imperial","state_id":3695,"state_code":"LIM","country_id":173,"country_code":"PE","latitude":"-13.05927000","longitude":"-76.35269000"},{"id":"80672","name":"Independencia","state_id":3695,"state_code":"LIM","country_id":173,"country_code":"PE","latitude":"-11.99000000","longitude":"-77.04583000"},{"id":"80708","name":"Mala","state_id":3695,"state_code":"LIM","country_id":173,"country_code":"PE","latitude":"-12.65806000","longitude":"-76.63083000"},{"id":"80712","name":"Matucana","state_id":3695,"state_code":"LIM","country_id":173,"country_code":"PE","latitude":"-11.85000000","longitude":"-76.40000000"},{"id":"80730","name":"Nuevo Imperial","state_id":3695,"state_code":"LIM","country_id":173,"country_code":"PE","latitude":"-13.07541000","longitude":"-76.31719000"},{"id":"80740","name":"Oy\u00f3n","state_id":3695,"state_code":"LIM","country_id":173,"country_code":"PE","latitude":"-10.66846000","longitude":"-76.77165000"},{"id":"80738","name":"Oyon","state_id":3695,"state_code":"LIM","country_id":173,"country_code":"PE","latitude":"-10.75869000","longitude":"-76.87634000"},{"id":"80753","name":"Paramonga","state_id":3695,"state_code":"LIM","country_id":173,"country_code":"PE","latitude":"-10.66667000","longitude":"-77.83333000"},{"id":"80754","name":"Pativilca","state_id":3695,"state_code":"LIM","country_id":173,"country_code":"PE","latitude":"-10.70000000","longitude":"-77.78333000"},{"id":"80801","name":"Provincia de Ca\u00f1ete","state_id":3695,"state_code":"LIM","country_id":173,"country_code":"PE","latitude":"-12.75000000","longitude":"-76.33333000"},{"id":"80787","name":"Provincia de Cajatambo","state_id":3695,"state_code":"LIM","country_id":173,"country_code":"PE","latitude":"-10.66667000","longitude":"-77.00000000"},{"id":"80793","name":"Provincia de Canta","state_id":3695,"state_code":"LIM","country_id":173,"country_code":"PE","latitude":"-11.46667000","longitude":"-76.61667000"},{"id":"80836","name":"Provincia de Huaral","state_id":3695,"state_code":"LIM","country_id":173,"country_code":"PE","latitude":"-11.25000000","longitude":"-76.91667000"},{"id":"80840","name":"Provincia de Huarochir\u00ed","state_id":3695,"state_code":"LIM","country_id":173,"country_code":"PE","latitude":"-11.91667000","longitude":"-76.41667000"},{"id":"80910","name":"Provincia de Yauyos","state_id":3695,"state_code":"LIM","country_id":173,"country_code":"PE","latitude":"-12.41667000","longitude":"-76.00000000"},{"id":"80920","name":"Puerto Supe","state_id":3695,"state_code":"LIM","country_id":173,"country_code":"PE","latitude":"-10.80135000","longitude":"-77.74333000"},{"id":"80930","name":"Quilman\u00e1","state_id":3695,"state_code":"LIM","country_id":173,"country_code":"PE","latitude":"-12.94860000","longitude":"-76.38112000"},{"id":"80933","name":"Ricardo Palma","state_id":3695,"state_code":"LIM","country_id":173,"country_code":"PE","latitude":"-11.91978000","longitude":"-76.65610000"},{"id":"80942","name":"San Bartolo","state_id":3695,"state_code":"LIM","country_id":173,"country_code":"PE","latitude":"-12.38333000","longitude":"-76.78333000"},{"id":"80945","name":"San Isidro","state_id":3695,"state_code":"LIM","country_id":173,"country_code":"PE","latitude":"-12.11667000","longitude":"-77.05000000"},{"id":"80950","name":"San Luis","state_id":3695,"state_code":"LIM","country_id":173,"country_code":"PE","latitude":"-12.07674000","longitude":"-76.99435000"},{"id":"80958","name":"San Vicente de Ca\u00f1ete","state_id":3695,"state_code":"LIM","country_id":173,"country_code":"PE","latitude":"-13.07556000","longitude":"-76.38528000"},{"id":"80962","name":"Santa Mar\u00eda","state_id":3695,"state_code":"LIM","country_id":173,"country_code":"PE","latitude":"-12.00538000","longitude":"-76.89329000"},{"id":"80967","name":"Santiago de Surco","state_id":3695,"state_code":"LIM","country_id":173,"country_code":"PE","latitude":"-12.13588000","longitude":"-77.00742000"},{"id":"80971","name":"Say\u00e1n","state_id":3695,"state_code":"LIM","country_id":173,"country_code":"PE","latitude":"-11.13333000","longitude":"-77.19460000"},{"id":"80980","name":"Supe","state_id":3695,"state_code":"LIM","country_id":173,"country_code":"PE","latitude":"-10.79750000","longitude":"-77.71306000"},{"id":"81003","name":"Urb. Santo Domingo","state_id":3695,"state_code":"LIM","country_id":173,"country_code":"PE","latitude":"-11.87655000","longitude":"-77.03345000"},{"id":"81013","name":"V\u00e9gueta","state_id":3695,"state_code":"LIM","country_id":173,"country_code":"PE","latitude":"-11.02253000","longitude":"-77.64378000"}]