[{"id":"80612","name":"Chiclayo","state_id":3702,"state_code":"LAM","country_id":173,"country_code":"PE","latitude":"-6.77137000","longitude":"-79.84088000"},{"id":"80621","name":"Chongoyape","state_id":3702,"state_code":"LAM","country_id":173,"country_code":"PE","latitude":"-6.64056000","longitude":"-79.38917000"},{"id":"80641","name":"Eten","state_id":3702,"state_code":"LAM","country_id":173,"country_code":"PE","latitude":"-6.90806000","longitude":"-79.86417000"},{"id":"80642","name":"Ferre\u00f1afe","state_id":3702,"state_code":"LAM","country_id":173,"country_code":"PE","latitude":"-6.63889000","longitude":"-79.78889000"},{"id":"80675","name":"Jayanca","state_id":3702,"state_code":"LAM","country_id":173,"country_code":"PE","latitude":"-6.39083000","longitude":"-79.82194000"},{"id":"80694","name":"Lambayeque","state_id":3702,"state_code":"LAM","country_id":173,"country_code":"PE","latitude":"-6.70111000","longitude":"-79.90611000"},{"id":"80728","name":"M\u00f3rrope","state_id":3702,"state_code":"LAM","country_id":173,"country_code":"PE","latitude":"-6.53536000","longitude":"-80.01104000"},{"id":"80716","name":"Mochum\u00ed","state_id":3702,"state_code":"LAM","country_id":173,"country_code":"PE","latitude":"-6.54364000","longitude":"-79.86217000"},{"id":"80718","name":"Monsef\u00fa","state_id":3702,"state_code":"LAM","country_id":173,"country_code":"PE","latitude":"-6.87431000","longitude":"-79.86871000"},{"id":"80725","name":"Motupe","state_id":3702,"state_code":"LAM","country_id":173,"country_code":"PE","latitude":"-6.15194000","longitude":"-79.71417000"},{"id":"80732","name":"Olmos","state_id":3702,"state_code":"LAM","country_id":173,"country_code":"PE","latitude":"-5.98472000","longitude":"-79.74528000"},{"id":"80739","name":"Oyot\u00fan","state_id":3702,"state_code":"LAM","country_id":173,"country_code":"PE","latitude":"-6.84438000","longitude":"-79.30093000"},{"id":"80760","name":"Picsi","state_id":3702,"state_code":"LAM","country_id":173,"country_code":"PE","latitude":"-6.71778000","longitude":"-79.76972000"},{"id":"80762","name":"Pimentel","state_id":3702,"state_code":"LAM","country_id":173,"country_code":"PE","latitude":"-6.83667000","longitude":"-79.93417000"},{"id":"80804","name":"Provincia de Chiclayo","state_id":3702,"state_code":"LAM","country_id":173,"country_code":"PE","latitude":"-6.76667000","longitude":"-79.85000000"},{"id":"80823","name":"Provincia de Ferre\u00f1afe","state_id":3702,"state_code":"LAM","country_id":173,"country_code":"PE","latitude":"-6.33333000","longitude":"-79.50000000"},{"id":"80853","name":"Provincia de Lambayeque","state_id":3702,"state_code":"LAM","country_id":173,"country_code":"PE","latitude":"-6.08333000","longitude":"-80.08333000"},{"id":"80916","name":"Pueblo Nuevo","state_id":3702,"state_code":"LAM","country_id":173,"country_code":"PE","latitude":"-5.71667000","longitude":"-79.88333000"},{"id":"80932","name":"Reque","state_id":3702,"state_code":"LAM","country_id":173,"country_code":"PE","latitude":"-6.86556000","longitude":"-79.81778000"},{"id":"80972","name":"Sa\u00f1a","state_id":3702,"state_code":"LAM","country_id":173,"country_code":"PE","latitude":"-6.91888000","longitude":"-79.58200000"},{"id":"80948","name":"San Jos\u00e9","state_id":3702,"state_code":"LAM","country_id":173,"country_code":"PE","latitude":"-6.73813000","longitude":"-79.82750000"},{"id":"80963","name":"Santa Rosa","state_id":3702,"state_code":"LAM","country_id":173,"country_code":"PE","latitude":"-6.75772000","longitude":"-79.82747000"},{"id":"81001","name":"T\u00facume","state_id":3702,"state_code":"LAM","country_id":173,"country_code":"PE","latitude":"-6.50637000","longitude":"-79.85725000"}]