[{"id":"105191","name":"Amphoe Ban Fang","state_id":3485,"state_code":"40","country_id":219,"country_code":"TH","latitude":"16.49162000","longitude":"102.61669000"},{"id":"105192","name":"Amphoe Ban Haet","state_id":3485,"state_code":"40","country_id":219,"country_code":"TH","latitude":"16.20067000","longitude":"102.77465000"},{"id":"105211","name":"Amphoe Ban Phai","state_id":3485,"state_code":"40","country_id":219,"country_code":"TH","latitude":"16.04603000","longitude":"102.77755000"},{"id":"105307","name":"Amphoe Chonnabot","state_id":3485,"state_code":"40","country_id":219,"country_code":"TH","latitude":"16.02249000","longitude":"102.55946000"},{"id":"105310","name":"Amphoe Chum Phae","state_id":3485,"state_code":"40","country_id":219,"country_code":"TH","latitude":"16.61591000","longitude":"102.09619000"},{"id":"105398","name":"Amphoe Khao Suan Kwang","state_id":3485,"state_code":"40","country_id":219,"country_code":"TH","latitude":"16.91682000","longitude":"102.78206000"},{"id":"105417","name":"Amphoe Khok Pho Chai","state_id":3485,"state_code":"40","country_id":219,"country_code":"TH","latitude":"16.07194000","longitude":"102.38428000"},{"id":"105452","name":"Amphoe Kranuan","state_id":3485,"state_code":"40","country_id":219,"country_code":"TH","latitude":"16.75261000","longitude":"103.08044000"},{"id":"105525","name":"Amphoe Mancha Khiri","state_id":3485,"state_code":"40","country_id":219,"country_code":"TH","latitude":"16.21242000","longitude":"102.51973000"},{"id":"105545","name":"Amphoe Mueang Khon Kaen","state_id":3485,"state_code":"40","country_id":219,"country_code":"TH","latitude":"16.46048000","longitude":"102.80873000"},{"id":"105638","name":"Amphoe Nam Phong","state_id":3485,"state_code":"40","country_id":219,"country_code":"TH","latitude":"16.69946000","longitude":"102.88125000"},{"id":"105654","name":"Amphoe Non Sila","state_id":3485,"state_code":"40","country_id":219,"country_code":"TH","latitude":"15.96420000","longitude":"102.69074000"},{"id":"105674","name":"Amphoe Nong Na Kham","state_id":3485,"state_code":"40","country_id":219,"country_code":"TH","latitude":"16.81010000","longitude":"102.32800000"},{"id":"105678","name":"Amphoe Nong Ruea","state_id":3485,"state_code":"40","country_id":219,"country_code":"TH","latitude":"16.49166000","longitude":"102.44572000"},{"id":"105681","name":"Amphoe Nong Song Hong","state_id":3485,"state_code":"40","country_id":219,"country_code":"TH","latitude":"15.76419000","longitude":"102.79174000"},{"id":"105751","name":"Amphoe Phon","state_id":3485,"state_code":"40","country_id":219,"country_code":"TH","latitude":"15.80672000","longitude":"102.59111000"},{"id":"105766","name":"Amphoe Phra Yuen","state_id":3485,"state_code":"40","country_id":219,"country_code":"TH","latitude":"16.30823000","longitude":"102.67108000"},{"id":"105777","name":"Amphoe Phu Pha Man","state_id":3485,"state_code":"40","country_id":219,"country_code":"TH","latitude":"16.71864000","longitude":"101.87081000"},{"id":"105783","name":"Amphoe Phu Wiang","state_id":3485,"state_code":"40","country_id":219,"country_code":"TH","latitude":"16.67910000","longitude":"102.39893000"},{"id":"105801","name":"Amphoe Pueai Noi","state_id":3485,"state_code":"40","country_id":219,"country_code":"TH","latitude":"15.88867000","longitude":"102.87618000"},{"id":"106178","name":"Amphoe Sam Sung","state_id":3485,"state_code":"40","country_id":219,"country_code":"TH","latitude":"16.56208000","longitude":"103.05473000"},{"id":"106212","name":"Amphoe Si Chom Phu","state_id":3485,"state_code":"40","country_id":219,"country_code":"TH","latitude":"16.76258000","longitude":"102.13078000"},{"id":"106325","name":"Amphoe Ubolratana","state_id":3485,"state_code":"40","country_id":219,"country_code":"TH","latitude":"16.77766000","longitude":"102.67536000"},{"id":"106331","name":"Amphoe Waeng Noi","state_id":3485,"state_code":"40","country_id":219,"country_code":"TH","latitude":"15.80631000","longitude":"102.42358000"},{"id":"106332","name":"Amphoe Waeng Yai","state_id":3485,"state_code":"40","country_id":219,"country_code":"TH","latitude":"15.92532000","longitude":"102.46221000"},{"id":"106363","name":"Amphoe Wiang Kao","state_id":3485,"state_code":"40","country_id":219,"country_code":"TH","latitude":"16.70138000","longitude":"102.29186000"},{"id":"106406","name":"Ban Phai","state_id":3485,"state_code":"40","country_id":219,"country_code":"TH","latitude":"16.05997000","longitude":"102.73097000"},{"id":"106483","name":"Chum Phae","state_id":3485,"state_code":"40","country_id":219,"country_code":"TH","latitude":"16.54430000","longitude":"102.09924000"},{"id":"106531","name":"Khon Kaen","state_id":3485,"state_code":"40","country_id":219,"country_code":"TH","latitude":"16.44671000","longitude":"102.83300000"},{"id":"106541","name":"Kranuan","state_id":3485,"state_code":"40","country_id":219,"country_code":"TH","latitude":"16.70672000","longitude":"103.07878000"},{"id":"106639","name":"Phon","state_id":3485,"state_code":"40","country_id":219,"country_code":"TH","latitude":"15.81600000","longitude":"102.59981000"},{"id":"106659","name":"Pueai Noi","state_id":3485,"state_code":"40","country_id":219,"country_code":"TH","latitude":"15.86978000","longitude":"102.90767000"}]