[{"id":"105194","name":"Amphoe Ban Kha","state_id":3499,"state_code":"70","country_id":219,"country_code":"TH","latitude":"13.32374000","longitude":"99.37323000"},{"id":"105215","name":"Amphoe Ban Pong","state_id":3499,"state_code":"70","country_id":219,"country_code":"TH","latitude":"13.81660000","longitude":"99.82147000"},{"id":"105237","name":"Amphoe Bang Phae","state_id":3499,"state_code":"70","country_id":219,"country_code":"TH","latitude":"13.68333000","longitude":"99.98333000"},{"id":"105303","name":"Amphoe Chom Bueng","state_id":3499,"state_code":"70","country_id":219,"country_code":"TH","latitude":"13.62520000","longitude":"99.51870000"},{"id":"105316","name":"Amphoe Damnoen Saduak","state_id":3499,"state_code":"70","country_id":219,"country_code":"TH","latitude":"13.56537000","longitude":"99.97042000"},{"id":"105579","name":"Amphoe Mueang Ratchaburi","state_id":3499,"state_code":"70","country_id":219,"country_code":"TH","latitude":"13.54559000","longitude":"99.77678000"},{"id":"105707","name":"Amphoe Pak Tho","state_id":3499,"state_code":"70","country_id":219,"country_code":"TH","latitude":"13.38761000","longitude":"99.67700000"},{"id":"105759","name":"Amphoe Photharam","state_id":3499,"state_code":"70","country_id":219,"country_code":"TH","latitude":"13.70707000","longitude":"99.75622000"},{"id":"106253","name":"Amphoe Suan Phueng","state_id":3499,"state_code":"70","country_id":219,"country_code":"TH","latitude":"13.56361000","longitude":"99.31133000"},{"id":"106356","name":"Amphoe Wat Phleng","state_id":3499,"state_code":"70","country_id":219,"country_code":"TH","latitude":"13.44705000","longitude":"99.86959000"},{"id":"106410","name":"Ban Pong","state_id":3499,"state_code":"70","country_id":219,"country_code":"TH","latitude":"13.81629000","longitude":"99.87739000"},{"id":"106440","name":"Bang Phae","state_id":3499,"state_code":"70","country_id":219,"country_code":"TH","latitude":"13.69157000","longitude":"99.92982000"},{"id":"106478","name":"Chom Bueng","state_id":3499,"state_code":"70","country_id":219,"country_code":"TH","latitude":"13.62000000","longitude":"99.59169000"},{"id":"106485","name":"Damnoen Saduak","state_id":3499,"state_code":"70","country_id":219,"country_code":"TH","latitude":"13.51825000","longitude":"99.95469000"},{"id":"106641","name":"Photharam","state_id":3499,"state_code":"70","country_id":219,"country_code":"TH","latitude":"13.69234000","longitude":"99.84969000"},{"id":"106664","name":"Ratchaburi","state_id":3499,"state_code":"70","country_id":219,"country_code":"TH","latitude":"13.53671000","longitude":"99.81712000"}]