[{"id":"105180","name":"Amphoe Akat Amnuai","state_id":3501,"state_code":"47","country_id":219,"country_code":"TH","latitude":"17.63589000","longitude":"103.97590000"},{"id":"105205","name":"Amphoe Ban Muang","state_id":3501,"state_code":"47","country_id":219,"country_code":"TH","latitude":"17.89569000","longitude":"103.52793000"},{"id":"105287","name":"Amphoe Charoen Sin","state_id":3501,"state_code":"47","country_id":219,"country_code":"TH","latitude":"17.63327000","longitude":"103.52218000"},{"id":"105386","name":"Amphoe Kham Ta Kla","state_id":3501,"state_code":"47","country_id":219,"country_code":"TH","latitude":"17.82547000","longitude":"103.78598000"},{"id":"105419","name":"Amphoe Khok Si Suphan","state_id":3501,"state_code":"47","country_id":219,"country_code":"TH","latitude":"17.02297000","longitude":"104.30346000"},{"id":"105462","name":"Amphoe Kusuman","state_id":3501,"state_code":"47","country_id":219,"country_code":"TH","latitude":"17.35402000","longitude":"104.26677000"},{"id":"105463","name":"Amphoe Kut Bak","state_id":3501,"state_code":"47","country_id":219,"country_code":"TH","latitude":"17.08205000","longitude":"103.81469000"},{"id":"105583","name":"Amphoe Mueang Sakon Nakhon","state_id":3501,"state_code":"47","country_id":219,"country_code":"TH","latitude":"17.16163000","longitude":"104.10519000"},{"id":"105644","name":"Amphoe Nikhom Nam Un","state_id":3501,"state_code":"47","country_id":219,"country_code":"TH","latitude":"17.17349000","longitude":"103.73511000"},{"id":"105724","name":"Amphoe Phang Khon","state_id":3501,"state_code":"47","country_id":219,"country_code":"TH","latitude":"17.38267000","longitude":"103.75146000"},{"id":"105725","name":"Amphoe Phanna Nikhom","state_id":3501,"state_code":"47","country_id":219,"country_code":"TH","latitude":"17.31369000","longitude":"103.89791000"},{"id":"105753","name":"Amphoe Phon Na Kaeo","state_id":3501,"state_code":"47","country_id":219,"country_code":"TH","latitude":"17.21248000","longitude":"104.30700000"},{"id":"105778","name":"Amphoe Phu Phan","state_id":3501,"state_code":"47","country_id":219,"country_code":"TH","latitude":"16.92862000","longitude":"103.92400000"},{"id":"106201","name":"Amphoe Sawang Daen Din","state_id":3501,"state_code":"47","country_id":219,"country_code":"TH","latitude":"17.45590000","longitude":"103.44950000"},{"id":"106245","name":"Amphoe Song Dao","state_id":3501,"state_code":"47","country_id":219,"country_code":"TH","latitude":"17.30883000","longitude":"103.44987000"},{"id":"106268","name":"Amphoe Tao Ngoi","state_id":3501,"state_code":"47","country_id":219,"country_code":"TH","latitude":"16.94022000","longitude":"104.15863000"},{"id":"106351","name":"Amphoe Wanon Niwat","state_id":3501,"state_code":"47","country_id":219,"country_code":"TH","latitude":"17.61516000","longitude":"103.76536000"},{"id":"106354","name":"Amphoe Waritchaphum","state_id":3501,"state_code":"47","country_id":219,"country_code":"TH","latitude":"17.25692000","longitude":"103.62283000"},{"id":"106675","name":"Sakon Nakhon","state_id":3501,"state_code":"47","country_id":219,"country_code":"TH","latitude":"17.16116000","longitude":"104.14725000"},{"id":"106693","name":"Sawang Daen Din","state_id":3501,"state_code":"47","country_id":219,"country_code":"TH","latitude":"17.47531000","longitude":"103.45753000"}]