[{"id":"105244","name":"Amphoe Bang Saphan","state_id":3508,"state_code":"77","country_id":219,"country_code":"TH","latitude":"11.29402000","longitude":"99.44406000"},{"id":"105245","name":"Amphoe Bang Saphan Noi","state_id":3508,"state_code":"77","country_id":219,"country_code":"TH","latitude":"11.07057000","longitude":"99.34105000"},{"id":"105349","name":"Amphoe Hua Hin","state_id":3508,"state_code":"77","country_id":219,"country_code":"TH","latitude":"12.53522000","longitude":"99.70366000"},{"id":"105460","name":"Amphoe Kui Buri","state_id":3508,"state_code":"77","country_id":219,"country_code":"TH","latitude":"12.11311000","longitude":"99.75462000"},{"id":"105577","name":"Amphoe Mueang Prachuap Khiri Khan","state_id":3508,"state_code":"77","country_id":219,"country_code":"TH","latitude":"11.87144000","longitude":"99.73563000"},{"id":"105796","name":"Amphoe Pran Buri","state_id":3508,"state_code":"77","country_id":219,"country_code":"TH","latitude":"12.39040000","longitude":"99.69690000"},{"id":"106177","name":"Amphoe Sam Roi Yot","state_id":3508,"state_code":"77","country_id":219,"country_code":"TH","latitude":"12.25586000","longitude":"99.74010000"},{"id":"106301","name":"Amphoe Thap Sakae","state_id":3508,"state_code":"77","country_id":219,"country_code":"TH","latitude":"11.54787000","longitude":"99.57159000"},{"id":"106445","name":"Bang Saphan","state_id":3508,"state_code":"77","country_id":219,"country_code":"TH","latitude":"11.21259000","longitude":"99.51167000"},{"id":"106498","name":"Hua Hin","state_id":3508,"state_code":"77","country_id":219,"country_code":"TH","latitude":"12.57065000","longitude":"99.95876000"},{"id":"106544","name":"Kui Buri","state_id":3508,"state_code":"77","country_id":219,"country_code":"TH","latitude":"12.08283000","longitude":"99.85431000"},{"id":"106656","name":"Prachuap Khiri Khan","state_id":3508,"state_code":"77","country_id":219,"country_code":"TH","latitude":"11.82098000","longitude":"99.78410000"},{"id":"106658","name":"Pran Buri","state_id":3508,"state_code":"77","country_id":219,"country_code":"TH","latitude":"12.38487000","longitude":"99.90157000"},{"id":"106678","name":"Sam Roi Yot","state_id":3508,"state_code":"77","country_id":219,"country_code":"TH","latitude":"12.27081000","longitude":"99.87203000"}]