[{"id":"105478","name":"Amphoe Lamae","state_id":3526,"state_code":"86","country_id":219,"country_code":"TH","latitude":"9.75567000","longitude":"99.04378000"},{"id":"105483","name":"Amphoe Lang Suan","state_id":3526,"state_code":"86","country_id":219,"country_code":"TH","latitude":"9.93386000","longitude":"99.05292000"},{"id":"105541","name":"Amphoe Mueang Chumphon","state_id":3526,"state_code":"86","country_id":219,"country_code":"TH","latitude":"10.46077000","longitude":"99.10608000"},{"id":"105713","name":"Amphoe Pathio","state_id":3526,"state_code":"86","country_id":219,"country_code":"TH","latitude":"10.81008000","longitude":"99.33938000"},{"id":"105731","name":"Amphoe Phato","state_id":3526,"state_code":"86","country_id":219,"country_code":"TH","latitude":"9.81066000","longitude":"98.80178000"},{"id":"106204","name":"Amphoe Sawi","state_id":3526,"state_code":"86","country_id":219,"country_code":"TH","latitude":"10.24008000","longitude":"99.01865000"},{"id":"106283","name":"Amphoe Tha Sae","state_id":3526,"state_code":"86","country_id":219,"country_code":"TH","latitude":"10.76864000","longitude":"99.09878000"},{"id":"106318","name":"Amphoe Thung Tako","state_id":3526,"state_code":"86","country_id":219,"country_code":"TH","latitude":"10.09223000","longitude":"99.05337000"},{"id":"106403","name":"Ban Nam Yuen","state_id":3526,"state_code":"86","country_id":219,"country_code":"TH","latitude":"9.87686000","longitude":"98.86592000"},{"id":"106484","name":"Chumphon","state_id":3526,"state_code":"86","country_id":219,"country_code":"TH","latitude":"10.49570000","longitude":"99.17971000"},{"id":"106553","name":"Lang Suan","state_id":3526,"state_code":"86","country_id":219,"country_code":"TH","latitude":"9.94561000","longitude":"99.07847000"}]