[{"id":"105190","name":"Amphoe Ban Dung","state_id":3527,"state_code":"41","country_id":219,"country_code":"TH","latitude":"17.71134000","longitude":"103.26729000"},{"id":"105214","name":"Amphoe Ban Phue","state_id":3527,"state_code":"41","country_id":219,"country_code":"TH","latitude":"17.67709000","longitude":"102.44563000"},{"id":"105272","name":"Amphoe Chai Wan","state_id":3527,"state_code":"41","country_id":219,"country_code":"TH","latitude":"17.21581000","longitude":"103.27832000"},{"id":"105458","name":"Amphoe Ku Kaeo","state_id":3527,"state_code":"41","country_id":219,"country_code":"TH","latitude":"17.16286000","longitude":"103.16754000"},{"id":"105461","name":"Amphoe Kumphawapi","state_id":3527,"state_code":"41","country_id":219,"country_code":"TH","latitude":"17.09209000","longitude":"102.99395000"},{"id":"105464","name":"Amphoe Kut Chap","state_id":3527,"state_code":"41","country_id":219,"country_code":"TH","latitude":"17.44009000","longitude":"102.54083000"},{"id":"105601","name":"Amphoe Mueang Udon Thani","state_id":3527,"state_code":"41","country_id":219,"country_code":"TH","latitude":"17.39085000","longitude":"102.78912000"},{"id":"105630","name":"Amphoe Na Yung","state_id":3527,"state_code":"41","country_id":219,"country_code":"TH","latitude":"17.93470000","longitude":"102.13417000"},{"id":"105639","name":"Amphoe Nam Som","state_id":3527,"state_code":"41","country_id":219,"country_code":"TH","latitude":"17.74338000","longitude":"102.17328000"},{"id":"105652","name":"Amphoe Non Sa-at","state_id":3527,"state_code":"41","country_id":219,"country_code":"TH","latitude":"16.95002000","longitude":"102.89990000"},{"id":"105663","name":"Amphoe Nong Han","state_id":3527,"state_code":"41","country_id":219,"country_code":"TH","latitude":"17.36853000","longitude":"103.11510000"},{"id":"105680","name":"Amphoe Nong Saeng","state_id":3527,"state_code":"41","country_id":219,"country_code":"TH","latitude":"17.14166000","longitude":"102.78592000"},{"id":"105684","name":"Amphoe Nong Wua So","state_id":3527,"state_code":"41","country_id":219,"country_code":"TH","latitude":"17.18691000","longitude":"102.58986000"},{"id":"105737","name":"Amphoe Phen","state_id":3527,"state_code":"41","country_id":219,"country_code":"TH","latitude":"17.66033000","longitude":"102.93052000"},{"id":"105739","name":"Amphoe Phibun Rak","state_id":3527,"state_code":"41","country_id":219,"country_code":"TH","latitude":"17.52630000","longitude":"103.07497000"},{"id":"105793","name":"Amphoe Prachak Sinlapakhom","state_id":3527,"state_code":"41","country_id":219,"country_code":"TH","latitude":"17.24648000","longitude":"102.98713000"},{"id":"106186","name":"Amphoe Sang Khom","state_id":3527,"state_code":"41","country_id":219,"country_code":"TH","latitude":"17.79433000","longitude":"103.05114000"},{"id":"106228","name":"Amphoe Si That","state_id":3527,"state_code":"41","country_id":219,"country_code":"TH","latitude":"17.03388000","longitude":"103.23084000"},{"id":"106312","name":"Amphoe Thung Fon","state_id":3527,"state_code":"41","country_id":219,"country_code":"TH","latitude":"17.49061000","longitude":"103.22088000"},{"id":"106345","name":"Amphoe Wang Sam Mo","state_id":3527,"state_code":"41","country_id":219,"country_code":"TH","latitude":"17.04595000","longitude":"103.46262000"},{"id":"106389","name":"Ban Dung","state_id":3527,"state_code":"41","country_id":219,"country_code":"TH","latitude":"17.69900000","longitude":"103.25957000"},{"id":"106404","name":"Ban Nong Wua So","state_id":3527,"state_code":"41","country_id":219,"country_code":"TH","latitude":"17.26750000","longitude":"103.22472000"},{"id":"106407","name":"Ban Phan Don","state_id":3527,"state_code":"41","country_id":219,"country_code":"TH","latitude":"17.14272000","longitude":"102.97261000"},{"id":"106545","name":"Kumphawapi","state_id":3527,"state_code":"41","country_id":219,"country_code":"TH","latitude":"17.10875000","longitude":"103.01487000"},{"id":"106546","name":"Kut Chap","state_id":3527,"state_code":"41","country_id":219,"country_code":"TH","latitude":"17.42570000","longitude":"102.56692000"},{"id":"106587","name":"Nam Som","state_id":3527,"state_code":"41","country_id":219,"country_code":"TH","latitude":"17.77036000","longitude":"102.18947000"},{"id":"106604","name":"Nong Wua So","state_id":3527,"state_code":"41","country_id":219,"country_code":"TH","latitude":"17.16261000","longitude":"102.57272000"},{"id":"106738","name":"Udon Thani","state_id":3527,"state_code":"41","country_id":219,"country_code":"TH","latitude":"17.41567000","longitude":"102.78589000"}]