[{"id":"105198","name":"Amphoe Ban Laem","state_id":3532,"state_code":"76","country_id":219,"country_code":"TH","latitude":"13.16968000","longitude":"99.98771000"},{"id":"105199","name":"Amphoe Ban Lat","state_id":3532,"state_code":"76","country_id":219,"country_code":"TH","latitude":"13.04533000","longitude":"99.83788000"},{"id":"105266","name":"Amphoe Cha-am","state_id":3532,"state_code":"76","country_id":219,"country_code":"TH","latitude":"12.75374000","longitude":"99.89828000"},{"id":"105366","name":"Amphoe Kaeng Krachan","state_id":3532,"state_code":"76","country_id":219,"country_code":"TH","latitude":"12.85919000","longitude":"99.46339000"},{"id":"105400","name":"Amphoe Khao Yoi","state_id":3532,"state_code":"76","country_id":219,"country_code":"TH","latitude":"13.24240000","longitude":"99.80753000"},{"id":"105571","name":"Amphoe Mueang Phetchaburi","state_id":3532,"state_code":"76","country_id":219,"country_code":"TH","latitude":"13.08173000","longitude":"99.96721000"},{"id":"105685","name":"Amphoe Nong Ya Plong","state_id":3532,"state_code":"76","country_id":219,"country_code":"TH","latitude":"13.12590000","longitude":"99.46880000"},{"id":"106292","name":"Amphoe Tha Yang","state_id":3532,"state_code":"76","country_id":219,"country_code":"TH","latitude":"12.81743000","longitude":"99.78738000"},{"id":"106459","name":"Cha-am","state_id":3532,"state_code":"76","country_id":219,"country_code":"TH","latitude":"12.80000000","longitude":"99.96667000"},{"id":"106521","name":"Khao Yoi","state_id":3532,"state_code":"76","country_id":219,"country_code":"TH","latitude":"13.24025000","longitude":"99.82428000"},{"id":"106632","name":"Phetchaburi","state_id":3532,"state_code":"76","country_id":219,"country_code":"TH","latitude":"13.11189000","longitude":"99.94467000"},{"id":"106725","name":"Tha Yang","state_id":3532,"state_code":"76","country_id":219,"country_code":"TH","latitude":"12.95772000","longitude":"99.90555000"}]