[{"id":"105380","name":"Amphoe Kathu","state_id":3536,"state_code":"83","country_id":219,"country_code":"TH","latitude":"7.91456000","longitude":"98.33330000"},{"id":"105575","name":"Amphoe Mueang Phuket","state_id":3536,"state_code":"83","country_id":219,"country_code":"TH","latitude":"7.85609000","longitude":"98.37183000"},{"id":"106295","name":"Amphoe Thalang","state_id":3536,"state_code":"83","country_id":219,"country_code":"TH","latitude":"8.03407000","longitude":"98.33399000"},{"id":"106386","name":"Ban Chalong","state_id":3536,"state_code":"83","country_id":219,"country_code":"TH","latitude":"7.84468000","longitude":"98.33897000"},{"id":"106391","name":"Ban Karon","state_id":3536,"state_code":"83","country_id":219,"country_code":"TH","latitude":"7.84769000","longitude":"98.29850000"},{"id":"106392","name":"Ban Kata","state_id":3536,"state_code":"83","country_id":219,"country_code":"TH","latitude":"7.82125000","longitude":"98.30703000"},{"id":"106395","name":"Ban Ko Kaeo","state_id":3536,"state_code":"83","country_id":219,"country_code":"TH","latitude":"7.93599000","longitude":"98.39664000"},{"id":"106399","name":"Ban Mai Khao","state_id":3536,"state_code":"83","country_id":219,"country_code":"TH","latitude":"8.12713000","longitude":"98.30738000"},{"id":"106411","name":"Ban Ratsada","state_id":3536,"state_code":"83","country_id":219,"country_code":"TH","latitude":"7.90963000","longitude":"98.40248000"},{"id":"106417","name":"Ban Talat Nua","state_id":3536,"state_code":"83","country_id":219,"country_code":"TH","latitude":"7.88489000","longitude":"98.38557000"},{"id":"106418","name":"Ban Talat Yai","state_id":3536,"state_code":"83","country_id":219,"country_code":"TH","latitude":"7.88481000","longitude":"98.40008000"},{"id":"106516","name":"Kathu","state_id":3536,"state_code":"83","country_id":219,"country_code":"TH","latitude":"7.91779000","longitude":"98.33322000"},{"id":"106578","name":"Nai Harn","state_id":3536,"state_code":"83","country_id":219,"country_code":"TH","latitude":"7.77859000","longitude":"98.30661000"},{"id":"106615","name":"Patong","state_id":3536,"state_code":"83","country_id":219,"country_code":"TH","latitude":"7.89607000","longitude":"98.29661000"},{"id":"106650","name":"Phuket","state_id":3536,"state_code":"83","country_id":219,"country_code":"TH","latitude":"7.89059000","longitude":"98.39810000"},{"id":"106666","name":"Rawai","state_id":3536,"state_code":"83","country_id":219,"country_code":"TH","latitude":"7.77965000","longitude":"98.32532000"},{"id":"106753","name":"Wichit","state_id":3536,"state_code":"83","country_id":219,"country_code":"TH","latitude":"7.88940000","longitude":"98.38523000"}]