[{"id":"105426","name":"Amphoe Khuan Don","state_id":3537,"state_code":"91","country_id":219,"country_code":"TH","latitude":"6.76978000","longitude":"100.12216000"},{"id":"105427","name":"Amphoe Khuan Kalong","state_id":3537,"state_code":"91","country_id":219,"country_code":"TH","latitude":"6.90593000","longitude":"100.04178000"},{"id":"105468","name":"Amphoe La-Ngu","state_id":3537,"state_code":"91","country_id":219,"country_code":"TH","latitude":"6.90392000","longitude":"99.79836000"},{"id":"105524","name":"Amphoe Manang","state_id":3537,"state_code":"91","country_id":219,"country_code":"TH","latitude":"7.01822000","longitude":"99.95399000"},{"id":"105588","name":"Amphoe Mueang Satun","state_id":3537,"state_code":"91","country_id":219,"country_code":"TH","latitude":"6.62314000","longitude":"100.06681000"},{"id":"106280","name":"Amphoe Tha Phae","state_id":3537,"state_code":"91","country_id":219,"country_code":"TH","latitude":"6.79542000","longitude":"99.91985000"},{"id":"106319","name":"Amphoe Thung Wa","state_id":3537,"state_code":"91","country_id":219,"country_code":"TH","latitude":"7.04915000","longitude":"99.76587000"},{"id":"106692","name":"Satun","state_id":3537,"state_code":"91","country_id":219,"country_code":"TH","latitude":"6.62314000","longitude":"100.06676000"}]