[{"id":"105228","name":"Amphoe Bang Klam","state_id":3539,"state_code":"90","country_id":219,"country_code":"TH","latitude":"7.06404000","longitude":"100.40664000"},{"id":"105282","name":"Amphoe Chana","state_id":3539,"state_code":"90","country_id":219,"country_code":"TH","latitude":"6.89584000","longitude":"100.70126000"},{"id":"105347","name":"Amphoe Hat Yai","state_id":3539,"state_code":"90","country_id":219,"country_code":"TH","latitude":"6.98092000","longitude":"100.46539000"},{"id":"105406","name":"Amphoe Khlong Hoi Khong","state_id":3539,"state_code":"90","country_id":219,"country_code":"TH","latitude":"6.86623000","longitude":"100.35353000"},{"id":"105429","name":"Amphoe Khuan Niang","state_id":3539,"state_code":"90","country_id":219,"country_code":"TH","latitude":"7.18231000","longitude":"100.37403000"},{"id":"105453","name":"Amphoe Krasae Sin","state_id":3539,"state_code":"90","country_id":219,"country_code":"TH","latitude":"7.61254000","longitude":"100.32827000"},{"id":"105591","name":"Amphoe Mueang Songkhla","state_id":3539,"state_code":"90","country_id":219,"country_code":"TH","latitude":"7.11075000","longitude":"100.60814000"},{"id":"105617","name":"Amphoe Na Mom","state_id":3539,"state_code":"90","country_id":219,"country_code":"TH","latitude":"6.95990000","longitude":"100.57161000"},{"id":"105623","name":"Amphoe Na Thawi","state_id":3539,"state_code":"90","country_id":219,"country_code":"TH","latitude":"6.63849000","longitude":"100.68173000"},{"id":"105804","name":"Amphoe Ranot","state_id":3539,"state_code":"90","country_id":219,"country_code":"TH","latitude":"7.81390000","longitude":"100.28323000"},{"id":"105810","name":"Amphoe Rattaphum","state_id":3539,"state_code":"90","country_id":219,"country_code":"TH","latitude":"7.07488000","longitude":"100.19515000"},{"id":"105818","name":"Amphoe Saba Yoi","state_id":3539,"state_code":"90","country_id":219,"country_code":"TH","latitude":"6.52971000","longitude":"100.91232000"},{"id":"105819","name":"Amphoe Sadao","state_id":3539,"state_code":"90","country_id":219,"country_code":"TH","latitude":"6.67135000","longitude":"100.42409000"},{"id":"106196","name":"Amphoe Sathing Phra","state_id":3539,"state_code":"90","country_id":219,"country_code":"TH","latitude":"7.47963000","longitude":"100.42227000"},{"id":"106237","name":"Amphoe Singhanakhon","state_id":3539,"state_code":"90","country_id":219,"country_code":"TH","latitude":"7.28453000","longitude":"100.48809000"},{"id":"106305","name":"Amphoe Thepha","state_id":3539,"state_code":"90","country_id":219,"country_code":"TH","latitude":"6.79726000","longitude":"100.91025000"},{"id":"106398","name":"Ban Mai","state_id":3539,"state_code":"90","country_id":219,"country_code":"TH","latitude":"7.20411000","longitude":"100.54508000"},{"id":"106497","name":"Hat Yai","state_id":3539,"state_code":"90","country_id":219,"country_code":"TH","latitude":"7.00836000","longitude":"100.47668000"},{"id":"106576","name":"Na Mom","state_id":3539,"state_code":"90","country_id":219,"country_code":"TH","latitude":"6.95856000","longitude":"100.55683000"},{"id":"106662","name":"Ranot","state_id":3539,"state_code":"90","country_id":219,"country_code":"TH","latitude":"7.77768000","longitude":"100.32134000"},{"id":"106672","name":"Sadao","state_id":3539,"state_code":"90","country_id":219,"country_code":"TH","latitude":"6.63883000","longitude":"100.42342000"},{"id":"106704","name":"Songkhla","state_id":3539,"state_code":"90","country_id":219,"country_code":"TH","latitude":"7.19882000","longitude":"100.59510000"}]