[{"id":"105334","name":"Amphoe Don Tan","state_id":3546,"state_code":"49","country_id":219,"country_code":"TH","latitude":"16.28796000","longitude":"104.82231000"},{"id":"105337","name":"Amphoe Dong Luang","state_id":3546,"state_code":"49","country_id":219,"country_code":"TH","latitude":"16.79649000","longitude":"104.35562000"},{"id":"105388","name":"Amphoe Khamcha-i","state_id":3546,"state_code":"49","country_id":219,"country_code":"TH","latitude":"16.61452000","longitude":"104.35929000"},{"id":"105552","name":"Amphoe Mueang Mukdahan","state_id":3546,"state_code":"49","country_id":219,"country_code":"TH","latitude":"16.55110000","longitude":"104.64605000"},{"id":"105643","name":"Amphoe Nikhom Kham Soi","state_id":3546,"state_code":"49","country_id":219,"country_code":"TH","latitude":"16.35375000","longitude":"104.55864000"},{"id":"105683","name":"Amphoe Nong Sung","state_id":3546,"state_code":"49","country_id":219,"country_code":"TH","latitude":"16.44759000","longitude":"104.33649000"},{"id":"106333","name":"Amphoe Wan Yai","state_id":3546,"state_code":"49","country_id":219,"country_code":"TH","latitude":"16.72030000","longitude":"104.72865000"},{"id":"106574","name":"Mukdahan","state_id":3546,"state_code":"49","country_id":219,"country_code":"TH","latitude":"16.54531000","longitude":"104.72351000"}]