[{"id":"105329","name":"Amphoe Don Chan","state_id":3550,"state_code":"46","country_id":219,"country_code":"TH","latitude":"16.46667000","longitude":"103.71667000"},{"id":"105354","name":"Amphoe Huai Mek","state_id":3550,"state_code":"46","country_id":219,"country_code":"TH","latitude":"16.58868000","longitude":"103.24098000"},{"id":"105355","name":"Amphoe Huai Phueng","state_id":3550,"state_code":"46","country_id":219,"country_code":"TH","latitude":"16.66972000","longitude":"103.87997000"},{"id":"105368","name":"Amphoe Kamalasai","state_id":3550,"state_code":"46","country_id":219,"country_code":"TH","latitude":"16.27999000","longitude":"103.60010000"},{"id":"105384","name":"Amphoe Kham Muang","state_id":3550,"state_code":"46","country_id":219,"country_code":"TH","latitude":"16.93884000","longitude":"103.63980000"},{"id":"105399","name":"Amphoe Khao Wong","state_id":3550,"state_code":"46","country_id":219,"country_code":"TH","latitude":"16.67959000","longitude":"104.10030000"},{"id":"105423","name":"Amphoe Khong Chai","state_id":3550,"state_code":"46","country_id":219,"country_code":"TH","latitude":"16.25845000","longitude":"103.48167000"},{"id":"105459","name":"Amphoe Kuchinarai","state_id":3550,"state_code":"46","country_id":219,"country_code":"TH","latitude":"16.51977000","longitude":"104.05097000"},{"id":"105542","name":"Amphoe Mueang Kalasin","state_id":3550,"state_code":"46","country_id":219,"country_code":"TH","latitude":"16.50918000","longitude":"103.54984000"},{"id":"105615","name":"Amphoe Na Khu","state_id":3550,"state_code":"46","country_id":219,"country_code":"TH","latitude":"16.75018000","longitude":"104.00062000"},{"id":"105618","name":"Amphoe Na Mon","state_id":3550,"state_code":"46","country_id":219,"country_code":"TH","latitude":"16.56994000","longitude":"103.78015000"},{"id":"105670","name":"Amphoe Nong Kung Si","state_id":3550,"state_code":"46","country_id":219,"country_code":"TH","latitude":"16.71932000","longitude":"103.31922000"},{"id":"105813","name":"Amphoe Rong Kham","state_id":3550,"state_code":"46","country_id":219,"country_code":"TH","latitude":"16.27925000","longitude":"103.71238000"},{"id":"105820","name":"Amphoe Sahatsakhan","state_id":3550,"state_code":"46","country_id":219,"country_code":"TH","latitude":"16.70987000","longitude":"103.57909000"},{"id":"105828","name":"Amphoe Sam Chai","state_id":3550,"state_code":"46","country_id":219,"country_code":"TH","latitude":"16.86909000","longitude":"103.52243000"},{"id":"106243","name":"Amphoe Somdet","state_id":3550,"state_code":"46","country_id":219,"country_code":"TH","latitude":"16.76973000","longitude":"103.75012000"},{"id":"106274","name":"Amphoe Tha Khantho","state_id":3550,"state_code":"46","country_id":219,"country_code":"TH","latitude":"16.88333000","longitude":"103.25000000"},{"id":"106376","name":"Amphoe Yang Talat","state_id":3550,"state_code":"46","country_id":219,"country_code":"TH","latitude":"16.43961000","longitude":"103.34085000"},{"id":"106501","name":"Huai Mek","state_id":3550,"state_code":"46","country_id":219,"country_code":"TH","latitude":"16.58975000","longitude":"103.23547000"},{"id":"106506","name":"Kalasin","state_id":3550,"state_code":"46","country_id":219,"country_code":"TH","latitude":"16.43281000","longitude":"103.50658000"},{"id":"106507","name":"Kamalasai","state_id":3550,"state_code":"46","country_id":219,"country_code":"TH","latitude":"16.33839000","longitude":"103.57564000"},{"id":"106520","name":"Khao Wong","state_id":3550,"state_code":"46","country_id":219,"country_code":"TH","latitude":"16.70008000","longitude":"104.09019000"},{"id":"106543","name":"Kuchinarai","state_id":3550,"state_code":"46","country_id":219,"country_code":"TH","latitude":"16.54100000","longitude":"104.05004000"},{"id":"106602","name":"Nong Kung Si","state_id":3550,"state_code":"46","country_id":219,"country_code":"TH","latitude":"16.65000000","longitude":"103.30000000"},{"id":"106757","name":"Yang Talat","state_id":3550,"state_code":"46","country_id":219,"country_code":"TH","latitude":"16.39982000","longitude":"103.36785000"}]