[{"id":"106422","name":"Bang Bon","state_id":3554,"state_code":"10","country_id":219,"country_code":"TH","latitude":"13.65920000","longitude":"100.38801000"},{"id":"106424","name":"Bang Kapi","state_id":3554,"state_code":"10","country_id":219,"country_code":"TH","latitude":"13.77258000","longitude":"100.63847000"},{"id":"106425","name":"Bang Khae","state_id":3554,"state_code":"10","country_id":219,"country_code":"TH","latitude":"13.71927000","longitude":"100.39278000"},{"id":"106426","name":"Bang Khen","state_id":3554,"state_code":"10","country_id":219,"country_code":"TH","latitude":"13.86901000","longitude":"100.62769000"},{"id":"106428","name":"Bang Kho laen","state_id":3554,"state_code":"10","country_id":219,"country_code":"TH","latitude":"13.70025000","longitude":"100.50971000"},{"id":"106429","name":"Bang Khun thain","state_id":3554,"state_code":"10","country_id":219,"country_code":"TH","latitude":"13.59482000","longitude":"100.42694000"},{"id":"106436","name":"Bang Na","state_id":3554,"state_code":"10","country_id":219,"country_code":"TH","latitude":"13.67252000","longitude":"100.62089000"},{"id":"106441","name":"Bang Phlat","state_id":3554,"state_code":"10","country_id":219,"country_code":"TH","latitude":"13.78668000","longitude":"100.49152000"},{"id":"106443","name":"Bang Rak","state_id":3554,"state_code":"10","country_id":219,"country_code":"TH","latitude":"13.73058000","longitude":"100.52388000"},{"id":"106446","name":"Bang Sue","state_id":3554,"state_code":"10","country_id":219,"country_code":"TH","latitude":"13.81921000","longitude":"100.52790000"},{"id":"106448","name":"Bangkok","state_id":3554,"state_code":"10","country_id":219,"country_code":"TH","latitude":"13.75398000","longitude":"100.50144000"},{"id":"106449","name":"Bangkok Noi","state_id":3554,"state_code":"10","country_id":219,"country_code":"TH","latitude":"13.76551000","longitude":"100.46988000"},{"id":"106450","name":"Bangkok Yai","state_id":3554,"state_code":"10","country_id":219,"country_code":"TH","latitude":"13.73748000","longitude":"100.47428000"},{"id":"106456","name":"Bueng Kum","state_id":3554,"state_code":"10","country_id":219,"country_code":"TH","latitude":"13.81023000","longitude":"100.65140000"},{"id":"106469","name":"Chatu Chak","state_id":3554,"state_code":"10","country_id":219,"country_code":"TH","latitude":"13.82888000","longitude":"100.56374000"},{"id":"106480","name":"Chom Thong","state_id":3554,"state_code":"10","country_id":219,"country_code":"TH","latitude":"13.68910000","longitude":"100.46175000"},{"id":"106489","name":"Din Daeng","state_id":3554,"state_code":"10","country_id":219,"country_code":"TH","latitude":"13.77728000","longitude":"100.56235000"},{"id":"106492","name":"Don Mueang","state_id":3554,"state_code":"10","country_id":219,"country_code":"TH","latitude":"13.92601000","longitude":"100.59365000"},{"id":"106494","name":"Dusit","state_id":3554,"state_code":"10","country_id":219,"country_code":"TH","latitude":"13.78235000","longitude":"100.51677000"},{"id":"106500","name":"Huai Khwang","state_id":3554,"state_code":"10","country_id":219,"country_code":"TH","latitude":"13.77060000","longitude":"100.58119000"},{"id":"106518","name":"Khan Na Yao","state_id":3554,"state_code":"10","country_id":219,"country_code":"TH","latitude":"13.82380000","longitude":"100.67649000"},{"id":"106525","name":"Khlong Sam Wa","state_id":3554,"state_code":"10","country_id":219,"country_code":"TH","latitude":"13.87633000","longitude":"100.73805000"},{"id":"106526","name":"Khlong San","state_id":3554,"state_code":"10","country_id":219,"country_code":"TH","latitude":"13.72602000","longitude":"100.50071000"},{"id":"106527","name":"Khlong Toei","state_id":3554,"state_code":"10","country_id":219,"country_code":"TH","latitude":"13.71806000","longitude":"100.57065000"},{"id":"106548","name":"Lak Si","state_id":3554,"state_code":"10","country_id":219,"country_code":"TH","latitude":"13.88210000","longitude":"100.56889000"},{"id":"106554","name":"Lat Krabang","state_id":3554,"state_code":"10","country_id":219,"country_code":"TH","latitude":"13.74500000","longitude":"100.79224000"},{"id":"106555","name":"Lat Phrao","state_id":3554,"state_code":"10","country_id":219,"country_code":"TH","latitude":"13.82779000","longitude":"100.60672000"},{"id":"106569","name":"Min Buri","state_id":3554,"state_code":"10","country_id":219,"country_code":"TH","latitude":"13.81254000","longitude":"100.75334000"},{"id":"106597","name":"Nong Chok","state_id":3554,"state_code":"10","country_id":219,"country_code":"TH","latitude":"13.85280000","longitude":"100.85788000"},{"id":"106599","name":"Nong Khaem","state_id":3554,"state_code":"10","country_id":219,"country_code":"TH","latitude":"13.69979000","longitude":"100.35364000"},{"id":"106613","name":"Parthum Wan","state_id":3554,"state_code":"10","country_id":219,"country_code":"TH","latitude":"13.74265000","longitude":"100.53398000"},{"id":"106625","name":"Phasi Charoen","state_id":3554,"state_code":"10","country_id":219,"country_code":"TH","latitude":"13.72597000","longitude":"100.44103000"},{"id":"106627","name":"Phaya Thai","state_id":3554,"state_code":"10","country_id":219,"country_code":"TH","latitude":"13.78442000","longitude":"100.54306000"},{"id":"106642","name":"Phra Khanong","state_id":3554,"state_code":"10","country_id":219,"country_code":"TH","latitude":"13.69705000","longitude":"100.61234000"},{"id":"106643","name":"Phra Nakhon","state_id":3554,"state_code":"10","country_id":219,"country_code":"TH","latitude":"13.75831000","longitude":"100.49613000"},{"id":"106651","name":"Pom Prap Sattru Phai","state_id":3554,"state_code":"10","country_id":219,"country_code":"TH","latitude":"13.75480000","longitude":"100.50995000"},{"id":"106654","name":"Pra Wet","state_id":3554,"state_code":"10","country_id":219,"country_code":"TH","latitude":"13.71735000","longitude":"100.69452000"},{"id":"106663","name":"Rat Burana","state_id":3554,"state_code":"10","country_id":219,"country_code":"TH","latitude":"13.67633000","longitude":"100.49881000"},{"id":"106665","name":"Ratchathewi","state_id":3554,"state_code":"10","country_id":219,"country_code":"TH","latitude":"13.76029000","longitude":"100.53724000"},{"id":"106674","name":"Sai Mai","state_id":3554,"state_code":"10","country_id":219,"country_code":"TH","latitude":"13.90727000","longitude":"100.65181000"},{"id":"106679","name":"Samphanthawong","state_id":3554,"state_code":"10","country_id":219,"country_code":"TH","latitude":"13.74233000","longitude":"100.50765000"},{"id":"106687","name":"Saphan Sung","state_id":3554,"state_code":"10","country_id":219,"country_code":"TH","latitude":"13.76531000","longitude":"100.69001000"},{"id":"106689","name":"Sathon","state_id":3554,"state_code":"10","country_id":219,"country_code":"TH","latitude":"13.71745000","longitude":"100.52999000"},{"id":"106706","name":"Suanluang","state_id":3554,"state_code":"10","country_id":219,"country_code":"TH","latitude":"13.72989000","longitude":"100.62677000"},{"id":"106716","name":"Taling Chan","state_id":3554,"state_code":"10","country_id":219,"country_code":"TH","latitude":"13.77271000","longitude":"100.43289000"},{"id":"106730","name":"Thawi Watthana","state_id":3554,"state_code":"10","country_id":219,"country_code":"TH","latitude":"13.77637000","longitude":"100.36620000"},{"id":"106732","name":"Thon buri","state_id":3554,"state_code":"10","country_id":219,"country_code":"TH","latitude":"13.71874000","longitude":"100.48367000"},{"id":"106734","name":"Thung khru","state_id":3554,"state_code":"10","country_id":219,"country_code":"TH","latitude":"13.63387000","longitude":"100.49641000"},{"id":"106741","name":"Vadhana","state_id":3554,"state_code":"10","country_id":219,"country_code":"TH","latitude":"13.73501000","longitude":"100.58280000"},{"id":"106748","name":"Wang Thong Lang","state_id":3554,"state_code":"10","country_id":219,"country_code":"TH","latitude":"13.78188000","longitude":"100.60804000"},{"id":"106756","name":"Yan na wa","state_id":3554,"state_code":"10","country_id":219,"country_code":"TH","latitude":"13.69177000","longitude":"100.53950000"}]