[{"id":"130523","name":"Huy\u1ec7n \u00c2n Thi","state_id":3768,"state_code":"66","country_id":240,"country_code":"VN","latitude":"20.81086000","longitude":"106.09995000"},{"id":"130323","name":"Huy\u1ec7n Kho\u00e1i Ch\u00e2u","state_id":3768,"state_code":"66","country_id":240,"country_code":"VN","latitude":"20.82170000","longitude":"105.97455000"},{"id":"130328","name":"Huy\u1ec7n Kim D\u1ed9ng","state_id":3768,"state_code":"66","country_id":240,"country_code":"VN","latitude":"20.74645000","longitude":"106.03632000"},{"id":"130369","name":"Huy\u1ec7n M\u1ef9 H\u00e0o","state_id":3768,"state_code":"66","country_id":240,"country_code":"VN","latitude":"20.93210000","longitude":"106.10630000"},{"id":"130396","name":"Huy\u1ec7n Ph\u00f9 C\u1eeb","state_id":3768,"state_code":"66","country_id":240,"country_code":"VN","latitude":"20.70997000","longitude":"106.19744000"},{"id":"130456","name":"Huy\u1ec7n Ti\u00ean L\u1eef","state_id":3768,"state_code":"66","country_id":240,"country_code":"VN","latitude":"20.68490000","longitude":"106.12513000"},{"id":"130560","name":"H\u01b0ng Y\u00ean","state_id":3768,"state_code":"66","country_id":240,"country_code":"VN","latitude":"20.64637000","longitude":"106.05112000"}]