[{"id":"130225","name":"Huy\u1ec7n B\u00ecnh Xuy\u00ean","state_id":3774,"state_code":"70","country_id":240,"country_code":"VN","latitude":"21.30561000","longitude":"105.66225000"},{"id":"130432","name":"Huy\u1ec7n Tam D\u1ea3o","state_id":3774,"state_code":"70","country_id":240,"country_code":"VN","latitude":"21.45690000","longitude":"105.59460000"},{"id":"130429","name":"Huy\u1ec7n Tam D\u01b0\u01a1ng","state_id":3774,"state_code":"70","country_id":240,"country_code":"VN","latitude":"21.36189000","longitude":"105.55690000"},{"id":"130514","name":"Huy\u1ec7n Y\u00ean L\u1ea1c","state_id":3774,"state_code":"70","country_id":240,"country_code":"VN","latitude":"21.21845000","longitude":"105.57586000"},{"id":"130625","name":"Vinh Y\u00ean","state_id":3774,"state_code":"70","country_id":240,"country_code":"VN","latitude":"21.30891000","longitude":"105.60489000"}]