[{"id":"130563","name":"H\u1ed9i An","state_id":3776,"state_code":"27","country_id":240,"country_code":"VN","latitude":"15.87944000","longitude":"108.33500000"},{"id":"130538","name":"Huy\u1ec7n D\u1ea1i L\u1ed9c","state_id":3776,"state_code":"27","country_id":240,"country_code":"VN","latitude":"15.83721000","longitude":"107.97894000"},{"id":"130529","name":"Huy\u1ec7n Di\u1ec7n B\u00e0n","state_id":3776,"state_code":"27","country_id":240,"country_code":"VN","latitude":"15.89917000","longitude":"108.22470000"},{"id":"130281","name":"Huy\u1ec7n Duy Xuy\u00ean","state_id":3776,"state_code":"27","country_id":240,"country_code":"VN","latitude":"15.78970000","longitude":"108.20247000"},{"id":"130296","name":"Huy\u1ec7n Hi\u1ec7p D\u1ee9c","state_id":3776,"state_code":"27","country_id":240,"country_code":"VN","latitude":"15.53857000","longitude":"108.09539000"},{"id":"130375","name":"Huy\u1ec7n Nam Giang","state_id":3776,"state_code":"27","country_id":240,"country_code":"VN","latitude":"15.63201000","longitude":"107.60267000"},{"id":"130394","name":"Huy\u1ec7n N\u00fai Th\u00e0nh","state_id":3776,"state_code":"27","country_id":240,"country_code":"VN","latitude":"15.43345000","longitude":"108.57438000"},{"id":"130403","name":"Huy\u1ec7n Ph\u01b0\u1edbc S\u01a1n","state_id":3776,"state_code":"27","country_id":240,"country_code":"VN","latitude":"15.38806000","longitude":"107.85766000"},{"id":"130457","name":"Huy\u1ec7n Ti\u00ean Ph\u01b0\u1edbc","state_id":3776,"state_code":"27","country_id":240,"country_code":"VN","latitude":"15.47090000","longitude":"108.28257000"},{"id":"130467","name":"Huy\u1ec7n Tr\u00e0 My","state_id":3776,"state_code":"27","country_id":240,"country_code":"VN","latitude":"15.25000000","longitude":"108.08333000"},{"id":"130596","name":"Tam K\u1ef3","state_id":3776,"state_code":"27","country_id":240,"country_code":"VN","latitude":"15.57364000","longitude":"108.47403000"}]