[{"id":"130247","name":"Huy\u1ec7n Chi\u00eam H\u00f3a","state_id":3795,"state_code":"07","country_id":240,"country_code":"VN","latitude":"22.17895000","longitude":"105.27671000"},{"id":"130305","name":"Huy\u1ec7n H\u00e0m Y\u00ean","state_id":3795,"state_code":"07","country_id":240,"country_code":"VN","latitude":"22.10935000","longitude":"105.01630000"},{"id":"130345","name":"Huy\u1ec7n L\u00e2m B\u00ecnh","state_id":3795,"state_code":"07","country_id":240,"country_code":"VN","latitude":"22.46411000","longitude":"105.21903000"},{"id":"130373","name":"Huy\u1ec7n Na Hang","state_id":3795,"state_code":"07","country_id":240,"country_code":"VN","latitude":"22.47522000","longitude":"105.48380000"},{"id":"130423","name":"Huy\u1ec7n S\u01a1n D\u01b0\u01a1ng","state_id":3795,"state_code":"07","country_id":240,"country_code":"VN","latitude":"21.63623000","longitude":"105.38901000"},{"id":"130519","name":"Huy\u1ec7n Y\u00ean S\u01a1n","state_id":3795,"state_code":"07","country_id":240,"country_code":"VN","latitude":"21.88363000","longitude":"105.27656000"},{"id":"130619","name":"Tuy\u00ean Quang","state_id":3795,"state_code":"07","country_id":240,"country_code":"VN","latitude":"21.82356000","longitude":"105.21424000"}]