[{"id":"130174","name":"B\u00ecnh Long","state_id":3797,"state_code":"58","country_id":240,"country_code":"VN","latitude":"11.64711000","longitude":"106.60586000"},{"id":"130197","name":"Don Luan","state_id":3797,"state_code":"58","country_id":240,"country_code":"VN","latitude":"11.53495000","longitude":"106.88324000"},{"id":"130547","name":"Huy\u1ec7n D\u1ed3ng Ph\u00fa","state_id":3797,"state_code":"58","country_id":240,"country_code":"VN","latitude":"11.50071000","longitude":"107.01192000"},{"id":"130227","name":"Huy\u1ec7n B\u00f9 D\u1ed1p","state_id":3797,"state_code":"58","country_id":240,"country_code":"VN","latitude":"12.00374000","longitude":"106.81545000"},{"id":"130256","name":"Huy\u1ec7n Ch\u01a1n Th\u00e0nh","state_id":3797,"state_code":"58","country_id":240,"country_code":"VN","latitude":"11.46283000","longitude":"106.66655000"},{"id":"130319","name":"Huy\u1ec7n H\u1edbn Qu\u1ea3n","state_id":3797,"state_code":"58","country_id":240,"country_code":"VN","latitude":"11.59718000","longitude":"106.62739000"},{"id":"130614","name":"Th\u1ecb X\u00e3 Ph\u01b0\u1edbc Long","state_id":3797,"state_code":"58","country_id":240,"country_code":"VN","latitude":"11.81142000","longitude":"106.99670000"}]