[{"id":"130559","name":"H\u00f2a B\u00ecnh","state_id":3799,"state_code":"14","country_id":240,"country_code":"VN","latitude":"20.81717000","longitude":"105.33759000"},{"id":"130245","name":"Huy\u1ec7n Cao Phong","state_id":3799,"state_code":"14","country_id":240,"country_code":"VN","latitude":"20.69532000","longitude":"105.33559000"},{"id":"130338","name":"Huy\u1ec7n K\u1ef3 S\u01a1n","state_id":3799,"state_code":"14","country_id":240,"country_code":"VN","latitude":"20.89631000","longitude":"105.39659000"},{"id":"130350","name":"Huy\u1ec7n L\u1ea1c Th\u1ee7y","state_id":3799,"state_code":"14","country_id":240,"country_code":"VN","latitude":"20.49794000","longitude":"105.74092000"},{"id":"130349","name":"Huy\u1ec7n L\u01b0\u01a1ng S\u01a1n","state_id":3799,"state_code":"14","country_id":240,"country_code":"VN","latitude":"20.87650000","longitude":"105.51219000"},{"id":"130484","name":"Huy\u1ec7n T\u00e2n L\u1ea1c","state_id":3799,"state_code":"14","country_id":240,"country_code":"VN","latitude":"20.60557000","longitude":"105.23399000"}]