[{"id":"130631","name":"\u00d0\u00f4ng H\u00e0","state_id":3803,"state_code":"25","country_id":240,"country_code":"VN","latitude":"16.81625000","longitude":"107.10031000"},{"id":"130527","name":"Huy\u1ec7n Da Kr\u00f4ng","state_id":3803,"state_code":"25","country_id":240,"country_code":"VN","latitude":"16.55543000","longitude":"106.97208000"},{"id":"130242","name":"Huy\u1ec7n Cam L\u1ed9","state_id":3803,"state_code":"25","country_id":240,"country_code":"VN","latitude":"16.79335000","longitude":"106.96175000"},{"id":"130288","name":"Huy\u1ec7n Gio Linh","state_id":3803,"state_code":"25","country_id":240,"country_code":"VN","latitude":"16.91667000","longitude":"107.00000000"},{"id":"130316","name":"Huy\u1ec7n H\u1ea3i Lang","state_id":3803,"state_code":"25","country_id":240,"country_code":"VN","latitude":"16.67574000","longitude":"107.23388000"},{"id":"130311","name":"Huy\u1ec7n H\u01b0\u1edbng H\u00f3a","state_id":3803,"state_code":"25","country_id":240,"country_code":"VN","latitude":"16.70132000","longitude":"106.67036000"},{"id":"130462","name":"Huy\u1ec7n Tri\u1ec7u Phong","state_id":3803,"state_code":"25","country_id":240,"country_code":"VN","latitude":"16.78132000","longitude":"107.16034000"},{"id":"130500","name":"Huy\u1ec7n Vinh Linh","state_id":3803,"state_code":"25","country_id":240,"country_code":"VN","latitude":"17.01600000","longitude":"106.93384000"}]