[{"id":"130265","name":"Huy\u1ec7n C\u00e0ng Long","state_id":3805,"state_code":"51","country_id":240,"country_code":"VN","latitude":"9.95883000","longitude":"106.21395000"},{"id":"130272","name":"Huy\u1ec7n C\u1ea7u K\u00e8","state_id":3805,"state_code":"51","country_id":240,"country_code":"VN","latitude":"9.86738000","longitude":"106.07916000"},{"id":"130273","name":"Huy\u1ec7n C\u1ea7u Ngang","state_id":3805,"state_code":"51","country_id":240,"country_code":"VN","latitude":"9.77186000","longitude":"106.43654000"},{"id":"130460","name":"Huy\u1ec7n Ti\u1ec3u C\u1ea7n","state_id":3805,"state_code":"51","country_id":240,"country_code":"VN","latitude":"9.80350000","longitude":"106.20594000"},{"id":"130465","name":"Huy\u1ec7n Tr\u00e0 C\u00fa","state_id":3805,"state_code":"51","country_id":240,"country_code":"VN","latitude":"9.69706000","longitude":"106.29423000"},{"id":"130617","name":"Tr\u00e0 Vinh","state_id":3805,"state_code":"51","country_id":240,"country_code":"VN","latitude":"9.94719000","longitude":"106.34225000"}]