[{"id":"130190","name":"C\u1ea7n Giu\u1ed9c","state_id":3808,"state_code":"41","country_id":240,"country_code":"VN","latitude":"10.60857000","longitude":"106.67135000"},{"id":"130551","name":"Huy\u1ec7n D\u1ee9c H\u00f2a","state_id":3808,"state_code":"41","country_id":240,"country_code":"VN","latitude":"10.87838000","longitude":"106.42422000"},{"id":"130550","name":"Huy\u1ec7n D\u1ee9c Hu\u1ec7","state_id":3808,"state_code":"41","country_id":240,"country_code":"VN","latitude":"10.86473000","longitude":"106.25914000"},{"id":"130240","name":"Huy\u1ec7n B\u1ebfn L\u1ee9c","state_id":3808,"state_code":"41","country_id":240,"country_code":"VN","latitude":"10.68858000","longitude":"106.45484000"},{"id":"130271","name":"Huy\u1ec7n C\u1ea7n D\u01b0\u1edbc","state_id":3808,"state_code":"41","country_id":240,"country_code":"VN","latitude":"10.54148000","longitude":"106.59636000"},{"id":"130270","name":"Huy\u1ec7n C\u1ea7n Giu\u1ed9c","state_id":3808,"state_code":"41","country_id":240,"country_code":"VN","latitude":"10.57742000","longitude":"106.67279000"},{"id":"130251","name":"Huy\u1ec7n Ch\u00e2u Th\u00e0nh","state_id":3808,"state_code":"41","country_id":240,"country_code":"VN","latitude":"10.45214000","longitude":"106.49015000"},{"id":"130368","name":"Huy\u1ec7n M\u1ed9c H\u00f3a","state_id":3808,"state_code":"41","country_id":240,"country_code":"VN","latitude":"10.75166000","longitude":"106.01729000"},{"id":"130482","name":"Huy\u1ec7n T\u00e2n H\u01b0ng","state_id":3808,"state_code":"41","country_id":240,"country_code":"VN","latitude":"10.83380000","longitude":"105.68848000"},{"id":"130488","name":"Huy\u1ec7n T\u00e2n Th\u1ea1nh","state_id":3808,"state_code":"41","country_id":240,"country_code":"VN","latitude":"10.60351000","longitude":"105.96576000"},{"id":"130489","name":"Huy\u1ec7n T\u00e2n Tr\u1ee5","state_id":3808,"state_code":"41","country_id":240,"country_code":"VN","latitude":"10.53182000","longitude":"106.51644000"},{"id":"130448","name":"Huy\u1ec7n Th\u1ea1nh H\u00f3a","state_id":3808,"state_code":"41","country_id":240,"country_code":"VN","latitude":"10.66667000","longitude":"106.16667000"},{"id":"130454","name":"Huy\u1ec7n Th\u1ee7 Th\u1eeba","state_id":3808,"state_code":"41","country_id":240,"country_code":"VN","latitude":"10.65639000","longitude":"106.34580000"},{"id":"130499","name":"Huy\u1ec7n Vinh H\u01b0ng","state_id":3808,"state_code":"41","country_id":240,"country_code":"VN","latitude":"10.88299000","longitude":"105.80364000"},{"id":"130620","name":"T\u00e2n An","state_id":3808,"state_code":"41","country_id":240,"country_code":"VN","latitude":"10.53589000","longitude":"106.41366000"}]