[{"id":"130549","name":"Huy\u1ec7n D\u1ee9c C\u01a1","state_id":3813,"state_code":"30","country_id":240,"country_code":"VN","latitude":"13.78454000","longitude":"107.66970000"},{"id":"130258","name":"Huy\u1ec7n Ch\u01b0 Pah","state_id":3813,"state_code":"30","country_id":240,"country_code":"VN","latitude":"14.15941000","longitude":"107.98411000"},{"id":"130257","name":"Huy\u1ec7n Ch\u01b0 Pr\u00f4ng","state_id":3813,"state_code":"30","country_id":240,"country_code":"VN","latitude":"13.59976000","longitude":"107.81099000"},{"id":"130259","name":"Huy\u1ec7n Ch\u01b0 S\u00ea","state_id":3813,"state_code":"30","country_id":240,"country_code":"VN","latitude":"13.74254000","longitude":"108.08663000"},{"id":"130320","name":"Huy\u1ec7n Ia Grai","state_id":3813,"state_code":"30","country_id":240,"country_code":"VN","latitude":"13.98937000","longitude":"107.73740000"},{"id":"130335","name":"Huy\u1ec7n K\u00f4ng Chro","state_id":3813,"state_code":"30","country_id":240,"country_code":"VN","latitude":"13.73519000","longitude":"108.59697000"},{"id":"130322","name":"Huy\u1ec7n KBang","state_id":3813,"state_code":"30","country_id":240,"country_code":"VN","latitude":"14.30506000","longitude":"108.49779000"},{"id":"130334","name":"Huy\u1ec7n Kr\u00f4ng Pa","state_id":3813,"state_code":"30","country_id":240,"country_code":"VN","latitude":"13.23152000","longitude":"108.65494000"},{"id":"130358","name":"Huy\u1ec7n Mang Yang","state_id":3813,"state_code":"30","country_id":240,"country_code":"VN","latitude":"13.92840000","longitude":"108.30246000"},{"id":"130583","name":"Pleiku","state_id":3813,"state_code":"30","country_id":240,"country_code":"VN","latitude":"13.98333000","longitude":"108.00000000"}]