[{"id":"130239","name":"Huy\u1ec7n B\u1ebfn C\u1ea7u","state_id":3826,"state_code":"37","country_id":240,"country_code":"VN","latitude":"11.12889000","longitude":"106.14296000"},{"id":"130282","name":"Huy\u1ec7n D\u01b0\u01a1ng Minh Ch\u00e2u","state_id":3826,"state_code":"37","country_id":240,"country_code":"VN","latitude":"11.31833000","longitude":"106.25697000"},{"id":"130294","name":"Huy\u1ec7n G\u00f2 D\u1ea7u","state_id":3826,"state_code":"37","country_id":240,"country_code":"VN","latitude":"11.15737000","longitude":"106.27307000"},{"id":"130306","name":"Huy\u1ec7n H\u00f2a Th\u00e0nh","state_id":3826,"state_code":"37","country_id":240,"country_code":"VN","latitude":"11.26706000","longitude":"106.14486000"},{"id":"130480","name":"Huy\u1ec7n T\u00e2n Ch\u00e2u","state_id":3826,"state_code":"37","country_id":240,"country_code":"VN","latitude":"11.58739000","longitude":"106.28270000"},{"id":"130472","name":"Huy\u1ec7n Tr\u1ea3ng B\u00e0ng","state_id":3826,"state_code":"37","country_id":240,"country_code":"VN","latitude":"11.05720000","longitude":"106.37539000"},{"id":"130581","name":"Ph\u00fa Kh\u01b0\u01a1ng","state_id":3826,"state_code":"37","country_id":240,"country_code":"VN","latitude":"11.28333000","longitude":"106.13333000"},{"id":"130621","name":"T\u00e2y Ninh","state_id":3826,"state_code":"37","country_id":240,"country_code":"VN","latitude":"11.31004000","longitude":"106.09828000"}]