[{"id":"130562","name":"H\u1ea3i D\u01b0\u01a1ng","state_id":3827,"state_code":"61","country_id":240,"country_code":"VN","latitude":"20.94099000","longitude":"106.33302000"},{"id":"130221","name":"Huy\u1ec7n B\u00ecnh Giang","state_id":3827,"state_code":"61","country_id":240,"country_code":"VN","latitude":"20.87586000","longitude":"106.19138000"},{"id":"130274","name":"Huy\u1ec7n C\u1ea9m Gi\u00e0ng","state_id":3827,"state_code":"61","country_id":240,"country_code":"VN","latitude":"20.95000000","longitude":"106.21667000"},{"id":"130286","name":"Huy\u1ec7n Gia L\u1ed9c","state_id":3827,"state_code":"61","country_id":240,"country_code":"VN","latitude":"20.85164000","longitude":"106.29130000"},{"id":"130329","name":"Huy\u1ec7n Kinh M\u00f4n","state_id":3827,"state_code":"61","country_id":240,"country_code":"VN","latitude":"21.01634000","longitude":"106.50384000"},{"id":"130376","name":"Huy\u1ec7n Nam S\u00e1ch","state_id":3827,"state_code":"61","country_id":240,"country_code":"VN","latitude":"21.00484000","longitude":"106.34042000"},{"id":"130438","name":"Huy\u1ec7n Thanh Mi\u1ec7n","state_id":3827,"state_code":"61","country_id":240,"country_code":"VN","latitude":"20.77953000","longitude":"106.22218000"},{"id":"130609","name":"Th\u1ecb X\u00e3 Ch\u00ed Linh","state_id":3827,"state_code":"61","country_id":240,"country_code":"VN","latitude":"21.13722000","longitude":"106.39638000"}]