[{"id":"130552","name":"Huy\u1ec7n D\u1ee9c Ph\u1ed5","state_id":3828,"state_code":"29","country_id":240,"country_code":"VN","latitude":"14.78000000","longitude":"108.97857000"},{"id":"130216","name":"Huy\u1ec7n Ba T\u01a1","state_id":3828,"state_code":"29","country_id":240,"country_code":"VN","latitude":"14.73973000","longitude":"108.69326000"},{"id":"130224","name":"Huy\u1ec7n B\u00ecnh S\u01a1n","state_id":3828,"state_code":"29","country_id":240,"country_code":"VN","latitude":"15.31899000","longitude":"108.76383000"},{"id":"130348","name":"Huy\u1ec7n L\u00fd S\u01a1n","state_id":3828,"state_code":"29","country_id":240,"country_code":"VN","latitude":"15.40608000","longitude":"109.09707000"},{"id":"130366","name":"Huy\u1ec7n M\u1ed9 D\u1ee9c","state_id":3828,"state_code":"29","country_id":240,"country_code":"VN","latitude":"14.95515000","longitude":"108.88841000"},{"id":"130359","name":"Huy\u1ec7n Minh Long","state_id":3828,"state_code":"29","country_id":240,"country_code":"VN","latitude":"14.95375000","longitude":"108.67724000"},{"id":"130383","name":"Huy\u1ec7n Nghia H\u00e0nh","state_id":3828,"state_code":"29","country_id":240,"country_code":"VN","latitude":"14.98712000","longitude":"108.80036000"},{"id":"130424","name":"Huy\u1ec7n S\u01a1n H\u00e0","state_id":3828,"state_code":"29","country_id":240,"country_code":"VN","latitude":"14.98427000","longitude":"108.53643000"},{"id":"130426","name":"Huy\u1ec7n S\u01a1n T\u00e2y","state_id":3828,"state_code":"29","country_id":240,"country_code":"VN","latitude":"14.96392000","longitude":"108.36419000"},{"id":"130427","name":"Huy\u1ec7n S\u01a1n T\u1ecbnh","state_id":3828,"state_code":"29","country_id":240,"country_code":"VN","latitude":"15.19090000","longitude":"108.74295000"},{"id":"130464","name":"Huy\u1ec7n Tr\u00e0 B\u1ed3ng","state_id":3828,"state_code":"29","country_id":240,"country_code":"VN","latitude":"15.23752000","longitude":"108.52633000"},{"id":"130491","name":"Huy\u1ec7n T\u01b0 Nghia","state_id":3828,"state_code":"29","country_id":240,"country_code":"VN","latitude":"15.09499000","longitude":"108.77053000"},{"id":"130585","name":"Qu\u1ea3ng Ng\u00e3i","state_id":3828,"state_code":"29","country_id":240,"country_code":"VN","latitude":"15.12047000","longitude":"108.79232000"}]