[{"id":"130209","name":"Huy\u1ec7n An L\u00e3o","state_id":3830,"state_code":"31","country_id":240,"country_code":"VN","latitude":"14.55676000","longitude":"108.80100000"},{"id":"130298","name":"Huy\u1ec7n Ho\u00e0i Nh\u01a1n","state_id":3830,"state_code":"31","country_id":240,"country_code":"VN","latitude":"14.50535000","longitude":"109.02315000"},{"id":"130397","name":"Huy\u1ec7n Ph\u00f9 M\u1ef9","state_id":3830,"state_code":"31","country_id":240,"country_code":"VN","latitude":"14.22304000","longitude":"109.08611000"},{"id":"130490","name":"Huy\u1ec7n T\u00e2y S\u01a1n","state_id":3830,"state_code":"31","country_id":240,"country_code":"VN","latitude":"13.94306000","longitude":"108.87999000"},{"id":"130476","name":"Huy\u1ec7n Tuy Ph\u01b0\u1edbc","state_id":3830,"state_code":"31","country_id":240,"country_code":"VN","latitude":"13.84564000","longitude":"109.15275000"},{"id":"130503","name":"Huy\u1ec7n Vinh Th\u1ea1nh","state_id":3830,"state_code":"31","country_id":240,"country_code":"VN","latitude":"14.21100000","longitude":"108.74389000"},{"id":"130584","name":"Qui Nhon","state_id":3830,"state_code":"31","country_id":240,"country_code":"VN","latitude":"13.77648000","longitude":"109.22367000"}]