[{"id":"102990","name":"Alfta","state_id":1533,"state_code":"X","country_id":213,"country_code":"SE","latitude":"61.34675000","longitude":"16.07499000"},{"id":"103009","name":"Arbr\u00e5","state_id":1533,"state_code":"X","country_id":213,"country_code":"SE","latitude":"61.46667000","longitude":"16.38333000"},{"id":"104014","name":"\u00c5rsunda","state_id":1533,"state_code":"X","country_id":213,"country_code":"SE","latitude":"60.51644000","longitude":"16.73436000"},{"id":"103033","name":"Bergby","state_id":1533,"state_code":"X","country_id":213,"country_code":"SE","latitude":"60.92931000","longitude":"17.04194000"},{"id":"103038","name":"Bergsj\u00f6","state_id":1533,"state_code":"X","country_id":213,"country_code":"SE","latitude":"61.98253000","longitude":"17.06368000"},{"id":"103067","name":"Bolln\u00e4s","state_id":1533,"state_code":"X","country_id":213,"country_code":"SE","latitude":"61.34817000","longitude":"16.39464000"},{"id":"103068","name":"Bolln\u00e4s Kommun","state_id":1533,"state_code":"X","country_id":213,"country_code":"SE","latitude":"61.31418000","longitude":"16.41725000"},{"id":"103118","name":"Delsbo","state_id":1533,"state_code":"X","country_id":213,"country_code":"SE","latitude":"61.80104000","longitude":"16.55571000"},{"id":"103129","name":"Edsbyn","state_id":1533,"state_code":"X","country_id":213,"country_code":"SE","latitude":"61.37692000","longitude":"15.81747000"},{"id":"103193","name":"F\u00e4rila","state_id":1533,"state_code":"X","country_id":213,"country_code":"SE","latitude":"61.80011000","longitude":"15.84422000"},{"id":"103177","name":"Forsbacka","state_id":1533,"state_code":"X","country_id":213,"country_code":"SE","latitude":"60.61667000","longitude":"16.88333000"},{"id":"103240","name":"G\u00e4vle","state_id":1533,"state_code":"X","country_id":213,"country_code":"SE","latitude":"60.67452000","longitude":"17.14174000"},{"id":"103241","name":"G\u00e4vle Kommun","state_id":1533,"state_code":"X","country_id":213,"country_code":"SE","latitude":"60.64260000","longitude":"17.12066000"},{"id":"103214","name":"Gnarp","state_id":1533,"state_code":"X","country_id":213,"country_code":"SE","latitude":"62.04874000","longitude":"17.25858000"},{"id":"103276","name":"Hedesunda","state_id":1533,"state_code":"X","country_id":213,"country_code":"SE","latitude":"60.40000000","longitude":"17.00000000"},{"id":"103293","name":"Hofors","state_id":1533,"state_code":"X","country_id":213,"country_code":"SE","latitude":"60.54573000","longitude":"16.28668000"},{"id":"103294","name":"Hofors Kommun","state_id":1533,"state_code":"X","country_id":213,"country_code":"SE","latitude":"60.49619000","longitude":"16.41088000"},{"id":"103305","name":"Hudiksvall","state_id":1533,"state_code":"X","country_id":213,"country_code":"SE","latitude":"61.72744000","longitude":"17.10558000"},{"id":"103306","name":"Hudiksvalls Kommun","state_id":1533,"state_code":"X","country_id":213,"country_code":"SE","latitude":"61.76615000","longitude":"16.77055000"},{"id":"103344","name":"Iggesund","state_id":1533,"state_code":"X","country_id":213,"country_code":"SE","latitude":"61.64219000","longitude":"17.07477000"},{"id":"103361","name":"J\u00e4rbo","state_id":1533,"state_code":"X","country_id":213,"country_code":"SE","latitude":"60.71667000","longitude":"16.60000000"},{"id":"103365","name":"J\u00e4rvs\u00f6","state_id":1533,"state_code":"X","country_id":213,"country_code":"SE","latitude":"61.71667000","longitude":"16.16667000"},{"id":"103389","name":"Kilafors","state_id":1533,"state_code":"X","country_id":213,"country_code":"SE","latitude":"61.23333000","longitude":"16.56667000"},{"id":"103485","name":"Ljusdal","state_id":1533,"state_code":"X","country_id":213,"country_code":"SE","latitude":"61.82883000","longitude":"16.09126000"},{"id":"103486","name":"Ljusdals Kommun","state_id":1533,"state_code":"X","country_id":213,"country_code":"SE","latitude":"61.85527000","longitude":"15.50695000"},{"id":"103488","name":"Ljusne","state_id":1533,"state_code":"X","country_id":213,"country_code":"SE","latitude":"61.21170000","longitude":"17.12790000"},{"id":"103581","name":"Nordanstigs kommun","state_id":1533,"state_code":"X","country_id":213,"country_code":"SE","latitude":"62.05261000","longitude":"16.91378000"},{"id":"103607","name":"Ockelbo","state_id":1533,"state_code":"X","country_id":213,"country_code":"SE","latitude":"60.89120000","longitude":"16.71846000"},{"id":"103608","name":"Ockelbo Kommun","state_id":1533,"state_code":"X","country_id":213,"country_code":"SE","latitude":"60.94179000","longitude":"16.57003000"},{"id":"103626","name":"Ovan\u00e5kers Kommun","state_id":1533,"state_code":"X","country_id":213,"country_code":"SE","latitude":"61.33328000","longitude":"15.78067000"},{"id":"103680","name":"Sandarne","state_id":1533,"state_code":"X","country_id":213,"country_code":"SE","latitude":"61.25893000","longitude":"17.15284000"},{"id":"103681","name":"Sandviken","state_id":1533,"state_code":"X","country_id":213,"country_code":"SE","latitude":"60.61667000","longitude":"16.76667000"},{"id":"103682","name":"Sandvikens Kommun","state_id":1533,"state_code":"X","country_id":213,"country_code":"SE","latitude":"60.55029000","longitude":"16.68461000"},{"id":"103819","name":"S\u00f6derhamn","state_id":1533,"state_code":"X","country_id":213,"country_code":"SE","latitude":"61.30373000","longitude":"17.05921000"},{"id":"103820","name":"S\u00f6derhamns Kommun","state_id":1533,"state_code":"X","country_id":213,"country_code":"SE","latitude":"61.25371000","longitude":"16.94879000"},{"id":"103832","name":"S\u00f6rforsa","state_id":1533,"state_code":"X","country_id":213,"country_code":"SE","latitude":"61.73333000","longitude":"16.98333000"},{"id":"103768","name":"Storvik","state_id":1533,"state_code":"X","country_id":213,"country_code":"SE","latitude":"60.58333000","longitude":"16.53333000"},{"id":"103912","name":"Valbo","state_id":1533,"state_code":"X","country_id":213,"country_code":"SE","latitude":"60.65000000","longitude":"17.03333000"}]