[{"id":"103017","name":"Arvika","state_id":1535,"state_code":"S","country_id":213,"country_code":"SE","latitude":"59.65528000","longitude":"12.58518000"},{"id":"103018","name":"Arvika Kommun","state_id":1535,"state_code":"S","country_id":213,"country_code":"SE","latitude":"59.70484000","longitude":"12.63202000"},{"id":"104006","name":"\u00c5motfors","state_id":1535,"state_code":"S","country_id":213,"country_code":"SE","latitude":"59.76191000","longitude":"12.36211000"},{"id":"104011","name":"\u00c5rj\u00e4ng","state_id":1535,"state_code":"S","country_id":213,"country_code":"SE","latitude":"59.39217000","longitude":"12.13336000"},{"id":"104012","name":"\u00c5rj\u00e4ngs Kommun","state_id":1535,"state_code":"S","country_id":213,"country_code":"SE","latitude":"59.43589000","longitude":"12.10366000"},{"id":"103057","name":"Bj\u00f6rneborg","state_id":1535,"state_code":"S","country_id":213,"country_code":"SE","latitude":"59.24122000","longitude":"14.24942000"},{"id":"103107","name":"Charlottenberg","state_id":1535,"state_code":"S","country_id":213,"country_code":"SE","latitude":"59.88422000","longitude":"12.30398000"},{"id":"103117","name":"Deje","state_id":1535,"state_code":"S","country_id":213,"country_code":"SE","latitude":"59.60300000","longitude":"13.47200000"},{"id":"103128","name":"Eda kommun","state_id":1535,"state_code":"S","country_id":213,"country_code":"SE","latitude":"59.80000000","longitude":"12.21667000"},{"id":"103135","name":"Eksh\u00e4rad","state_id":1535,"state_code":"S","country_id":213,"country_code":"SE","latitude":"60.17275000","longitude":"13.49647000"},{"id":"103164","name":"Filipstad","state_id":1535,"state_code":"S","country_id":213,"country_code":"SE","latitude":"59.71236000","longitude":"14.16831000"},{"id":"103165","name":"Filipstads Kommun","state_id":1535,"state_code":"S","country_id":213,"country_code":"SE","latitude":"59.87354000","longitude":"14.14706000"},{"id":"103179","name":"Forshaga","state_id":1535,"state_code":"S","country_id":213,"country_code":"SE","latitude":"59.52541000","longitude":"13.48127000"},{"id":"103180","name":"Forshaga Kommun","state_id":1535,"state_code":"S","country_id":213,"country_code":"SE","latitude":"59.64596000","longitude":"13.50572000"},{"id":"103223","name":"Grums","state_id":1535,"state_code":"S","country_id":213,"country_code":"SE","latitude":"59.35141000","longitude":"13.11105000"},{"id":"103224","name":"Grums Kommun","state_id":1535,"state_code":"S","country_id":213,"country_code":"SE","latitude":"59.40406000","longitude":"13.02192000"},{"id":"103251","name":"Hagfors","state_id":1535,"state_code":"S","country_id":213,"country_code":"SE","latitude":"60.02378000","longitude":"13.67214000"},{"id":"103252","name":"Hagfors Kommun","state_id":1535,"state_code":"S","country_id":213,"country_code":"SE","latitude":"60.08997000","longitude":"13.60757000"},{"id":"103262","name":"Hammar\u00f6 Kommun","state_id":1535,"state_code":"S","country_id":213,"country_code":"SE","latitude":"59.30699000","longitude":"13.54869000"},{"id":"103383","name":"Karlstad","state_id":1535,"state_code":"S","country_id":213,"country_code":"SE","latitude":"59.37930000","longitude":"13.50357000"},{"id":"103384","name":"Karlstads Kommun","state_id":1535,"state_code":"S","country_id":213,"country_code":"SE","latitude":"59.47409000","longitude":"13.59961000"},{"id":"103388","name":"Kil","state_id":1535,"state_code":"S","country_id":213,"country_code":"SE","latitude":"59.50234000","longitude":"13.31277000"},{"id":"103390","name":"Kils Kommun","state_id":1535,"state_code":"S","country_id":213,"country_code":"SE","latitude":"59.50406000","longitude":"13.31740000"},{"id":"103416","name":"Kristinehamn","state_id":1535,"state_code":"S","country_id":213,"country_code":"SE","latitude":"59.30978000","longitude":"14.10808000"},{"id":"103417","name":"Kristinehamns Kommun","state_id":1535,"state_code":"S","country_id":213,"country_code":"SE","latitude":"59.25288000","longitude":"14.13593000"},{"id":"103544","name":"Molkom","state_id":1535,"state_code":"S","country_id":213,"country_code":"SE","latitude":"59.60057000","longitude":"13.72115000"},{"id":"103555","name":"Munkfors","state_id":1535,"state_code":"S","country_id":213,"country_code":"SE","latitude":"59.83856000","longitude":"13.54361000"},{"id":"103556","name":"Munkfors Kommun","state_id":1535,"state_code":"S","country_id":213,"country_code":"SE","latitude":"59.81625000","longitude":"13.49458000"},{"id":"103670","name":"R\u00e5torp","state_id":1535,"state_code":"S","country_id":213,"country_code":"SE","latitude":"59.40197000","longitude":"13.49144000"},{"id":"103804","name":"S\u00e4ffle","state_id":1535,"state_code":"S","country_id":213,"country_code":"SE","latitude":"59.13229000","longitude":"12.92888000"},{"id":"103805","name":"S\u00e4ffle Kommun","state_id":1535,"state_code":"S","country_id":213,"country_code":"SE","latitude":"59.19559000","longitude":"12.86437000"},{"id":"103698","name":"Skattk\u00e4rr","state_id":1535,"state_code":"S","country_id":213,"country_code":"SE","latitude":"59.41208000","longitude":"13.67078000"},{"id":"103722","name":"Sk\u00e5re","state_id":1535,"state_code":"S","country_id":213,"country_code":"SE","latitude":"59.43333000","longitude":"13.43333000"},{"id":"103708","name":"Skoghall","state_id":1535,"state_code":"S","country_id":213,"country_code":"SE","latitude":"59.32324000","longitude":"13.46552000"},{"id":"103726","name":"Slottsbron","state_id":1535,"state_code":"S","country_id":213,"country_code":"SE","latitude":"59.32270000","longitude":"13.10268000"},{"id":"103763","name":"Storfors","state_id":1535,"state_code":"S","country_id":213,"country_code":"SE","latitude":"59.53183000","longitude":"14.27201000"},{"id":"103764","name":"Storfors Kommun","state_id":1535,"state_code":"S","country_id":213,"country_code":"SE","latitude":"59.49478000","longitude":"14.24733000"},{"id":"103788","name":"Sunne","state_id":1535,"state_code":"S","country_id":213,"country_code":"SE","latitude":"59.83764000","longitude":"13.14302000"},{"id":"103789","name":"Sunne Kommun","state_id":1535,"state_code":"S","country_id":213,"country_code":"SE","latitude":"59.90378000","longitude":"13.04420000"},{"id":"103890","name":"T\u00f6cksfors","state_id":1535,"state_code":"S","country_id":213,"country_code":"SE","latitude":"59.50816000","longitude":"11.84431000"},{"id":"103862","name":"Torsby","state_id":1535,"state_code":"S","country_id":213,"country_code":"SE","latitude":"60.13527000","longitude":"13.00820000"},{"id":"103863","name":"Torsby Kommun","state_id":1535,"state_code":"S","country_id":213,"country_code":"SE","latitude":"60.56939000","longitude":"12.93837000"},{"id":"103977","name":"V\u00e5lberg","state_id":1535,"state_code":"S","country_id":213,"country_code":"SE","latitude":"59.39145000","longitude":"13.18633000"}]