[{"id":"103094","name":"Br\u00e4kne-Hoby","state_id":1537,"state_code":"K","country_id":213,"country_code":"SE","latitude":"56.23333000","longitude":"15.11667000"},{"id":"103270","name":"Hassl\u00f6","state_id":1537,"state_code":"K","country_id":213,"country_code":"SE","latitude":"56.11667000","longitude":"15.48333000"},{"id":"103321","name":"H\u00e4llevik","state_id":1537,"state_code":"K","country_id":213,"country_code":"SE","latitude":"56.01667000","longitude":"14.70000000"},{"id":"103359","name":"J\u00e4mj\u00f6","state_id":1537,"state_code":"K","country_id":213,"country_code":"SE","latitude":"56.19187000","longitude":"15.84115000"},{"id":"103360","name":"J\u00e4msh\u00f6g","state_id":1537,"state_code":"K","country_id":213,"country_code":"SE","latitude":"56.23333000","longitude":"14.51667000"},{"id":"103371","name":"Kallinge","state_id":1537,"state_code":"K","country_id":213,"country_code":"SE","latitude":"56.24841000","longitude":"15.28721000"},{"id":"103377","name":"Karlshamn","state_id":1537,"state_code":"K","country_id":213,"country_code":"SE","latitude":"56.17060000","longitude":"14.86188000"},{"id":"103378","name":"Karlshamns kommun","state_id":1537,"state_code":"K","country_id":213,"country_code":"SE","latitude":"56.25000000","longitude":"14.86667000"},{"id":"103381","name":"Karlskrona","state_id":1537,"state_code":"K","country_id":213,"country_code":"SE","latitude":"56.16156000","longitude":"15.58661000"},{"id":"103382","name":"Karlskrona Kommun","state_id":1537,"state_code":"K","country_id":213,"country_code":"SE","latitude":"56.28167000","longitude":"15.66848000"},{"id":"103570","name":"M\u00f6rrum","state_id":1537,"state_code":"K","country_id":213,"country_code":"SE","latitude":"56.19281000","longitude":"14.74739000"},{"id":"103539","name":"Mj\u00e4llby","state_id":1537,"state_code":"K","country_id":213,"country_code":"SE","latitude":"56.05000000","longitude":"14.68333000"},{"id":"103605","name":"N\u00e4ttraby","state_id":1537,"state_code":"K","country_id":213,"country_code":"SE","latitude":"56.20000000","longitude":"15.51667000"},{"id":"103612","name":"Olofstr\u00f6m","state_id":1537,"state_code":"K","country_id":213,"country_code":"SE","latitude":"56.27730000","longitude":"14.53402000"},{"id":"103613","name":"Olofstr\u00f6ms Kommun","state_id":1537,"state_code":"K","country_id":213,"country_code":"SE","latitude":"56.32305000","longitude":"14.56561000"},{"id":"103672","name":"R\u00f6deby","state_id":1537,"state_code":"K","country_id":213,"country_code":"SE","latitude":"56.26078000","longitude":"15.62143000"},{"id":"103655","name":"Ronneby","state_id":1537,"state_code":"K","country_id":213,"country_code":"SE","latitude":"56.20999000","longitude":"15.27602000"},{"id":"103656","name":"Ronneby Kommun","state_id":1537,"state_code":"K","country_id":213,"country_code":"SE","latitude":"56.31031000","longitude":"15.24038000"},{"id":"103830","name":"S\u00f6lvesborg","state_id":1537,"state_code":"K","country_id":213,"country_code":"SE","latitude":"56.05205000","longitude":"14.57525000"},{"id":"103831","name":"S\u00f6lvesborgs kommun","state_id":1537,"state_code":"K","country_id":213,"country_code":"SE","latitude":"56.08910000","longitude":"14.64518000"},{"id":"103779","name":"Sturk\u00f6","state_id":1537,"state_code":"K","country_id":213,"country_code":"SE","latitude":"56.08333000","longitude":"15.70000000"},{"id":"103801","name":"Sv\u00e4ngsta","state_id":1537,"state_code":"K","country_id":213,"country_code":"SE","latitude":"56.26667000","longitude":"14.76667000"}]