[{"id":"103013","name":"Arn\u00f6","state_id":1540,"state_code":"D","country_id":213,"country_code":"SE","latitude":"58.72675000","longitude":"17.02322000"},{"id":"103998","name":"\u00c4rla","state_id":1540,"state_code":"D","country_id":213,"country_code":"SE","latitude":"59.27983000","longitude":"16.67896000"},{"id":"104003","name":"\u00c5kers Styckebruk","state_id":1540,"state_code":"D","country_id":213,"country_code":"SE","latitude":"59.25000000","longitude":"17.08333000"},{"id":"103027","name":"Bara","state_id":1540,"state_code":"D","country_id":213,"country_code":"SE","latitude":"58.68333000","longitude":"17.06667000"},{"id":"103150","name":"Eskilstuna","state_id":1540,"state_code":"D","country_id":213,"country_code":"SE","latitude":"59.36661000","longitude":"16.50770000"},{"id":"103151","name":"Eskilstuna Kommun","state_id":1540,"state_code":"D","country_id":213,"country_code":"SE","latitude":"59.37362000","longitude":"16.49014000"},{"id":"103173","name":"Flen","state_id":1540,"state_code":"D","country_id":213,"country_code":"SE","latitude":"59.05834000","longitude":"16.58781000"},{"id":"103174","name":"Flens Kommun","state_id":1540,"state_code":"D","country_id":213,"country_code":"SE","latitude":"59.05000000","longitude":"16.71667000"},{"id":"103215","name":"Gnesta","state_id":1540,"state_code":"D","country_id":213,"country_code":"SE","latitude":"59.04751000","longitude":"17.31191000"},{"id":"103216","name":"Gnesta Kommun","state_id":1540,"state_code":"D","country_id":213,"country_code":"SE","latitude":"59.09214000","longitude":"17.14533000"},{"id":"103317","name":"H\u00e4llbybrunn","state_id":1540,"state_code":"D","country_id":213,"country_code":"SE","latitude":"59.39152000","longitude":"16.42229000"},{"id":"103320","name":"H\u00e4lleforsn\u00e4s","state_id":1540,"state_code":"D","country_id":213,"country_code":"SE","latitude":"59.15208000","longitude":"16.49700000"},{"id":"103385","name":"Katrineholm","state_id":1540,"state_code":"D","country_id":213,"country_code":"SE","latitude":"58.99587000","longitude":"16.20721000"},{"id":"103386","name":"Katrineholms Kommun","state_id":1540,"state_code":"D","country_id":213,"country_code":"SE","latitude":"59.01734000","longitude":"16.26049000"},{"id":"103432","name":"Kvicksund","state_id":1540,"state_code":"D","country_id":213,"country_code":"SE","latitude":"59.45099000","longitude":"16.32131000"},{"id":"103515","name":"Malmk\u00f6ping","state_id":1540,"state_code":"D","country_id":213,"country_code":"SE","latitude":"59.13333000","longitude":"16.73333000"},{"id":"103525","name":"Mariefred","state_id":1540,"state_code":"D","country_id":213,"country_code":"SE","latitude":"59.25963000","longitude":"17.22300000"},{"id":"103598","name":"Nyk\u00f6ping","state_id":1540,"state_code":"D","country_id":213,"country_code":"SE","latitude":"58.75300000","longitude":"17.00788000"},{"id":"103599","name":"Nyk\u00f6pings Kommun","state_id":1540,"state_code":"D","country_id":213,"country_code":"SE","latitude":"58.81762000","longitude":"16.89945000"},{"id":"103614","name":"Olstorp","state_id":1540,"state_code":"D","country_id":213,"country_code":"SE","latitude":"58.81667000","longitude":"16.63333000"},{"id":"103627","name":"Oxel\u00f6sund","state_id":1540,"state_code":"D","country_id":213,"country_code":"SE","latitude":"58.67057000","longitude":"17.10152000"},{"id":"103628","name":"Oxel\u00f6sunds Kommun","state_id":1540,"state_code":"D","country_id":213,"country_code":"SE","latitude":"58.67519000","longitude":"17.08406000"},{"id":"103709","name":"Skogstorp","state_id":1540,"state_code":"D","country_id":213,"country_code":"SE","latitude":"59.32472000","longitude":"16.48284000"},{"id":"103746","name":"Stallarholmen","state_id":1540,"state_code":"D","country_id":213,"country_code":"SE","latitude":"59.36667000","longitude":"17.20000000"},{"id":"103756","name":"Stigtomta","state_id":1540,"state_code":"D","country_id":213,"country_code":"SE","latitude":"58.80000000","longitude":"16.78333000"},{"id":"103771","name":"Str\u00e4ngn\u00e4s","state_id":1540,"state_code":"D","country_id":213,"country_code":"SE","latitude":"59.37741000","longitude":"17.03119000"},{"id":"103772","name":"Str\u00e4ngn\u00e4s Kommun","state_id":1540,"state_code":"D","country_id":213,"country_code":"SE","latitude":"59.36109000","longitude":"17.08804000"},{"id":"103793","name":"Svalsta","state_id":1540,"state_code":"D","country_id":213,"country_code":"SE","latitude":"58.74273000","longitude":"16.86978000"},{"id":"103864","name":"Torsh\u00e4lla","state_id":1540,"state_code":"D","country_id":213,"country_code":"SE","latitude":"59.41667000","longitude":"16.46667000"},{"id":"103877","name":"Trosa","state_id":1540,"state_code":"D","country_id":213,"country_code":"SE","latitude":"58.89621000","longitude":"17.54812000"},{"id":"103878","name":"Trosa Kommun","state_id":1540,"state_code":"D","country_id":213,"country_code":"SE","latitude":"58.89330000","longitude":"17.49847000"},{"id":"103911","name":"Vagnh\u00e4rad","state_id":1540,"state_code":"D","country_id":213,"country_code":"SE","latitude":"58.94587000","longitude":"17.48757000"},{"id":"103916","name":"Valla","state_id":1540,"state_code":"D","country_id":213,"country_code":"SE","latitude":"59.01667000","longitude":"16.38333000"},{"id":"103951","name":"Ving\u00e5ker","state_id":1540,"state_code":"D","country_id":213,"country_code":"SE","latitude":"59.04330000","longitude":"15.87374000"},{"id":"103952","name":"Ving\u00e5kers Kommun","state_id":1540,"state_code":"D","country_id":213,"country_code":"SE","latitude":"59.06667000","longitude":"15.88333000"}]