[{"id":"102993","name":"Alsike","state_id":1545,"state_code":"C","country_id":213,"country_code":"SE","latitude":"59.75324000","longitude":"17.77331000"},{"id":"102994","name":"Alunda","state_id":1545,"state_code":"C","country_id":213,"country_code":"SE","latitude":"60.26667000","longitude":"18.40000000"},{"id":"103005","name":"Anneberg","state_id":1545,"state_code":"C","country_id":213,"country_code":"SE","latitude":"60.24167000","longitude":"18.41667000"},{"id":"104033","name":"\u00d6rbyhus","state_id":1545,"state_code":"C","country_id":213,"country_code":"SE","latitude":"60.22407000","longitude":"17.70138000"},{"id":"104036","name":"\u00d6regrund","state_id":1545,"state_code":"C","country_id":213,"country_code":"SE","latitude":"60.33333000","longitude":"18.43333000"},{"id":"104041","name":"\u00d6rsundsbro","state_id":1545,"state_code":"C","country_id":213,"country_code":"SE","latitude":"59.73333000","longitude":"17.30000000"},{"id":"104043","name":"\u00d6sterbybruk","state_id":1545,"state_code":"C","country_id":213,"country_code":"SE","latitude":"60.20000000","longitude":"17.90000000"},{"id":"104046","name":"\u00d6sterv\u00e5la","state_id":1545,"state_code":"C","country_id":213,"country_code":"SE","latitude":"60.18333000","longitude":"17.18333000"},{"id":"104048","name":"\u00d6sthammar","state_id":1545,"state_code":"C","country_id":213,"country_code":"SE","latitude":"60.25909000","longitude":"18.37408000"},{"id":"104049","name":"\u00d6sthammars Kommun","state_id":1545,"state_code":"C","country_id":213,"country_code":"SE","latitude":"60.24156000","longitude":"18.26968000"},{"id":"103991","name":"\u00c4lvkarleby","state_id":1545,"state_code":"C","country_id":213,"country_code":"SE","latitude":"60.57081000","longitude":"17.44895000"},{"id":"103992","name":"\u00c4lvkarleby Kommun","state_id":1545,"state_code":"C","country_id":213,"country_code":"SE","latitude":"60.58212000","longitude":"17.44532000"},{"id":"103102","name":"B\u00e4linge","state_id":1545,"state_code":"C","country_id":213,"country_code":"SE","latitude":"59.95000000","longitude":"17.53333000"},{"id":"103103","name":"B\u00e5lsta","state_id":1545,"state_code":"C","country_id":213,"country_code":"SE","latitude":"59.56710000","longitude":"17.52781000"},{"id":"103053","name":"Bj\u00f6rklinge","state_id":1545,"state_code":"C","country_id":213,"country_code":"SE","latitude":"60.03004000","longitude":"17.55203000"},{"id":"103145","name":"Enk\u00f6ping","state_id":1545,"state_code":"C","country_id":213,"country_code":"SE","latitude":"59.63607000","longitude":"17.07768000"},{"id":"103146","name":"Enk\u00f6pings Kommun","state_id":1545,"state_code":"C","country_id":213,"country_code":"SE","latitude":"59.68575000","longitude":"17.11668000"},{"id":"103200","name":"Gamla Uppsala","state_id":1545,"state_code":"C","country_id":213,"country_code":"SE","latitude":"59.89817000","longitude":"17.63386000"},{"id":"103208","name":"Gimo","state_id":1545,"state_code":"C","country_id":213,"country_code":"SE","latitude":"60.17304000","longitude":"18.18507000"},{"id":"103222","name":"Grillby","state_id":1545,"state_code":"C","country_id":213,"country_code":"SE","latitude":"59.62603000","longitude":"17.25787000"},{"id":"103328","name":"H\u00e5bo kommun","state_id":1545,"state_code":"C","country_id":213,"country_code":"SE","latitude":"59.64953000","longitude":"17.50701000"},{"id":"103272","name":"Heby","state_id":1545,"state_code":"C","country_id":213,"country_code":"SE","latitude":"59.93815000","longitude":"16.86217000"},{"id":"103273","name":"Heby kommun","state_id":1545,"state_code":"C","country_id":213,"country_code":"SE","latitude":"60.10000000","longitude":"17.00000000"},{"id":"103350","name":"Irsta","state_id":1545,"state_code":"C","country_id":213,"country_code":"SE","latitude":"59.70000000","longitude":"16.93333000"},{"id":"103374","name":"Karlholmsbruk","state_id":1545,"state_code":"C","country_id":213,"country_code":"SE","latitude":"60.52091000","longitude":"17.63152000"},{"id":"103403","name":"Knivsta","state_id":1545,"state_code":"C","country_id":213,"country_code":"SE","latitude":"59.72564000","longitude":"17.78753000"},{"id":"103404","name":"Knivsta Kommun","state_id":1545,"state_code":"C","country_id":213,"country_code":"SE","latitude":"59.73702000","longitude":"17.78137000"},{"id":"103511","name":"L\u00f6vstal\u00f6t","state_id":1545,"state_code":"C","country_id":213,"country_code":"SE","latitude":"59.95740000","longitude":"17.57826000"},{"id":"103524","name":"Marieberg","state_id":1545,"state_code":"C","country_id":213,"country_code":"SE","latitude":"60.23333000","longitude":"18.50000000"},{"id":"103547","name":"Morgong\u00e5va","state_id":1545,"state_code":"C","country_id":213,"country_code":"SE","latitude":"59.93395000","longitude":"16.96353000"},{"id":"103813","name":"S\u00e4vja","state_id":1545,"state_code":"C","country_id":213,"country_code":"SE","latitude":"59.81872000","longitude":"17.69958000"},{"id":"103817","name":"S\u00f6derfors","state_id":1545,"state_code":"C","country_id":213,"country_code":"SE","latitude":"60.38333000","longitude":"17.23333000"},{"id":"103716","name":"Skutsk\u00e4r","state_id":1545,"state_code":"C","country_id":213,"country_code":"SE","latitude":"60.62507000","longitude":"17.41552000"},{"id":"103769","name":"Storvreta","state_id":1545,"state_code":"C","country_id":213,"country_code":"SE","latitude":"59.95933000","longitude":"17.70588000"},{"id":"103889","name":"T\u00e4rnsj\u00f6","state_id":1545,"state_code":"C","country_id":213,"country_code":"SE","latitude":"60.15000000","longitude":"16.93333000"},{"id":"103846","name":"Tierp","state_id":1545,"state_code":"C","country_id":213,"country_code":"SE","latitude":"60.34269000","longitude":"17.51812000"},{"id":"103847","name":"Tierps kommun","state_id":1545,"state_code":"C","country_id":213,"country_code":"SE","latitude":"60.37206000","longitude":"17.63629000"},{"id":"103903","name":"Uppsala","state_id":1545,"state_code":"C","country_id":213,"country_code":"SE","latitude":"59.85882000","longitude":"17.63889000"},{"id":"103904","name":"Uppsala Kommun","state_id":1545,"state_code":"C","country_id":213,"country_code":"SE","latitude":"59.96425000","longitude":"17.77395000"},{"id":"103928","name":"Vattholma","state_id":1545,"state_code":"C","country_id":213,"country_code":"SE","latitude":"60.01667000","longitude":"17.73333000"}]