[{"id":"103219","name":"Gotland","state_id":1546,"state_code":"I","country_id":213,"country_code":"SE","latitude":"57.50000000","longitude":"18.50000000"},{"id":"103279","name":"Hemse","state_id":1546,"state_code":"I","country_id":213,"country_code":"SE","latitude":"57.23788000","longitude":"18.37443000"},{"id":"103398","name":"Klintehamn","state_id":1546,"state_code":"I","country_id":213,"country_code":"SE","latitude":"57.38667000","longitude":"18.20371000"},{"id":"103940","name":"Vibble","state_id":1546,"state_code":"I","country_id":213,"country_code":"SE","latitude":"57.60452000","longitude":"18.25601000"},{"id":"103957","name":"Visby","state_id":1546,"state_code":"I","country_id":213,"country_code":"SE","latitude":"57.64089000","longitude":"18.29602000"}]