[{"id":"102987","name":"Alafors","state_id":1547,"state_code":"O","country_id":213,"country_code":"SE","latitude":"57.92579000","longitude":"12.07835000"},{"id":"102989","name":"Ale Kommun","state_id":1547,"state_code":"O","country_id":213,"country_code":"SE","latitude":"57.97018000","longitude":"12.25166000"},{"id":"102991","name":"Alings\u00e5s","state_id":1547,"state_code":"O","country_id":213,"country_code":"SE","latitude":"57.93033000","longitude":"12.53345000"},{"id":"102992","name":"Alings\u00e5s Kommun","state_id":1547,"state_code":"O","country_id":213,"country_code":"SE","latitude":"58.00000000","longitude":"12.50000000"},{"id":"102997","name":"Andalen","state_id":1547,"state_code":"O","country_id":213,"country_code":"SE","latitude":"57.70039000","longitude":"11.76136000"},{"id":"103000","name":"Anderstorp","state_id":1547,"state_code":"O","country_id":213,"country_code":"SE","latitude":"58.88333000","longitude":"14.28333000"},{"id":"103003","name":"Angered","state_id":1547,"state_code":"O","country_id":213,"country_code":"SE","latitude":"57.78628000","longitude":"12.09852000"},{"id":"103006","name":"Annelund","state_id":1547,"state_code":"O","country_id":213,"country_code":"SE","latitude":"57.98843000","longitude":"13.07483000"},{"id":"103024","name":"Axvall","state_id":1547,"state_code":"O","country_id":213,"country_code":"SE","latitude":"58.38333000","longitude":"13.56667000"},{"id":"104025","name":"\u00d6cker\u00f6","state_id":1547,"state_code":"O","country_id":213,"country_code":"SE","latitude":"57.70814000","longitude":"11.65585000"},{"id":"104026","name":"\u00d6cker\u00f6 Kommun","state_id":1547,"state_code":"O","country_id":213,"country_code":"SE","latitude":"57.69534000","longitude":"11.64825000"},{"id":"104029","name":"\u00d6dsm\u00e5l","state_id":1547,"state_code":"O","country_id":213,"country_code":"SE","latitude":"58.10000000","longitude":"11.85000000"},{"id":"104031","name":"\u00d6jersj\u00f6","state_id":1547,"state_code":"O","country_id":213,"country_code":"SE","latitude":"57.69882000","longitude":"12.13448000"},{"id":"103995","name":"\u00c4lv\u00e4ngen","state_id":1547,"state_code":"O","country_id":213,"country_code":"SE","latitude":"57.95872000","longitude":"12.12350000"},{"id":"104001","name":"\u00c5karp","state_id":1547,"state_code":"O","country_id":213,"country_code":"SE","latitude":"58.23333000","longitude":"13.65000000"},{"id":"104007","name":"\u00c5m\u00e5l","state_id":1547,"state_code":"O","country_id":213,"country_code":"SE","latitude":"59.05100000","longitude":"12.70492000"},{"id":"104008","name":"\u00c5m\u00e5ls Kommun","state_id":1547,"state_code":"O","country_id":213,"country_code":"SE","latitude":"59.04573000","longitude":"12.59583000"},{"id":"103030","name":"Bengtsfors","state_id":1547,"state_code":"O","country_id":213,"country_code":"SE","latitude":"59.02912000","longitude":"12.23207000"},{"id":"103031","name":"Bengtsfors Kommun","state_id":1547,"state_code":"O","country_id":213,"country_code":"SE","latitude":"59.03333000","longitude":"12.21667000"},{"id":"103040","name":"Billdal","state_id":1547,"state_code":"O","country_id":213,"country_code":"SE","latitude":"57.56667000","longitude":"11.93333000"},{"id":"103043","name":"Billingsfors","state_id":1547,"state_code":"O","country_id":213,"country_code":"SE","latitude":"58.98333000","longitude":"12.25000000"},{"id":"103052","name":"Bj\u00f6rboholm","state_id":1547,"state_code":"O","country_id":213,"country_code":"SE","latitude":"57.87096000","longitude":"12.32546000"},{"id":"103055","name":"Bj\u00f6rk\u00f6","state_id":1547,"state_code":"O","country_id":213,"country_code":"SE","latitude":"57.73221000","longitude":"11.67916000"},{"id":"103056","name":"Bj\u00f6rlanda","state_id":1547,"state_code":"O","country_id":213,"country_code":"SE","latitude":"57.76667000","longitude":"11.83333000"},{"id":"103064","name":"Bollebygd","state_id":1547,"state_code":"O","country_id":213,"country_code":"SE","latitude":"57.66866000","longitude":"12.57272000"},{"id":"103065","name":"Bollebygds Kommun","state_id":1547,"state_code":"O","country_id":213,"country_code":"SE","latitude":"57.74260000","longitude":"12.61451000"},{"id":"103077","name":"Bor\u00e5s","state_id":1547,"state_code":"O","country_id":213,"country_code":"SE","latitude":"57.73783000","longitude":"12.94076000"},{"id":"103081","name":"Brastad","state_id":1547,"state_code":"O","country_id":213,"country_code":"SE","latitude":"58.38333000","longitude":"11.48333000"},{"id":"103095","name":"Br\u00e5landa","state_id":1547,"state_code":"O","country_id":213,"country_code":"SE","latitude":"58.56344000","longitude":"12.34923000"},{"id":"103110","name":"Dals L\u00e5nged","state_id":1547,"state_code":"O","country_id":213,"country_code":"SE","latitude":"58.92555000","longitude":"12.30865000"},{"id":"103111","name":"Dals-Ed Kommun","state_id":1547,"state_code":"O","country_id":213,"country_code":"SE","latitude":"58.91252000","longitude":"11.92395000"},{"id":"103112","name":"Dalsj\u00f6fors","state_id":1547,"state_code":"O","country_id":213,"country_code":"SE","latitude":"57.71667000","longitude":"13.08333000"},{"id":"103120","name":"Diser\u00f6d","state_id":1547,"state_code":"O","country_id":213,"country_code":"SE","latitude":"57.92636000","longitude":"12.02598000"},{"id":"103124","name":"Dons\u00f6","state_id":1547,"state_code":"O","country_id":213,"country_code":"SE","latitude":"57.60000000","longitude":"11.79917000"},{"id":"103127","name":"Ed","state_id":1547,"state_code":"O","country_id":213,"country_code":"SE","latitude":"58.91247000","longitude":"11.93308000"},{"id":"103139","name":"Ell\u00f6s","state_id":1547,"state_code":"O","country_id":213,"country_code":"SE","latitude":"58.18333000","longitude":"11.46667000"},{"id":"103148","name":"Eriksbo","state_id":1547,"state_code":"O","country_id":213,"country_code":"SE","latitude":"57.77141000","longitude":"12.04183000"},{"id":"103154","name":"Essunga Kommun","state_id":1547,"state_code":"O","country_id":213,"country_code":"SE","latitude":"58.20253000","longitude":"12.72273000"},{"id":"103159","name":"Falk\u00f6ping","state_id":1547,"state_code":"O","country_id":213,"country_code":"SE","latitude":"58.17347000","longitude":"13.55068000"},{"id":"103160","name":"Falk\u00f6pings Kommun","state_id":1547,"state_code":"O","country_id":213,"country_code":"SE","latitude":"58.14046000","longitude":"13.53277000"},{"id":"103191","name":"F\u00e4rgelanda","state_id":1547,"state_code":"O","country_id":213,"country_code":"SE","latitude":"58.56816000","longitude":"11.99235000"},{"id":"103192","name":"F\u00e4rgelanda Kommun","state_id":1547,"state_code":"O","country_id":213,"country_code":"SE","latitude":"58.61630000","longitude":"12.01136000"},{"id":"103175","name":"Floby","state_id":1547,"state_code":"O","country_id":213,"country_code":"SE","latitude":"58.13333000","longitude":"13.33333000"},{"id":"103183","name":"Fristad","state_id":1547,"state_code":"O","country_id":213,"country_code":"SE","latitude":"57.82483000","longitude":"13.01064000"},{"id":"103184","name":"Fritsla","state_id":1547,"state_code":"O","country_id":213,"country_code":"SE","latitude":"57.55655000","longitude":"12.78457000"},{"id":"103189","name":"Furulund","state_id":1547,"state_code":"O","country_id":213,"country_code":"SE","latitude":"57.71667000","longitude":"12.13333000"},{"id":"103242","name":"G\u00e5nghester","state_id":1547,"state_code":"O","country_id":213,"country_code":"SE","latitude":"57.70000000","longitude":"13.01667000"},{"id":"103243","name":"G\u00e5rdsten","state_id":1547,"state_code":"O","country_id":213,"country_code":"SE","latitude":"57.80480000","longitude":"12.02883000"},{"id":"103244","name":"G\u00f6ta","state_id":1547,"state_code":"O","country_id":213,"country_code":"SE","latitude":"58.10617000","longitude":"12.15254000"},{"id":"103245","name":"G\u00f6teborg","state_id":1547,"state_code":"O","country_id":213,"country_code":"SE","latitude":"57.70716000","longitude":"11.96679000"},{"id":"103246","name":"G\u00f6teborgs stad","state_id":1547,"state_code":"O","country_id":213,"country_code":"SE","latitude":"57.72288000","longitude":"11.94577000"},{"id":"103247","name":"G\u00f6tene","state_id":1547,"state_code":"O","country_id":213,"country_code":"SE","latitude":"58.52824000","longitude":"13.49458000"},{"id":"103248","name":"G\u00f6tene Kommun","state_id":1547,"state_code":"O","country_id":213,"country_code":"SE","latitude":"58.55105000","longitude":"13.47866000"},{"id":"103228","name":"Gr\u00e4storp","state_id":1547,"state_code":"O","country_id":213,"country_code":"SE","latitude":"58.33219000","longitude":"12.68122000"},{"id":"103229","name":"Gr\u00e4storps Kommun","state_id":1547,"state_code":"O","country_id":213,"country_code":"SE","latitude":"58.33333000","longitude":"12.66667000"},{"id":"103230","name":"Gr\u00e5bo","state_id":1547,"state_code":"O","country_id":213,"country_code":"SE","latitude":"57.83625000","longitude":"12.29954000"},{"id":"103220","name":"Grebbestad","state_id":1547,"state_code":"O","country_id":213,"country_code":"SE","latitude":"58.70248000","longitude":"11.25738000"},{"id":"103232","name":"Gullsp\u00e5ng","state_id":1547,"state_code":"O","country_id":213,"country_code":"SE","latitude":"58.98615000","longitude":"14.09644000"},{"id":"103233","name":"Gullsp\u00e5ngs Kommun","state_id":1547,"state_code":"O","country_id":213,"country_code":"SE","latitude":"58.93300000","longitude":"14.18048000"},{"id":"103261","name":"Hammarkullen","state_id":1547,"state_code":"O","country_id":213,"country_code":"SE","latitude":"57.78049000","longitude":"12.03604000"},{"id":"103324","name":"H\u00e4rryda Kommun","state_id":1547,"state_code":"O","country_id":213,"country_code":"SE","latitude":"57.67736000","longitude":"12.32010000"},{"id":"103337","name":"H\u00f6n\u00f6","state_id":1547,"state_code":"O","country_id":213,"country_code":"SE","latitude":"57.68972000","longitude":"11.64972000"},{"id":"103341","name":"H\u00f6viksn\u00e4s","state_id":1547,"state_code":"O","country_id":213,"country_code":"SE","latitude":"58.03333000","longitude":"11.76667000"},{"id":"103280","name":"Hen\u00e5n","state_id":1547,"state_code":"O","country_id":213,"country_code":"SE","latitude":"58.23848000","longitude":"11.67598000"},{"id":"103282","name":"Herrljunga","state_id":1547,"state_code":"O","country_id":213,"country_code":"SE","latitude":"58.07739000","longitude":"13.02662000"},{"id":"103283","name":"Herrljunga Kommun","state_id":1547,"state_code":"O","country_id":213,"country_code":"SE","latitude":"58.01156000","longitude":"13.12059000"},{"id":"103286","name":"Hind\u00e5s","state_id":1547,"state_code":"O","country_id":213,"country_code":"SE","latitude":"57.70338000","longitude":"12.44657000"},{"id":"103288","name":"Hjo","state_id":1547,"state_code":"O","country_id":213,"country_code":"SE","latitude":"58.30133000","longitude":"14.28784000"},{"id":"103289","name":"Hjo Kommun","state_id":1547,"state_code":"O","country_id":213,"country_code":"SE","latitude":"58.29642000","longitude":"14.20754000"},{"id":"103290","name":"Hjuvik","state_id":1547,"state_code":"O","country_id":213,"country_code":"SE","latitude":"57.70167000","longitude":"11.71639000"},{"id":"103298","name":"Horred","state_id":1547,"state_code":"O","country_id":213,"country_code":"SE","latitude":"57.35475000","longitude":"12.47777000"},{"id":"103300","name":"Hova","state_id":1547,"state_code":"O","country_id":213,"country_code":"SE","latitude":"58.85363000","longitude":"14.21914000"},{"id":"103309","name":"Hunnebostrand","state_id":1547,"state_code":"O","country_id":213,"country_code":"SE","latitude":"58.44127000","longitude":"11.30320000"},{"id":"103345","name":"Ingared","state_id":1547,"state_code":"O","country_id":213,"country_code":"SE","latitude":"57.85989000","longitude":"12.45161000"},{"id":"103368","name":"J\u00f6rlanda","state_id":1547,"state_code":"O","country_id":213,"country_code":"SE","latitude":"57.98630000","longitude":"11.82943000"},{"id":"103355","name":"Jonstorp","state_id":1547,"state_code":"O","country_id":213,"country_code":"SE","latitude":"58.00000000","longitude":"12.71667000"},{"id":"103375","name":"Karlsborg","state_id":1547,"state_code":"O","country_id":213,"country_code":"SE","latitude":"58.53724000","longitude":"14.50470000"},{"id":"103376","name":"Karlsborgs Kommun","state_id":1547,"state_code":"O","country_id":213,"country_code":"SE","latitude":"58.60994000","longitude":"14.45421000"},{"id":"103436","name":"K\u00e4llby","state_id":1547,"state_code":"O","country_id":213,"country_code":"SE","latitude":"58.50999000","longitude":"13.30582000"},{"id":"103441","name":"K\u00e5llered","state_id":1547,"state_code":"O","country_id":213,"country_code":"SE","latitude":"57.60992000","longitude":"12.05106000"},{"id":"103393","name":"Kinna","state_id":1547,"state_code":"O","country_id":213,"country_code":"SE","latitude":"57.50728000","longitude":"12.69463000"},{"id":"103406","name":"Kode","state_id":1547,"state_code":"O","country_id":213,"country_code":"SE","latitude":"57.94263000","longitude":"11.85051000"},{"id":"103430","name":"Kung\u00e4lv","state_id":1547,"state_code":"O","country_id":213,"country_code":"SE","latitude":"57.87096000","longitude":"11.98054000"},{"id":"103431","name":"Kung\u00e4lvs Kommun","state_id":1547,"state_code":"O","country_id":213,"country_code":"SE","latitude":"57.89697000","longitude":"11.88882000"},{"id":"103425","name":"Kungshamn","state_id":1547,"state_code":"O","country_id":213,"country_code":"SE","latitude":"58.36305000","longitude":"11.25938000"},{"id":"103435","name":"Kv\u00e4num","state_id":1547,"state_code":"O","country_id":213,"country_code":"SE","latitude":"58.30000000","longitude":"13.18333000"},{"id":"103452","name":"Landvetter","state_id":1547,"state_code":"O","country_id":213,"country_code":"SE","latitude":"57.68665000","longitude":"12.21169000"},{"id":"103501","name":"L\u00e4nghem","state_id":1547,"state_code":"O","country_id":213,"country_code":"SE","latitude":"57.60000000","longitude":"13.23333000"},{"id":"103508","name":"L\u00f6d\u00f6se","state_id":1547,"state_code":"O","country_id":213,"country_code":"SE","latitude":"58.02994000","longitude":"12.15934000"},{"id":"103510","name":"L\u00f6vg\u00e4rdet","state_id":1547,"state_code":"O","country_id":213,"country_code":"SE","latitude":"57.81555000","longitude":"12.03861000"},{"id":"103459","name":"Lerum","state_id":1547,"state_code":"O","country_id":213,"country_code":"SE","latitude":"57.77051000","longitude":"12.26904000"},{"id":"103460","name":"Lerums Kommun","state_id":1547,"state_code":"O","country_id":213,"country_code":"SE","latitude":"57.77452000","longitude":"12.26967000"},{"id":"103464","name":"Lidk\u00f6ping","state_id":1547,"state_code":"O","country_id":213,"country_code":"SE","latitude":"58.50517000","longitude":"13.15765000"},{"id":"103465","name":"Lidk\u00f6pings Kommun","state_id":1547,"state_code":"O","country_id":213,"country_code":"SE","latitude":"58.50000000","longitude":"13.00000000"},{"id":"103466","name":"Lilla Edet","state_id":1547,"state_code":"O","country_id":213,"country_code":"SE","latitude":"58.13333000","longitude":"12.13333000"},{"id":"103467","name":"Lilla Edets Kommun","state_id":1547,"state_code":"O","country_id":213,"country_code":"SE","latitude":"58.13569000","longitude":"12.14345000"},{"id":"103468","name":"Limmared","state_id":1547,"state_code":"O","country_id":213,"country_code":"SE","latitude":"57.53592000","longitude":"13.35566000"},{"id":"103472","name":"Lindome","state_id":1547,"state_code":"O","country_id":213,"country_code":"SE","latitude":"57.56667000","longitude":"12.08333000"},{"id":"103484","name":"Ljungskile","state_id":1547,"state_code":"O","country_id":213,"country_code":"SE","latitude":"58.22452000","longitude":"11.92014000"},{"id":"103499","name":"Lysekil","state_id":1547,"state_code":"O","country_id":213,"country_code":"SE","latitude":"58.27429000","longitude":"11.43576000"},{"id":"103500","name":"Lysekils Kommun","state_id":1547,"state_code":"O","country_id":213,"country_code":"SE","latitude":"58.34719000","longitude":"11.46688000"},{"id":"103512","name":"Majorna","state_id":1547,"state_code":"O","country_id":213,"country_code":"SE","latitude":"57.69195000","longitude":"11.91605000"},{"id":"103529","name":"Mariestad","state_id":1547,"state_code":"O","country_id":213,"country_code":"SE","latitude":"58.70971000","longitude":"13.82367000"},{"id":"103530","name":"Mariestads Kommun","state_id":1547,"state_code":"O","country_id":213,"country_code":"SE","latitude":"58.70861000","longitude":"13.85424000"},{"id":"103533","name":"Marks Kommun","state_id":1547,"state_code":"O","country_id":213,"country_code":"SE","latitude":"57.47604000","longitude":"12.59462000"},{"id":"103560","name":"M\u00f6lltorp","state_id":1547,"state_code":"O","country_id":213,"country_code":"SE","latitude":"58.50000000","longitude":"14.40000000"},{"id":"103562","name":"M\u00f6lndal","state_id":1547,"state_code":"O","country_id":213,"country_code":"SE","latitude":"57.65540000","longitude":"12.01378000"},{"id":"103563","name":"M\u00f6lndals kommun","state_id":1547,"state_code":"O","country_id":213,"country_code":"SE","latitude":"57.60256000","longitude":"12.09889000"},{"id":"103564","name":"M\u00f6lnlycke","state_id":1547,"state_code":"O","country_id":213,"country_code":"SE","latitude":"57.65893000","longitude":"12.11792000"},{"id":"103536","name":"Mellerud","state_id":1547,"state_code":"O","country_id":213,"country_code":"SE","latitude":"58.69979000","longitude":"12.45312000"},{"id":"103537","name":"Melleruds Kommun","state_id":1547,"state_code":"O","country_id":213,"country_code":"SE","latitude":"58.69110000","longitude":"12.41399000"},{"id":"103553","name":"Munkedal","state_id":1547,"state_code":"O","country_id":213,"country_code":"SE","latitude":"58.46634000","longitude":"11.67345000"},{"id":"103554","name":"Munkedals Kommun","state_id":1547,"state_code":"O","country_id":213,"country_code":"SE","latitude":"58.57334000","longitude":"11.70103000"},{"id":"103557","name":"Myggen\u00e4s","state_id":1547,"state_code":"O","country_id":213,"country_code":"SE","latitude":"58.06176000","longitude":"11.74936000"},{"id":"103576","name":"Nolvik","state_id":1547,"state_code":"O","country_id":213,"country_code":"SE","latitude":"57.77500000","longitude":"11.83333000"},{"id":"103592","name":"Nossebro","state_id":1547,"state_code":"O","country_id":213,"country_code":"SE","latitude":"58.18808000","longitude":"12.71599000"},{"id":"103611","name":"Olofstorp","state_id":1547,"state_code":"O","country_id":213,"country_code":"SE","latitude":"57.80444000","longitude":"12.17131000"},{"id":"103615","name":"Olstorp","state_id":1547,"state_code":"O","country_id":213,"country_code":"SE","latitude":"57.82277000","longitude":"12.27696000"},{"id":"103620","name":"Orust","state_id":1547,"state_code":"O","country_id":213,"country_code":"SE","latitude":"58.18025000","longitude":"11.63419000"},{"id":"103632","name":"Partille","state_id":1547,"state_code":"O","country_id":213,"country_code":"SE","latitude":"57.73950000","longitude":"12.10642000"},{"id":"103633","name":"Partille Kommun","state_id":1547,"state_code":"O","country_id":213,"country_code":"SE","latitude":"57.73306000","longitude":"12.13072000"},{"id":"103643","name":"Rannebergen","state_id":1547,"state_code":"O","country_id":213,"country_code":"SE","latitude":"57.80236000","longitude":"12.07131000"},{"id":"103667","name":"R\u00e4vlanda","state_id":1547,"state_code":"O","country_id":213,"country_code":"SE","latitude":"57.65338000","longitude":"12.49791000"},{"id":"103674","name":"R\u00f6nn\u00e4ng","state_id":1547,"state_code":"O","country_id":213,"country_code":"SE","latitude":"57.93333000","longitude":"11.58333000"},{"id":"103679","name":"Sandared","state_id":1547,"state_code":"O","country_id":213,"country_code":"SE","latitude":"57.70992000","longitude":"12.79238000"},{"id":"103809","name":"S\u00e4tila","state_id":1547,"state_code":"O","country_id":213,"country_code":"SE","latitude":"57.54172000","longitude":"12.43429000"},{"id":"103816","name":"S\u00e5landa","state_id":1547,"state_code":"O","country_id":213,"country_code":"SE","latitude":"57.98333000","longitude":"12.21667000"},{"id":"103694","name":"Sj\u00f6marken","state_id":1547,"state_code":"O","country_id":213,"country_code":"SE","latitude":"57.71533000","longitude":"12.83495000"},{"id":"103691","name":"Sjuntorp","state_id":1547,"state_code":"O","country_id":213,"country_code":"SE","latitude":"58.20000000","longitude":"12.21667000"},{"id":"103696","name":"Skara","state_id":1547,"state_code":"O","country_id":213,"country_code":"SE","latitude":"58.38659000","longitude":"13.43836000"},{"id":"103697","name":"Skara Kommun","state_id":1547,"state_code":"O","country_id":213,"country_code":"SE","latitude":"58.37759000","longitude":"13.47548000"},{"id":"103720","name":"Sk\u00e4rhamn","state_id":1547,"state_code":"O","country_id":213,"country_code":"SE","latitude":"57.98665000","longitude":"11.55742000"},{"id":"103724","name":"Sk\u00f6vde","state_id":1547,"state_code":"O","country_id":213,"country_code":"SE","latitude":"58.39118000","longitude":"13.84506000"},{"id":"103725","name":"Sk\u00f6vde Kommun","state_id":1547,"state_code":"O","country_id":213,"country_code":"SE","latitude":"58.43488000","longitude":"13.90358000"},{"id":"103703","name":"Skepplanda","state_id":1547,"state_code":"O","country_id":213,"country_code":"SE","latitude":"57.98333000","longitude":"12.20000000"},{"id":"103712","name":"Skultorp","state_id":1547,"state_code":"O","country_id":213,"country_code":"SE","latitude":"58.35000000","longitude":"13.83333000"},{"id":"103733","name":"Sm\u00f6gen","state_id":1547,"state_code":"O","country_id":213,"country_code":"SE","latitude":"58.35593000","longitude":"11.22411000"},{"id":"103734","name":"Sollebrunn","state_id":1547,"state_code":"O","country_id":213,"country_code":"SE","latitude":"58.11667000","longitude":"12.53333000"},{"id":"103743","name":"Soten\u00e4s Kommun","state_id":1547,"state_code":"O","country_id":213,"country_code":"SE","latitude":"58.42215000","longitude":"11.34296000"},{"id":"103782","name":"St\u00f6pen","state_id":1547,"state_code":"O","country_id":213,"country_code":"SE","latitude":"58.47802000","longitude":"13.86611000"},{"id":"103751","name":"Stenkullen","state_id":1547,"state_code":"O","country_id":213,"country_code":"SE","latitude":"57.79476000","longitude":"12.31688000"},{"id":"103753","name":"Stenstorp","state_id":1547,"state_code":"O","country_id":213,"country_code":"SE","latitude":"58.27254000","longitude":"13.71454000"},{"id":"103754","name":"Stenungsund","state_id":1547,"state_code":"O","country_id":213,"country_code":"SE","latitude":"58.07046000","longitude":"11.81810000"},{"id":"103755","name":"Stenungsunds Kommun","state_id":1547,"state_code":"O","country_id":213,"country_code":"SE","latitude":"58.06248000","longitude":"11.90473000"},{"id":"103761","name":"Stora H\u00f6ga","state_id":1547,"state_code":"O","country_id":213,"country_code":"SE","latitude":"58.01667000","longitude":"11.83333000"},{"id":"103775","name":"Str\u00f6mstad","state_id":1547,"state_code":"O","country_id":213,"country_code":"SE","latitude":"58.93945000","longitude":"11.17120000"},{"id":"103776","name":"Str\u00f6mstads Kommun","state_id":1547,"state_code":"O","country_id":213,"country_code":"SE","latitude":"58.94891000","longitude":"11.25543000"},{"id":"103780","name":"Styrs\u00f6","state_id":1547,"state_code":"O","country_id":213,"country_code":"SE","latitude":"57.61639000","longitude":"11.78556000"},{"id":"103792","name":"Surte","state_id":1547,"state_code":"O","country_id":213,"country_code":"SE","latitude":"57.82533000","longitude":"12.01604000"},{"id":"103796","name":"Svanesund","state_id":1547,"state_code":"O","country_id":213,"country_code":"SE","latitude":"58.14292000","longitude":"11.81821000"},{"id":"103799","name":"Svenljunga","state_id":1547,"state_code":"O","country_id":213,"country_code":"SE","latitude":"57.49551000","longitude":"13.11078000"},{"id":"103800","name":"Svenljunga Kommun","state_id":1547,"state_code":"O","country_id":213,"country_code":"SE","latitude":"57.39249000","longitude":"13.05216000"},{"id":"103837","name":"Tanums Kommun","state_id":1547,"state_code":"O","country_id":213,"country_code":"SE","latitude":"58.71656000","longitude":"11.42571000"},{"id":"103838","name":"Tanumshede","state_id":1547,"state_code":"O","country_id":213,"country_code":"SE","latitude":"58.72385000","longitude":"11.32587000"},{"id":"103892","name":"T\u00f6reboda","state_id":1547,"state_code":"O","country_id":213,"country_code":"SE","latitude":"58.70739000","longitude":"14.12597000"},{"id":"103893","name":"T\u00f6reboda Kommun","state_id":1547,"state_code":"O","country_id":213,"country_code":"SE","latitude":"58.67996000","longitude":"14.16139000"},{"id":"103842","name":"Tibro","state_id":1547,"state_code":"O","country_id":213,"country_code":"SE","latitude":"58.42453000","longitude":"14.16162000"},{"id":"103843","name":"Tibro Kommun","state_id":1547,"state_code":"O","country_id":213,"country_code":"SE","latitude":"58.44920000","longitude":"14.22664000"},{"id":"103844","name":"Tidaholm","state_id":1547,"state_code":"O","country_id":213,"country_code":"SE","latitude":"58.18035000","longitude":"13.95824000"},{"id":"103845","name":"Tidaholms kommun","state_id":1547,"state_code":"O","country_id":213,"country_code":"SE","latitude":"58.14842000","longitude":"13.94336000"},{"id":"103855","name":"Tj\u00f6rns Kommun","state_id":1547,"state_code":"O","country_id":213,"country_code":"SE","latitude":"58.00519000","longitude":"11.63101000"},{"id":"103854","name":"Tjuvkil","state_id":1547,"state_code":"O","country_id":213,"country_code":"SE","latitude":"57.90000000","longitude":"11.73333000"},{"id":"103865","name":"Torslanda","state_id":1547,"state_code":"O","country_id":213,"country_code":"SE","latitude":"57.72432000","longitude":"11.77013000"},{"id":"103869","name":"Tranemo","state_id":1547,"state_code":"O","country_id":213,"country_code":"SE","latitude":"57.48333000","longitude":"13.35000000"},{"id":"103870","name":"Tranemo Kommun","state_id":1547,"state_code":"O","country_id":213,"country_code":"SE","latitude":"57.50000000","longitude":"13.43333000"},{"id":"103876","name":"Trollh\u00e4ttan","state_id":1547,"state_code":"O","country_id":213,"country_code":"SE","latitude":"58.21208000","longitude":"12.35033000"},{"id":"103894","name":"Uddevalla","state_id":1547,"state_code":"O","country_id":213,"country_code":"SE","latitude":"58.34784000","longitude":"11.94240000"},{"id":"103895","name":"Uddevalla Kommun","state_id":1547,"state_code":"O","country_id":213,"country_code":"SE","latitude":"58.34099000","longitude":"11.84744000"},{"id":"103896","name":"Ulricehamn","state_id":1547,"state_code":"O","country_id":213,"country_code":"SE","latitude":"57.79159000","longitude":"13.41422000"},{"id":"103897","name":"Ulricehamns Kommun","state_id":1547,"state_code":"O","country_id":213,"country_code":"SE","latitude":"57.82059000","longitude":"13.46116000"},{"id":"103922","name":"Vara","state_id":1547,"state_code":"O","country_id":213,"country_code":"SE","latitude":"58.26234000","longitude":"12.95413000"},{"id":"103923","name":"Vara Kommun","state_id":1547,"state_code":"O","country_id":213,"country_code":"SE","latitude":"58.24391000","longitude":"13.07285000"},{"id":"103926","name":"Varg\u00f6n","state_id":1547,"state_code":"O","country_id":213,"country_code":"SE","latitude":"58.35599000","longitude":"12.39060000"},{"id":"103962","name":"V\u00e4nersborg","state_id":1547,"state_code":"O","country_id":213,"country_code":"SE","latitude":"58.38075000","longitude":"12.32340000"},{"id":"103963","name":"V\u00e4nersborgs Kommun","state_id":1547,"state_code":"O","country_id":213,"country_code":"SE","latitude":"58.39828000","longitude":"12.27554000"},{"id":"103973","name":"V\u00e4stra Fr\u00f6lunda","state_id":1547,"state_code":"O","country_id":213,"country_code":"SE","latitude":"57.64667000","longitude":"11.92944000"},{"id":"103979","name":"V\u00e5rg\u00e5rda","state_id":1547,"state_code":"O","country_id":213,"country_code":"SE","latitude":"58.03706000","longitude":"12.80907000"},{"id":"103980","name":"V\u00e5rg\u00e5rda Kommun","state_id":1547,"state_code":"O","country_id":213,"country_code":"SE","latitude":"57.98769000","longitude":"12.76888000"},{"id":"103953","name":"Vinninga","state_id":1547,"state_code":"O","country_id":213,"country_code":"SE","latitude":"58.45000000","longitude":"13.26667000"},{"id":"103958","name":"Viskafors","state_id":1547,"state_code":"O","country_id":213,"country_code":"SE","latitude":"57.62941000","longitude":"12.84890000"}]