[{"id":"103007","name":"Arboga","state_id":1549,"state_code":"U","country_id":213,"country_code":"SE","latitude":"59.39387000","longitude":"15.83882000"},{"id":"103008","name":"Arboga Kommun","state_id":1549,"state_code":"U","country_id":213,"country_code":"SE","latitude":"59.39451000","longitude":"15.79261000"},{"id":"103029","name":"Barkar\u00f6","state_id":1549,"state_code":"U","country_id":213,"country_code":"SE","latitude":"59.54935000","longitude":"16.50740000"},{"id":"103119","name":"Dingtuna","state_id":1549,"state_code":"U","country_id":213,"country_code":"SE","latitude":"59.57279000","longitude":"16.38722000"},{"id":"103144","name":"Enhagen-Ekbacken","state_id":1549,"state_code":"U","country_id":213,"country_code":"SE","latitude":"59.56543000","longitude":"16.53045000"},{"id":"103155","name":"Fagersta","state_id":1549,"state_code":"U","country_id":213,"country_code":"SE","latitude":"60.00418000","longitude":"15.79316000"},{"id":"103156","name":"Fagersta Kommun","state_id":1549,"state_code":"U","country_id":213,"country_code":"SE","latitude":"59.94834000","longitude":"15.88332000"},{"id":"103255","name":"Hallstahammar","state_id":1549,"state_code":"U","country_id":213,"country_code":"SE","latitude":"59.61395000","longitude":"16.22846000"},{"id":"103256","name":"Hallstahammars Kommun","state_id":1549,"state_code":"U","country_id":213,"country_code":"SE","latitude":"59.61703000","longitude":"16.22797000"},{"id":"103333","name":"H\u00f6k\u00e5sen","state_id":1549,"state_code":"U","country_id":213,"country_code":"SE","latitude":"59.66667000","longitude":"16.58333000"},{"id":"103349","name":"Irsta","state_id":1549,"state_code":"U","country_id":213,"country_code":"SE","latitude":"59.60000000","longitude":"16.70000000"},{"id":"103442","name":"K\u00f6ping","state_id":1549,"state_code":"U","country_id":213,"country_code":"SE","latitude":"59.51404000","longitude":"15.99255000"},{"id":"103444","name":"K\u00f6pings Kommun","state_id":1549,"state_code":"U","country_id":213,"country_code":"SE","latitude":"59.56639000","longitude":"15.87218000"},{"id":"103407","name":"Kolb\u00e4ck","state_id":1549,"state_code":"U","country_id":213,"country_code":"SE","latitude":"59.56516000","longitude":"16.23037000"},{"id":"103408","name":"Kolsva","state_id":1549,"state_code":"U","country_id":213,"country_code":"SE","latitude":"59.60000000","longitude":"15.83333000"},{"id":"103428","name":"Kungs\u00f6r","state_id":1549,"state_code":"U","country_id":213,"country_code":"SE","latitude":"59.42245000","longitude":"16.09656000"},{"id":"103429","name":"Kungs\u00f6rs kommun","state_id":1549,"state_code":"U","country_id":213,"country_code":"SE","latitude":"59.40247000","longitude":"16.07748000"},{"id":"103579","name":"Norberg","state_id":1549,"state_code":"U","country_id":213,"country_code":"SE","latitude":"60.06505000","longitude":"15.92366000"},{"id":"103580","name":"Norbergs Kommun","state_id":1549,"state_code":"U","country_id":213,"country_code":"SE","latitude":"60.08997000","longitude":"15.95971000"},{"id":"103642","name":"Ramn\u00e4s","state_id":1549,"state_code":"U","country_id":213,"country_code":"SE","latitude":"59.76667000","longitude":"16.20000000"},{"id":"103675","name":"Sala","state_id":1549,"state_code":"U","country_id":213,"country_code":"SE","latitude":"59.91993000","longitude":"16.60655000"},{"id":"103676","name":"Sala kommun","state_id":1549,"state_code":"U","country_id":213,"country_code":"SE","latitude":"59.97221000","longitude":"16.47374000"},{"id":"103705","name":"Skinnskatteberg","state_id":1549,"state_code":"U","country_id":213,"country_code":"SE","latitude":"59.83028000","longitude":"15.69337000"},{"id":"103706","name":"Skinnskattebergs Kommun","state_id":1549,"state_code":"U","country_id":213,"country_code":"SE","latitude":"59.79715000","longitude":"15.71463000"},{"id":"103713","name":"Skultuna","state_id":1549,"state_code":"U","country_id":213,"country_code":"SE","latitude":"59.71667000","longitude":"16.41667000"},{"id":"103790","name":"Surahammar","state_id":1549,"state_code":"U","country_id":213,"country_code":"SE","latitude":"59.70725000","longitude":"16.22188000"},{"id":"103791","name":"Surahammars Kommun","state_id":1549,"state_code":"U","country_id":213,"country_code":"SE","latitude":"59.77487000","longitude":"16.11885000"},{"id":"103848","name":"Tillberga","state_id":1549,"state_code":"U","country_id":213,"country_code":"SE","latitude":"59.68333000","longitude":"16.61667000"},{"id":"103972","name":"V\u00e4ster\u00e5s","state_id":1549,"state_code":"U","country_id":213,"country_code":"SE","latitude":"59.64914000","longitude":"16.56445000"}]