[{"id":"102990","name":"Alfta","state_id":1533,"state_code":"X","country_id":213,"country_code":"SE","latitude":"61.34675000","longitude":"16.07499000"},{"id":"103009","name":"Arbr\u00e5","state_id":1533,"state_code":"X","country_id":213,"country_code":"SE","latitude":"61.46667000","longitude":"16.38333000"},{"id":"104014","name":"\u00c5rsunda","state_id":1533,"state_code":"X","country_id":213,"country_code":"SE","latitude":"60.51644000","longitude":"16.73436000"},{"id":"103033","name":"Bergby","state_id":1533,"state_code":"X","country_id":213,"country_code":"SE","latitude":"60.92931000","longitude":"17.04194000"},{"id":"103038","name":"Bergsj\u00f6","state_id":1533,"state_code":"X","country_id":213,"country_code":"SE","latitude":"61.98253000","longitude":"17.06368000"},{"id":"103067","name":"Bolln\u00e4s","state_id":1533,"state_code":"X","country_id":213,"country_code":"SE","latitude":"61.34817000","longitude":"16.39464000"},{"id":"103068","name":"Bolln\u00e4s Kommun","state_id":1533,"state_code":"X","country_id":213,"country_code":"SE","latitude":"61.31418000","longitude":"16.41725000"},{"id":"103118","name":"Delsbo","state_id":1533,"state_code":"X","country_id":213,"country_code":"SE","latitude":"61.80104000","longitude":"16.55571000"},{"id":"103129","name":"Edsbyn","state_id":1533,"state_code":"X","country_id":213,"country_code":"SE","latitude":"61.37692000","longitude":"15.81747000"},{"id":"103193","name":"F\u00e4rila","state_id":1533,"state_code":"X","country_id":213,"country_code":"SE","latitude":"61.80011000","longitude":"15.84422000"},{"id":"103177","name":"Forsbacka","state_id":1533,"state_code":"X","country_id":213,"country_code":"SE","latitude":"60.61667000","longitude":"16.88333000"},{"id":"103240","name":"G\u00e4vle","state_id":1533,"state_code":"X","country_id":213,"country_code":"SE","latitude":"60.67452000","longitude":"17.14174000"},{"id":"103241","name":"G\u00e4vle Kommun","state_id":1533,"state_code":"X","country_id":213,"country_code":"SE","latitude":"60.64260000","longitude":"17.12066000"},{"id":"103214","name":"Gnarp","state_id":1533,"state_code":"X","country_id":213,"country_code":"SE","latitude":"62.04874000","longitude":"17.25858000"},{"id":"103276","name":"Hedesunda","state_id":1533,"state_code":"X","country_id":213,"country_code":"SE","latitude":"60.40000000","longitude":"17.00000000"},{"id":"103293","name":"Hofors","state_id":1533,"state_code":"X","country_id":213,"country_code":"SE","latitude":"60.54573000","longitude":"16.28668000"},{"id":"103294","name":"Hofors Kommun","state_id":1533,"state_code":"X","country_id":213,"country_code":"SE","latitude":"60.49619000","longitude":"16.41088000"},{"id":"103305","name":"Hudiksvall","state_id":1533,"state_code":"X","country_id":213,"country_code":"SE","latitude":"61.72744000","longitude":"17.10558000"},{"id":"103306","name":"Hudiksvalls Kommun","state_id":1533,"state_code":"X","country_id":213,"country_code":"SE","latitude":"61.76615000","longitude":"16.77055000"},{"id":"103344","name":"Iggesund","state_id":1533,"state_code":"X","country_id":213,"country_code":"SE","latitude":"61.64219000","longitude":"17.07477000"},{"id":"103361","name":"J\u00e4rbo","state_id":1533,"state_code":"X","country_id":213,"country_code":"SE","latitude":"60.71667000","longitude":"16.60000000"},{"id":"103365","name":"J\u00e4rvs\u00f6","state_id":1533,"state_code":"X","country_id":213,"country_code":"SE","latitude":"61.71667000","longitude":"16.16667000"},{"id":"103389","name":"Kilafors","state_id":1533,"state_code":"X","country_id":213,"country_code":"SE","latitude":"61.23333000","longitude":"16.56667000"},{"id":"103485","name":"Ljusdal","state_id":1533,"state_code":"X","country_id":213,"country_code":"SE","latitude":"61.82883000","longitude":"16.09126000"},{"id":"103486","name":"Ljusdals Kommun","state_id":1533,"state_code":"X","country_id":213,"country_code":"SE","latitude":"61.85527000","longitude":"15.50695000"},{"id":"103488","name":"Ljusne","state_id":1533,"state_code":"X","country_id":213,"country_code":"SE","latitude":"61.21170000","longitude":"17.12790000"},{"id":"103581","name":"Nordanstigs kommun","state_id":1533,"state_code":"X","country_id":213,"country_code":"SE","latitude":"62.05261000","longitude":"16.91378000"},{"id":"103607","name":"Ockelbo","state_id":1533,"state_code":"X","country_id":213,"country_code":"SE","latitude":"60.89120000","longitude":"16.71846000"},{"id":"103608","name":"Ockelbo Kommun","state_id":1533,"state_code":"X","country_id":213,"country_code":"SE","latitude":"60.94179000","longitude":"16.57003000"},{"id":"103626","name":"Ovan\u00e5kers Kommun","state_id":1533,"state_code":"X","country_id":213,"country_code":"SE","latitude":"61.33328000","longitude":"15.78067000"},{"id":"103680","name":"Sandarne","state_id":1533,"state_code":"X","country_id":213,"country_code":"SE","latitude":"61.25893000","longitude":"17.15284000"},{"id":"103681","name":"Sandviken","state_id":1533,"state_code":"X","country_id":213,"country_code":"SE","latitude":"60.61667000","longitude":"16.76667000"},{"id":"103682","name":"Sandvikens Kommun","state_id":1533,"state_code":"X","country_id":213,"country_code":"SE","latitude":"60.55029000","longitude":"16.68461000"},{"id":"103819","name":"S\u00f6derhamn","state_id":1533,"state_code":"X","country_id":213,"country_code":"SE","latitude":"61.30373000","longitude":"17.05921000"},{"id":"103820","name":"S\u00f6derhamns Kommun","state_id":1533,"state_code":"X","country_id":213,"country_code":"SE","latitude":"61.25371000","longitude":"16.94879000"},{"id":"103832","name":"S\u00f6rforsa","state_id":1533,"state_code":"X","country_id":213,"country_code":"SE","latitude":"61.73333000","longitude":"16.98333000"},{"id":"103768","name":"Storvik","state_id":1533,"state_code":"X","country_id":213,"country_code":"SE","latitude":"60.58333000","longitude":"16.53333000"},{"id":"103912","name":"Valbo","state_id":1533,"state_code":"X","country_id":213,"country_code":"SE","latitude":"60.65000000","longitude":"17.03333000"},{"id":"102985","name":"Abborrberget","state_id":1534,"state_code":"W","country_id":213,"country_code":"SE","latitude":"60.15000000","longitude":"14.80000000"},{"id":"103022","name":"Avesta","state_id":1534,"state_code":"W","country_id":213,"country_code":"SE","latitude":"60.14274000","longitude":"16.16295000"},{"id":"103023","name":"Avesta Kommun","state_id":1534,"state_code":"W","country_id":213,"country_code":"SE","latitude":"60.21251000","longitude":"16.36234000"},{"id":"103989","name":"\u00c4lvdalen","state_id":1534,"state_code":"W","country_id":213,"country_code":"SE","latitude":"61.22774000","longitude":"14.03935000"},{"id":"103990","name":"\u00c4lvdalens kommun","state_id":1534,"state_code":"W","country_id":213,"country_code":"SE","latitude":"61.61337000","longitude":"13.27257000"},{"id":"103046","name":"Bjurs\u00e5s","state_id":1534,"state_code":"W","country_id":213,"country_code":"SE","latitude":"60.73726000","longitude":"15.45291000"},{"id":"103075","name":"Borl\u00e4nge","state_id":1534,"state_code":"W","country_id":213,"country_code":"SE","latitude":"60.48580000","longitude":"15.43714000"},{"id":"103076","name":"Borl\u00e4nge Kommun","state_id":1534,"state_code":"W","country_id":213,"country_code":"SE","latitude":"60.45799000","longitude":"15.39873000"},{"id":"103093","name":"Brunna","state_id":1534,"state_code":"W","country_id":213,"country_code":"SE","latitude":"60.26255000","longitude":"16.01034000"},{"id":"103122","name":"Djur\u00e5s","state_id":1534,"state_code":"W","country_id":213,"country_code":"SE","latitude":"60.56061000","longitude":"15.13281000"},{"id":"103142","name":"Enbacka","state_id":1534,"state_code":"W","country_id":213,"country_code":"SE","latitude":"60.40993000","longitude":"15.59575000"},{"id":"103161","name":"Falu kommun","state_id":1534,"state_code":"W","country_id":213,"country_code":"SE","latitude":"60.60483000","longitude":"15.63492000"},{"id":"103162","name":"Falun","state_id":1534,"state_code":"W","country_id":213,"country_code":"SE","latitude":"60.60357000","longitude":"15.62597000"},{"id":"103197","name":"Gagnef","state_id":1534,"state_code":"W","country_id":213,"country_code":"SE","latitude":"60.59856000","longitude":"15.07745000"},{"id":"103198","name":"Gagnefs Kommun","state_id":1534,"state_code":"W","country_id":213,"country_code":"SE","latitude":"60.47391000","longitude":"14.94676000"},{"id":"103226","name":"Gr\u00e4ngesberg","state_id":1534,"state_code":"W","country_id":213,"country_code":"SE","latitude":"60.07465000","longitude":"15.00784000"},{"id":"103225","name":"Grycksbo","state_id":1534,"state_code":"W","country_id":213,"country_code":"SE","latitude":"60.68751000","longitude":"15.48507000"},{"id":"103274","name":"Hedemora","state_id":1534,"state_code":"W","country_id":213,"country_code":"SE","latitude":"60.27973000","longitude":"15.98855000"},{"id":"103275","name":"Hedemora Kommun","state_id":1534,"state_code":"W","country_id":213,"country_code":"SE","latitude":"60.34659000","longitude":"16.07350000"},{"id":"103297","name":"Horndal","state_id":1534,"state_code":"W","country_id":213,"country_code":"SE","latitude":"60.30000000","longitude":"16.41667000"},{"id":"103347","name":"Insj\u00f6n","state_id":1534,"state_code":"W","country_id":213,"country_code":"SE","latitude":"60.67688000","longitude":"15.09487000"},{"id":"103364","name":"J\u00e4rna","state_id":1534,"state_code":"W","country_id":213,"country_code":"SE","latitude":"60.53333000","longitude":"14.36667000"},{"id":"103419","name":"Krylbo","state_id":1534,"state_code":"W","country_id":213,"country_code":"SE","latitude":"60.13333000","longitude":"16.21667000"},{"id":"103504","name":"L\u00e5ngshyttan","state_id":1534,"state_code":"W","country_id":213,"country_code":"SE","latitude":"60.45238000","longitude":"16.03831000"},{"id":"103456","name":"Leksand","state_id":1534,"state_code":"W","country_id":213,"country_code":"SE","latitude":"60.73030000","longitude":"14.99994000"},{"id":"103457","name":"Leksands kommun","state_id":1534,"state_code":"W","country_id":213,"country_code":"SE","latitude":"60.73227000","longitude":"14.99805000"},{"id":"103491","name":"Ludvika","state_id":1534,"state_code":"W","country_id":213,"country_code":"SE","latitude":"60.14959000","longitude":"15.18776000"},{"id":"103492","name":"Ludvika Kommun","state_id":1534,"state_code":"W","country_id":213,"country_code":"SE","latitude":"60.17114000","longitude":"14.72635000"},{"id":"103518","name":"Malung","state_id":1534,"state_code":"W","country_id":213,"country_code":"SE","latitude":"60.68329000","longitude":"13.71542000"},{"id":"103519","name":"Malung-S\u00e4lens kommun","state_id":1534,"state_code":"W","country_id":213,"country_code":"SE","latitude":"60.56667000","longitude":"13.66667000"},{"id":"103542","name":"Mockfj\u00e4rd","state_id":1534,"state_code":"W","country_id":213,"country_code":"SE","latitude":"60.50000000","longitude":"14.96667000"},{"id":"103545","name":"Mora","state_id":1534,"state_code":"W","country_id":213,"country_code":"SE","latitude":"61.00704000","longitude":"14.54316000"},{"id":"103546","name":"Mora Kommun","state_id":1534,"state_code":"W","country_id":213,"country_code":"SE","latitude":"61.00656000","longitude":"14.53755000"},{"id":"103595","name":"Nyhammar","state_id":1534,"state_code":"W","country_id":213,"country_code":"SE","latitude":"60.28333000","longitude":"14.96667000"},{"id":"103617","name":"Orn\u00e4s","state_id":1534,"state_code":"W","country_id":213,"country_code":"SE","latitude":"60.50944000","longitude":"15.54128000"},{"id":"103618","name":"Orsa","state_id":1534,"state_code":"W","country_id":213,"country_code":"SE","latitude":"61.12034000","longitude":"14.61550000"},{"id":"103619","name":"Orsa Kommun","state_id":1534,"state_code":"W","country_id":213,"country_code":"SE","latitude":"61.30000000","longitude":"14.75000000"},{"id":"103665","name":"R\u00e4ttvik","state_id":1534,"state_code":"W","country_id":213,"country_code":"SE","latitude":"60.88632000","longitude":"15.11787000"},{"id":"103666","name":"R\u00e4ttviks Kommun","state_id":1534,"state_code":"W","country_id":213,"country_code":"SE","latitude":"60.88632000","longitude":"15.11787000"},{"id":"103654","name":"Romme","state_id":1534,"state_code":"W","country_id":213,"country_code":"SE","latitude":"60.43333000","longitude":"15.50000000"},{"id":"103807","name":"S\u00e4ter","state_id":1534,"state_code":"W","country_id":213,"country_code":"SE","latitude":"60.34778000","longitude":"15.75051000"},{"id":"103808","name":"S\u00e4ters Kommun","state_id":1534,"state_code":"W","country_id":213,"country_code":"SE","latitude":"60.36887000","longitude":"15.71383000"},{"id":"103688","name":"Siljansn\u00e4s","state_id":1534,"state_code":"W","country_id":213,"country_code":"SE","latitude":"60.78333000","longitude":"14.85000000"},{"id":"103728","name":"Smedby","state_id":1534,"state_code":"W","country_id":213,"country_code":"SE","latitude":"60.70000000","longitude":"15.05000000"},{"id":"103729","name":"Smedjebacken","state_id":1534,"state_code":"W","country_id":213,"country_code":"SE","latitude":"60.14181000","longitude":"15.41416000"},{"id":"103730","name":"Smedjebackens Kommun","state_id":1534,"state_code":"W","country_id":213,"country_code":"SE","latitude":"60.09475000","longitude":"15.45204000"},{"id":"103802","name":"Sv\u00e4rdsj\u00f6","state_id":1534,"state_code":"W","country_id":213,"country_code":"SE","latitude":"60.74022000","longitude":"15.90173000"},{"id":"103920","name":"Vansbro","state_id":1534,"state_code":"W","country_id":213,"country_code":"SE","latitude":"60.50893000","longitude":"14.22458000"},{"id":"103921","name":"Vansbro Kommun","state_id":1534,"state_code":"W","country_id":213,"country_code":"SE","latitude":"60.46117000","longitude":"14.27836000"},{"id":"103941","name":"Vikarbyn","state_id":1534,"state_code":"W","country_id":213,"country_code":"SE","latitude":"60.91667000","longitude":"15.01667000"},{"id":"103017","name":"Arvika","state_id":1535,"state_code":"S","country_id":213,"country_code":"SE","latitude":"59.65528000","longitude":"12.58518000"},{"id":"103018","name":"Arvika Kommun","state_id":1535,"state_code":"S","country_id":213,"country_code":"SE","latitude":"59.70484000","longitude":"12.63202000"},{"id":"104006","name":"\u00c5motfors","state_id":1535,"state_code":"S","country_id":213,"country_code":"SE","latitude":"59.76191000","longitude":"12.36211000"},{"id":"104011","name":"\u00c5rj\u00e4ng","state_id":1535,"state_code":"S","country_id":213,"country_code":"SE","latitude":"59.39217000","longitude":"12.13336000"},{"id":"104012","name":"\u00c5rj\u00e4ngs Kommun","state_id":1535,"state_code":"S","country_id":213,"country_code":"SE","latitude":"59.43589000","longitude":"12.10366000"},{"id":"103057","name":"Bj\u00f6rneborg","state_id":1535,"state_code":"S","country_id":213,"country_code":"SE","latitude":"59.24122000","longitude":"14.24942000"},{"id":"103107","name":"Charlottenberg","state_id":1535,"state_code":"S","country_id":213,"country_code":"SE","latitude":"59.88422000","longitude":"12.30398000"},{"id":"103117","name":"Deje","state_id":1535,"state_code":"S","country_id":213,"country_code":"SE","latitude":"59.60300000","longitude":"13.47200000"},{"id":"103128","name":"Eda kommun","state_id":1535,"state_code":"S","country_id":213,"country_code":"SE","latitude":"59.80000000","longitude":"12.21667000"},{"id":"103135","name":"Eksh\u00e4rad","state_id":1535,"state_code":"S","country_id":213,"country_code":"SE","latitude":"60.17275000","longitude":"13.49647000"},{"id":"103164","name":"Filipstad","state_id":1535,"state_code":"S","country_id":213,"country_code":"SE","latitude":"59.71236000","longitude":"14.16831000"},{"id":"103165","name":"Filipstads Kommun","state_id":1535,"state_code":"S","country_id":213,"country_code":"SE","latitude":"59.87354000","longitude":"14.14706000"},{"id":"103179","name":"Forshaga","state_id":1535,"state_code":"S","country_id":213,"country_code":"SE","latitude":"59.52541000","longitude":"13.48127000"},{"id":"103180","name":"Forshaga Kommun","state_id":1535,"state_code":"S","country_id":213,"country_code":"SE","latitude":"59.64596000","longitude":"13.50572000"},{"id":"103223","name":"Grums","state_id":1535,"state_code":"S","country_id":213,"country_code":"SE","latitude":"59.35141000","longitude":"13.11105000"},{"id":"103224","name":"Grums Kommun","state_id":1535,"state_code":"S","country_id":213,"country_code":"SE","latitude":"59.40406000","longitude":"13.02192000"},{"id":"103251","name":"Hagfors","state_id":1535,"state_code":"S","country_id":213,"country_code":"SE","latitude":"60.02378000","longitude":"13.67214000"},{"id":"103252","name":"Hagfors Kommun","state_id":1535,"state_code":"S","country_id":213,"country_code":"SE","latitude":"60.08997000","longitude":"13.60757000"},{"id":"103262","name":"Hammar\u00f6 Kommun","state_id":1535,"state_code":"S","country_id":213,"country_code":"SE","latitude":"59.30699000","longitude":"13.54869000"},{"id":"103383","name":"Karlstad","state_id":1535,"state_code":"S","country_id":213,"country_code":"SE","latitude":"59.37930000","longitude":"13.50357000"},{"id":"103384","name":"Karlstads Kommun","state_id":1535,"state_code":"S","country_id":213,"country_code":"SE","latitude":"59.47409000","longitude":"13.59961000"},{"id":"103388","name":"Kil","state_id":1535,"state_code":"S","country_id":213,"country_code":"SE","latitude":"59.50234000","longitude":"13.31277000"},{"id":"103390","name":"Kils Kommun","state_id":1535,"state_code":"S","country_id":213,"country_code":"SE","latitude":"59.50406000","longitude":"13.31740000"},{"id":"103416","name":"Kristinehamn","state_id":1535,"state_code":"S","country_id":213,"country_code":"SE","latitude":"59.30978000","longitude":"14.10808000"},{"id":"103417","name":"Kristinehamns Kommun","state_id":1535,"state_code":"S","country_id":213,"country_code":"SE","latitude":"59.25288000","longitude":"14.13593000"},{"id":"103544","name":"Molkom","state_id":1535,"state_code":"S","country_id":213,"country_code":"SE","latitude":"59.60057000","longitude":"13.72115000"},{"id":"103555","name":"Munkfors","state_id":1535,"state_code":"S","country_id":213,"country_code":"SE","latitude":"59.83856000","longitude":"13.54361000"},{"id":"103556","name":"Munkfors Kommun","state_id":1535,"state_code":"S","country_id":213,"country_code":"SE","latitude":"59.81625000","longitude":"13.49458000"},{"id":"103670","name":"R\u00e5torp","state_id":1535,"state_code":"S","country_id":213,"country_code":"SE","latitude":"59.40197000","longitude":"13.49144000"},{"id":"103804","name":"S\u00e4ffle","state_id":1535,"state_code":"S","country_id":213,"country_code":"SE","latitude":"59.13229000","longitude":"12.92888000"},{"id":"103805","name":"S\u00e4ffle Kommun","state_id":1535,"state_code":"S","country_id":213,"country_code":"SE","latitude":"59.19559000","longitude":"12.86437000"},{"id":"103698","name":"Skattk\u00e4rr","state_id":1535,"state_code":"S","country_id":213,"country_code":"SE","latitude":"59.41208000","longitude":"13.67078000"},{"id":"103722","name":"Sk\u00e5re","state_id":1535,"state_code":"S","country_id":213,"country_code":"SE","latitude":"59.43333000","longitude":"13.43333000"},{"id":"103708","name":"Skoghall","state_id":1535,"state_code":"S","country_id":213,"country_code":"SE","latitude":"59.32324000","longitude":"13.46552000"},{"id":"103726","name":"Slottsbron","state_id":1535,"state_code":"S","country_id":213,"country_code":"SE","latitude":"59.32270000","longitude":"13.10268000"},{"id":"103763","name":"Storfors","state_id":1535,"state_code":"S","country_id":213,"country_code":"SE","latitude":"59.53183000","longitude":"14.27201000"},{"id":"103764","name":"Storfors Kommun","state_id":1535,"state_code":"S","country_id":213,"country_code":"SE","latitude":"59.49478000","longitude":"14.24733000"},{"id":"103788","name":"Sunne","state_id":1535,"state_code":"S","country_id":213,"country_code":"SE","latitude":"59.83764000","longitude":"13.14302000"},{"id":"103789","name":"Sunne Kommun","state_id":1535,"state_code":"S","country_id":213,"country_code":"SE","latitude":"59.90378000","longitude":"13.04420000"},{"id":"103890","name":"T\u00f6cksfors","state_id":1535,"state_code":"S","country_id":213,"country_code":"SE","latitude":"59.50816000","longitude":"11.84431000"},{"id":"103862","name":"Torsby","state_id":1535,"state_code":"S","country_id":213,"country_code":"SE","latitude":"60.13527000","longitude":"13.00820000"},{"id":"103863","name":"Torsby Kommun","state_id":1535,"state_code":"S","country_id":213,"country_code":"SE","latitude":"60.56939000","longitude":"12.93837000"},{"id":"103977","name":"V\u00e5lberg","state_id":1535,"state_code":"S","country_id":213,"country_code":"SE","latitude":"59.39145000","longitude":"13.18633000"},{"id":"104027","name":"\u00d6desh\u00f6g","state_id":1536,"state_code":"E","country_id":213,"country_code":"SE","latitude":"58.22949000","longitude":"14.65294000"},{"id":"104028","name":"\u00d6desh\u00f6gs Kommun","state_id":1536,"state_code":"E","country_id":213,"country_code":"SE","latitude":"58.22640000","longitude":"14.74067000"},{"id":"104044","name":"\u00d6sterbymo","state_id":1536,"state_code":"E","country_id":213,"country_code":"SE","latitude":"57.82465000","longitude":"15.27357000"},{"id":"103999","name":"\u00c5by","state_id":1536,"state_code":"E","country_id":213,"country_code":"SE","latitude":"58.66667000","longitude":"16.18333000"},{"id":"104023","name":"\u00c5tvidaberg","state_id":1536,"state_code":"E","country_id":213,"country_code":"SE","latitude":"58.20152000","longitude":"15.99770000"},{"id":"104024","name":"\u00c5tvidabergs Kommun","state_id":1536,"state_code":"E","country_id":213,"country_code":"SE","latitude":"58.22799000","longitude":"16.12522000"},{"id":"103032","name":"Berg","state_id":1536,"state_code":"E","country_id":213,"country_code":"SE","latitude":"58.48831000","longitude":"15.52969000"},{"id":"103072","name":"Borensberg","state_id":1536,"state_code":"E","country_id":213,"country_code":"SE","latitude":"58.56667000","longitude":"15.28333000"},{"id":"103079","name":"Boxholm","state_id":1536,"state_code":"E","country_id":213,"country_code":"SE","latitude":"58.19719000","longitude":"15.05376000"},{"id":"103080","name":"Boxholms Kommun","state_id":1536,"state_code":"E","country_id":213,"country_code":"SE","latitude":"58.14842000","longitude":"15.10988000"},{"id":"103138","name":"Ek\u00e4ngen","state_id":1536,"state_code":"E","country_id":213,"country_code":"SE","latitude":"58.46667000","longitude":"15.63333000"},{"id":"103166","name":"Finsp\u00e5ng","state_id":1536,"state_code":"E","country_id":213,"country_code":"SE","latitude":"58.70578000","longitude":"15.76739000"},{"id":"103167","name":"Finsp\u00e5ngs Kommun","state_id":1536,"state_code":"E","country_id":213,"country_code":"SE","latitude":"58.80568000","longitude":"15.78783000"},{"id":"103221","name":"Grebo","state_id":1536,"state_code":"E","country_id":213,"country_code":"SE","latitude":"58.30145000","longitude":"15.87085000"},{"id":"103236","name":"Gusum","state_id":1536,"state_code":"E","country_id":213,"country_code":"SE","latitude":"58.26880000","longitude":"16.49894000"},{"id":"103281","name":"Herrestad","state_id":1536,"state_code":"E","country_id":213,"country_code":"SE","latitude":"58.38333000","longitude":"14.80000000"},{"id":"103358","name":"Jursla","state_id":1536,"state_code":"E","country_id":213,"country_code":"SE","latitude":"58.66667000","longitude":"16.18333000"},{"id":"103391","name":"Kimstad","state_id":1536,"state_code":"E","country_id":213,"country_code":"SE","latitude":"58.54967000","longitude":"15.96296000"},{"id":"103392","name":"Kinda Kommun","state_id":1536,"state_code":"E","country_id":213,"country_code":"SE","latitude":"58.01315000","longitude":"15.73373000"},{"id":"103396","name":"Kisa","state_id":1536,"state_code":"E","country_id":213,"country_code":"SE","latitude":"57.98781000","longitude":"15.63303000"},{"id":"103418","name":"Krokek","state_id":1536,"state_code":"E","country_id":213,"country_code":"SE","latitude":"58.67231000","longitude":"16.36741000"},{"id":"103474","name":"Lind\u00f6","state_id":1536,"state_code":"E","country_id":213,"country_code":"SE","latitude":"58.61667000","longitude":"16.25000000"},{"id":"103475","name":"Linghem","state_id":1536,"state_code":"E","country_id":213,"country_code":"SE","latitude":"58.43333000","longitude":"15.78333000"},{"id":"103476","name":"Link\u00f6ping","state_id":1536,"state_code":"E","country_id":213,"country_code":"SE","latitude":"58.41086000","longitude":"15.62157000"},{"id":"103477","name":"Link\u00f6pings Kommun","state_id":1536,"state_code":"E","country_id":213,"country_code":"SE","latitude":"58.41046000","longitude":"15.61870000"},{"id":"103483","name":"Ljungsbro","state_id":1536,"state_code":"E","country_id":213,"country_code":"SE","latitude":"58.51667000","longitude":"15.50000000"},{"id":"103516","name":"Malmsl\u00e4tt","state_id":1536,"state_code":"E","country_id":213,"country_code":"SE","latitude":"58.41102000","longitude":"15.51647000"},{"id":"103522","name":"Mantorp","state_id":1536,"state_code":"E","country_id":213,"country_code":"SE","latitude":"58.35000000","longitude":"15.28333000"},{"id":"103540","name":"Mj\u00f6lby","state_id":1536,"state_code":"E","country_id":213,"country_code":"SE","latitude":"58.32595000","longitude":"15.12365000"},{"id":"103541","name":"Mj\u00f6lby Kommun","state_id":1536,"state_code":"E","country_id":213,"country_code":"SE","latitude":"58.34576000","longitude":"15.13853000"},{"id":"103548","name":"Motala","state_id":1536,"state_code":"E","country_id":213,"country_code":"SE","latitude":"58.53706000","longitude":"15.03649000"},{"id":"103549","name":"Motala Kommun","state_id":1536,"state_code":"E","country_id":213,"country_code":"SE","latitude":"58.65131000","longitude":"15.19105000"},{"id":"103586","name":"Norrk\u00f6ping","state_id":1536,"state_code":"E","country_id":213,"country_code":"SE","latitude":"58.59419000","longitude":"16.18260000"},{"id":"103587","name":"Norrk\u00f6pings Kommun","state_id":1536,"state_code":"E","country_id":213,"country_code":"SE","latitude":"58.61139000","longitude":"16.32092000"},{"id":"103647","name":"Rimforsa","state_id":1536,"state_code":"E","country_id":213,"country_code":"SE","latitude":"58.13624000","longitude":"15.68650000"},{"id":"103661","name":"Ryd","state_id":1536,"state_code":"E","country_id":213,"country_code":"SE","latitude":"58.66667000","longitude":"15.08333000"},{"id":"103821","name":"S\u00f6derk\u00f6ping","state_id":1536,"state_code":"E","country_id":213,"country_code":"SE","latitude":"58.48057000","longitude":"16.32221000"},{"id":"103822","name":"S\u00f6derk\u00f6pings Kommun","state_id":1536,"state_code":"E","country_id":213,"country_code":"SE","latitude":"58.42056000","longitude":"16.44510000"},{"id":"103718","name":"Sk\u00e4nninge","state_id":1536,"state_code":"E","country_id":213,"country_code":"SE","latitude":"58.39427000","longitude":"15.08659000"},{"id":"103719","name":"Sk\u00e4rblacka","state_id":1536,"state_code":"E","country_id":213,"country_code":"SE","latitude":"58.56667000","longitude":"15.90000000"},{"id":"103752","name":"Stenstorp","state_id":1536,"state_code":"E","country_id":213,"country_code":"SE","latitude":"58.48333000","longitude":"15.06667000"},{"id":"103778","name":"Sturefors","state_id":1536,"state_code":"E","country_id":213,"country_code":"SE","latitude":"58.33333000","longitude":"15.73333000"},{"id":"103803","name":"Sv\u00e4rtinge","state_id":1536,"state_code":"E","country_id":213,"country_code":"SE","latitude":"58.65507000","longitude":"16.02823000"},{"id":"103836","name":"Tallboda","state_id":1536,"state_code":"E","country_id":213,"country_code":"SE","latitude":"58.42521000","longitude":"15.68154000"},{"id":"103907","name":"Vadstena","state_id":1536,"state_code":"E","country_id":213,"country_code":"SE","latitude":"58.44863000","longitude":"14.88969000"},{"id":"103908","name":"Vadstena Kommun","state_id":1536,"state_code":"E","country_id":213,"country_code":"SE","latitude":"58.40783000","longitude":"14.86162000"},{"id":"103913","name":"Valdemarsvik","state_id":1536,"state_code":"E","country_id":213,"country_code":"SE","latitude":"58.20310000","longitude":"16.60225000"},{"id":"103914","name":"Valdemarsviks Kommun","state_id":1536,"state_code":"E","country_id":213,"country_code":"SE","latitude":"58.20000000","longitude":"16.60000000"},{"id":"103944","name":"Vikingstad","state_id":1536,"state_code":"E","country_id":213,"country_code":"SE","latitude":"58.38304000","longitude":"15.43201000"},{"id":"103982","name":"Ydre Kommun","state_id":1536,"state_code":"E","country_id":213,"country_code":"SE","latitude":"57.86355000","longitude":"15.26266000"},{"id":"103094","name":"Br\u00e4kne-Hoby","state_id":1537,"state_code":"K","country_id":213,"country_code":"SE","latitude":"56.23333000","longitude":"15.11667000"},{"id":"103270","name":"Hassl\u00f6","state_id":1537,"state_code":"K","country_id":213,"country_code":"SE","latitude":"56.11667000","longitude":"15.48333000"},{"id":"103321","name":"H\u00e4llevik","state_id":1537,"state_code":"K","country_id":213,"country_code":"SE","latitude":"56.01667000","longitude":"14.70000000"},{"id":"103359","name":"J\u00e4mj\u00f6","state_id":1537,"state_code":"K","country_id":213,"country_code":"SE","latitude":"56.19187000","longitude":"15.84115000"},{"id":"103360","name":"J\u00e4msh\u00f6g","state_id":1537,"state_code":"K","country_id":213,"country_code":"SE","latitude":"56.23333000","longitude":"14.51667000"},{"id":"103371","name":"Kallinge","state_id":1537,"state_code":"K","country_id":213,"country_code":"SE","latitude":"56.24841000","longitude":"15.28721000"},{"id":"103377","name":"Karlshamn","state_id":1537,"state_code":"K","country_id":213,"country_code":"SE","latitude":"56.17060000","longitude":"14.86188000"},{"id":"103378","name":"Karlshamns kommun","state_id":1537,"state_code":"K","country_id":213,"country_code":"SE","latitude":"56.25000000","longitude":"14.86667000"},{"id":"103381","name":"Karlskrona","state_id":1537,"state_code":"K","country_id":213,"country_code":"SE","latitude":"56.16156000","longitude":"15.58661000"},{"id":"103382","name":"Karlskrona Kommun","state_id":1537,"state_code":"K","country_id":213,"country_code":"SE","latitude":"56.28167000","longitude":"15.66848000"},{"id":"103570","name":"M\u00f6rrum","state_id":1537,"state_code":"K","country_id":213,"country_code":"SE","latitude":"56.19281000","longitude":"14.74739000"},{"id":"103539","name":"Mj\u00e4llby","state_id":1537,"state_code":"K","country_id":213,"country_code":"SE","latitude":"56.05000000","longitude":"14.68333000"},{"id":"103605","name":"N\u00e4ttraby","state_id":1537,"state_code":"K","country_id":213,"country_code":"SE","latitude":"56.20000000","longitude":"15.51667000"},{"id":"103612","name":"Olofstr\u00f6m","state_id":1537,"state_code":"K","country_id":213,"country_code":"SE","latitude":"56.27730000","longitude":"14.53402000"},{"id":"103613","name":"Olofstr\u00f6ms Kommun","state_id":1537,"state_code":"K","country_id":213,"country_code":"SE","latitude":"56.32305000","longitude":"14.56561000"},{"id":"103672","name":"R\u00f6deby","state_id":1537,"state_code":"K","country_id":213,"country_code":"SE","latitude":"56.26078000","longitude":"15.62143000"},{"id":"103655","name":"Ronneby","state_id":1537,"state_code":"K","country_id":213,"country_code":"SE","latitude":"56.20999000","longitude":"15.27602000"},{"id":"103656","name":"Ronneby Kommun","state_id":1537,"state_code":"K","country_id":213,"country_code":"SE","latitude":"56.31031000","longitude":"15.24038000"},{"id":"103830","name":"S\u00f6lvesborg","state_id":1537,"state_code":"K","country_id":213,"country_code":"SE","latitude":"56.05205000","longitude":"14.57525000"},{"id":"103831","name":"S\u00f6lvesborgs kommun","state_id":1537,"state_code":"K","country_id":213,"country_code":"SE","latitude":"56.08910000","longitude":"14.64518000"},{"id":"103779","name":"Sturk\u00f6","state_id":1537,"state_code":"K","country_id":213,"country_code":"SE","latitude":"56.08333000","longitude":"15.70000000"},{"id":"103801","name":"Sv\u00e4ngsta","state_id":1537,"state_code":"K","country_id":213,"country_code":"SE","latitude":"56.26667000","longitude":"14.76667000"},{"id":"103010","name":"Arjeplog","state_id":1538,"state_code":"BD","country_id":213,"country_code":"SE","latitude":"66.05173000","longitude":"17.88606000"},{"id":"103011","name":"Arjeplogs Kommun","state_id":1538,"state_code":"BD","country_id":213,"country_code":"SE","latitude":"66.37495000","longitude":"17.17477000"},{"id":"103015","name":"Arvidsjaur","state_id":1538,"state_code":"BD","country_id":213,"country_code":"SE","latitude":"65.59033000","longitude":"19.16682000"},{"id":"103016","name":"Arvidsjaurs Kommun","state_id":1538,"state_code":"BD","country_id":213,"country_code":"SE","latitude":"65.66667000","longitude":"19.25000000"},{"id":"104052","name":"\u00d6verkalix","state_id":1538,"state_code":"BD","country_id":213,"country_code":"SE","latitude":"66.32754000","longitude":"22.84414000"},{"id":"104053","name":"\u00d6verkalix Kommun","state_id":1538,"state_code":"BD","country_id":213,"country_code":"SE","latitude":"66.47043000","longitude":"22.57928000"},{"id":"104054","name":"\u00d6vertorne\u00e5","state_id":1538,"state_code":"BD","country_id":213,"country_code":"SE","latitude":"66.38778000","longitude":"23.65425000"},{"id":"104055","name":"\u00d6vertorne\u00e5 Kommun","state_id":1538,"state_code":"BD","country_id":213,"country_code":"SE","latitude":"66.48317000","longitude":"23.43866000"},{"id":"103993","name":"\u00c4lvsbyn","state_id":1538,"state_code":"BD","country_id":213,"country_code":"SE","latitude":"65.67624000","longitude":"21.00162000"},{"id":"103994","name":"\u00c4lvsbyns Kommun","state_id":1538,"state_code":"BD","country_id":213,"country_code":"SE","latitude":"65.73201000","longitude":"20.71412000"},{"id":"103036","name":"Bergn\u00e4set","state_id":1538,"state_code":"BD","country_id":213,"country_code":"SE","latitude":"65.57791000","longitude":"22.10844000"},{"id":"103039","name":"Bergsviken","state_id":1538,"state_code":"BD","country_id":213,"country_code":"SE","latitude":"65.30000000","longitude":"21.38333000"},{"id":"103054","name":"Bj\u00f6rkskatan","state_id":1538,"state_code":"BD","country_id":213,"country_code":"SE","latitude":"65.61373000","longitude":"22.17702000"},{"id":"103061","name":"Boden","state_id":1538,"state_code":"BD","country_id":213,"country_code":"SE","latitude":"65.82518000","longitude":"21.68864000"},{"id":"103062","name":"Bodens Kommun","state_id":1538,"state_code":"BD","country_id":213,"country_code":"SE","latitude":"66.04393000","longitude":"21.29977000"},{"id":"103202","name":"Gammelstad","state_id":1538,"state_code":"BD","country_id":213,"country_code":"SE","latitude":"65.63931000","longitude":"22.01145000"},{"id":"103237","name":"G\u00e4llivare","state_id":1538,"state_code":"BD","country_id":213,"country_code":"SE","latitude":"67.13387000","longitude":"20.65278000"},{"id":"103238","name":"G\u00e4llivare kommun","state_id":1538,"state_code":"BD","country_id":213,"country_code":"SE","latitude":"67.39347000","longitude":"19.70834000"},{"id":"103267","name":"Haparanda","state_id":1538,"state_code":"BD","country_id":213,"country_code":"SE","latitude":"65.83549000","longitude":"24.13676000"},{"id":"103268","name":"Haparanda Kommun","state_id":1538,"state_code":"BD","country_id":213,"country_code":"SE","latitude":"65.91662000","longitude":"23.84607000"},{"id":"103299","name":"Hortlax","state_id":1538,"state_code":"BD","country_id":213,"country_code":"SE","latitude":"65.28188000","longitude":"21.40544000"},{"id":"103353","name":"Jokkmokk","state_id":1538,"state_code":"BD","country_id":213,"country_code":"SE","latitude":"66.60665000","longitude":"19.82324000"},{"id":"103354","name":"Jokkmokks Kommun","state_id":1538,"state_code":"BD","country_id":213,"country_code":"SE","latitude":"66.90967000","longitude":"18.50521000"},{"id":"103369","name":"Kalix","state_id":1538,"state_code":"BD","country_id":213,"country_code":"SE","latitude":"65.85298000","longitude":"23.15645000"},{"id":"103370","name":"Kalix Kommun","state_id":1538,"state_code":"BD","country_id":213,"country_code":"SE","latitude":"65.96118000","longitude":"22.98669000"},{"id":"103394","name":"Kiruna","state_id":1538,"state_code":"BD","country_id":213,"country_code":"SE","latitude":"67.85572000","longitude":"20.22513000"},{"id":"103395","name":"Kiruna Kommun","state_id":1538,"state_code":"BD","country_id":213,"country_code":"SE","latitude":"68.17009000","longitude":"20.54861000"},{"id":"103493","name":"Lule\u00e5","state_id":1538,"state_code":"BD","country_id":213,"country_code":"SE","latitude":"65.58415000","longitude":"22.15465000"},{"id":"103494","name":"Lule\u00e5 kommun","state_id":1538,"state_code":"BD","country_id":213,"country_code":"SE","latitude":"65.68333000","longitude":"22.16667000"},{"id":"103513","name":"Malmberget","state_id":1538,"state_code":"BD","country_id":213,"country_code":"SE","latitude":"67.17529000","longitude":"20.65495000"},{"id":"103528","name":"Marielund","state_id":1538,"state_code":"BD","country_id":213,"country_code":"SE","latitude":"65.85307000","longitude":"24.10486000"},{"id":"103585","name":"Norrfj\u00e4rden","state_id":1538,"state_code":"BD","country_id":213,"country_code":"SE","latitude":"65.41805000","longitude":"21.50151000"},{"id":"103630","name":"Pajala","state_id":1538,"state_code":"BD","country_id":213,"country_code":"SE","latitude":"67.21284000","longitude":"23.36607000"},{"id":"103631","name":"Pajala Kommun","state_id":1538,"state_code":"BD","country_id":213,"country_code":"SE","latitude":"67.24069000","longitude":"22.91667000"},{"id":"103637","name":"Pite\u00e5","state_id":1538,"state_code":"BD","country_id":213,"country_code":"SE","latitude":"65.31717000","longitude":"21.47944000"},{"id":"103638","name":"Pite\u00e5 Kommun","state_id":1538,"state_code":"BD","country_id":213,"country_code":"SE","latitude":"65.37229000","longitude":"20.85153000"},{"id":"103668","name":"R\u00e5ne\u00e5","state_id":1538,"state_code":"BD","country_id":213,"country_code":"SE","latitude":"65.85482000","longitude":"22.29126000"},{"id":"103652","name":"Rokn\u00e4s","state_id":1538,"state_code":"BD","country_id":213,"country_code":"SE","latitude":"65.35000000","longitude":"21.20000000"},{"id":"103653","name":"Rolfs","state_id":1538,"state_code":"BD","country_id":213,"country_code":"SE","latitude":"65.85000000","longitude":"23.11667000"},{"id":"103658","name":"Rosvik","state_id":1538,"state_code":"BD","country_id":213,"country_code":"SE","latitude":"65.43333000","longitude":"21.70000000"},{"id":"103812","name":"S\u00e4vast","state_id":1538,"state_code":"BD","country_id":213,"country_code":"SE","latitude":"65.77002000","longitude":"21.73113000"},{"id":"103828","name":"S\u00f6dra Sunderbyn","state_id":1538,"state_code":"BD","country_id":213,"country_code":"SE","latitude":"65.65983000","longitude":"21.94004000"},{"id":"103891","name":"T\u00f6re","state_id":1538,"state_code":"BD","country_id":213,"country_code":"SE","latitude":"65.91243000","longitude":"22.65128000"},{"id":"103019","name":"Askersund","state_id":1539,"state_code":"T","country_id":213,"country_code":"SE","latitude":"58.87988000","longitude":"14.90230000"},{"id":"103020","name":"Askersunds Kommun","state_id":1539,"state_code":"T","country_id":213,"country_code":"SE","latitude":"58.88048000","longitude":"14.98416000"},{"id":"104034","name":"\u00d6rebro","state_id":1539,"state_code":"T","country_id":213,"country_code":"SE","latitude":"59.27412000","longitude":"15.20660000"},{"id":"104035","name":"\u00d6rebro Kommun","state_id":1539,"state_code":"T","country_id":213,"country_code":"SE","latitude":"59.27168000","longitude":"15.28364000"},{"id":"104017","name":"\u00c5sbro","state_id":1539,"state_code":"T","country_id":213,"country_code":"SE","latitude":"59.00000000","longitude":"15.05000000"},{"id":"103115","name":"Degerfors","state_id":1539,"state_code":"T","country_id":213,"country_code":"SE","latitude":"59.23797000","longitude":"14.43077000"},{"id":"103116","name":"Degerfors Kommun","state_id":1539,"state_code":"T","country_id":213,"country_code":"SE","latitude":"59.15580000","longitude":"14.43352000"},{"id":"103131","name":"Ekeby-Almby","state_id":1539,"state_code":"T","country_id":213,"country_code":"SE","latitude":"59.26000000","longitude":"15.33000000"},{"id":"103163","name":"Fellingsbro","state_id":1539,"state_code":"T","country_id":213,"country_code":"SE","latitude":"59.43333000","longitude":"15.58333000"},{"id":"103170","name":"Fjugesta","state_id":1539,"state_code":"T","country_id":213,"country_code":"SE","latitude":"59.17375000","longitude":"14.87227000"},{"id":"103187","name":"Fr\u00f6vi","state_id":1539,"state_code":"T","country_id":213,"country_code":"SE","latitude":"59.46667000","longitude":"15.36667000"},{"id":"103204","name":"Garphyttan","state_id":1539,"state_code":"T","country_id":213,"country_code":"SE","latitude":"59.30429000","longitude":"14.94623000"},{"id":"103253","name":"Hallsberg","state_id":1539,"state_code":"T","country_id":213,"country_code":"SE","latitude":"59.06463000","longitude":"15.10993000"},{"id":"103254","name":"Hallsbergs Kommun","state_id":1539,"state_code":"T","country_id":213,"country_code":"SE","latitude":"59.03803000","longitude":"15.18468000"},{"id":"103316","name":"H\u00e4llabrottet","state_id":1539,"state_code":"T","country_id":213,"country_code":"SE","latitude":"59.11667000","longitude":"15.20000000"},{"id":"103318","name":"H\u00e4llefors","state_id":1539,"state_code":"T","country_id":213,"country_code":"SE","latitude":"59.78388000","longitude":"14.52197000"},{"id":"103319","name":"H\u00e4llefors Kommun","state_id":1539,"state_code":"T","country_id":213,"country_code":"SE","latitude":"59.75736000","longitude":"14.61495000"},{"id":"103302","name":"Hovsta","state_id":1539,"state_code":"T","country_id":213,"country_code":"SE","latitude":"59.35000000","longitude":"15.21667000"},{"id":"103379","name":"Karlskoga","state_id":1539,"state_code":"T","country_id":213,"country_code":"SE","latitude":"59.32667000","longitude":"14.52386000"},{"id":"103380","name":"Karlskoga Kommun","state_id":1539,"state_code":"T","country_id":213,"country_code":"SE","latitude":"59.37383000","longitude":"14.56720000"},{"id":"103409","name":"Kopparberg","state_id":1539,"state_code":"T","country_id":213,"country_code":"SE","latitude":"59.87597000","longitude":"14.99436000"},{"id":"103420","name":"Kumla","state_id":1539,"state_code":"T","country_id":213,"country_code":"SE","latitude":"59.12770000","longitude":"15.14341000"},{"id":"103421","name":"Kumla Kommun","state_id":1539,"state_code":"T","country_id":213,"country_code":"SE","latitude":"59.12715000","longitude":"15.14649000"},{"id":"103453","name":"Lax\u00e5","state_id":1539,"state_code":"T","country_id":213,"country_code":"SE","latitude":"58.98630000","longitude":"14.61904000"},{"id":"103454","name":"Lax\u00e5 Kommun","state_id":1539,"state_code":"T","country_id":213,"country_code":"SE","latitude":"58.90913000","longitude":"14.53060000"},{"id":"103455","name":"Lekebergs Kommun","state_id":1539,"state_code":"T","country_id":213,"country_code":"SE","latitude":"59.18604000","longitude":"14.79796000"},{"id":"103469","name":"Lindesberg","state_id":1539,"state_code":"T","country_id":213,"country_code":"SE","latitude":"59.59202000","longitude":"15.23040000"},{"id":"103470","name":"Lindesbergs Kommun","state_id":1539,"state_code":"T","country_id":213,"country_code":"SE","latitude":"59.64119000","longitude":"15.34064000"},{"id":"103487","name":"Ljusnarsbergs Kommun","state_id":1539,"state_code":"T","country_id":213,"country_code":"SE","latitude":"59.92622000","longitude":"14.96499000"},{"id":"103577","name":"Nora","state_id":1539,"state_code":"T","country_id":213,"country_code":"SE","latitude":"59.51926000","longitude":"15.03979000"},{"id":"103578","name":"Nora Kommun","state_id":1539,"state_code":"T","country_id":213,"country_code":"SE","latitude":"59.53456000","longitude":"14.90777000"},{"id":"103609","name":"Odensbacken","state_id":1539,"state_code":"T","country_id":213,"country_code":"SE","latitude":"59.16667000","longitude":"15.53333000"},{"id":"103640","name":"P\u00e5lsboda","state_id":1539,"state_code":"T","country_id":213,"country_code":"SE","latitude":"59.06565000","longitude":"15.33747000"},{"id":"103723","name":"Sk\u00f6llersta","state_id":1539,"state_code":"T","country_id":213,"country_code":"SE","latitude":"59.13738000","longitude":"15.33940000"},{"id":"103770","name":"Stor\u00e5","state_id":1539,"state_code":"T","country_id":213,"country_code":"SE","latitude":"59.71409000","longitude":"15.13169000"},{"id":"103955","name":"Vintrosa","state_id":1539,"state_code":"T","country_id":213,"country_code":"SE","latitude":"59.25000000","longitude":"14.95000000"},{"id":"103013","name":"Arn\u00f6","state_id":1540,"state_code":"D","country_id":213,"country_code":"SE","latitude":"58.72675000","longitude":"17.02322000"},{"id":"103998","name":"\u00c4rla","state_id":1540,"state_code":"D","country_id":213,"country_code":"SE","latitude":"59.27983000","longitude":"16.67896000"},{"id":"104003","name":"\u00c5kers Styckebruk","state_id":1540,"state_code":"D","country_id":213,"country_code":"SE","latitude":"59.25000000","longitude":"17.08333000"},{"id":"103027","name":"Bara","state_id":1540,"state_code":"D","country_id":213,"country_code":"SE","latitude":"58.68333000","longitude":"17.06667000"},{"id":"103150","name":"Eskilstuna","state_id":1540,"state_code":"D","country_id":213,"country_code":"SE","latitude":"59.36661000","longitude":"16.50770000"},{"id":"103151","name":"Eskilstuna Kommun","state_id":1540,"state_code":"D","country_id":213,"country_code":"SE","latitude":"59.37362000","longitude":"16.49014000"},{"id":"103173","name":"Flen","state_id":1540,"state_code":"D","country_id":213,"country_code":"SE","latitude":"59.05834000","longitude":"16.58781000"},{"id":"103174","name":"Flens Kommun","state_id":1540,"state_code":"D","country_id":213,"country_code":"SE","latitude":"59.05000000","longitude":"16.71667000"},{"id":"103215","name":"Gnesta","state_id":1540,"state_code":"D","country_id":213,"country_code":"SE","latitude":"59.04751000","longitude":"17.31191000"},{"id":"103216","name":"Gnesta Kommun","state_id":1540,"state_code":"D","country_id":213,"country_code":"SE","latitude":"59.09214000","longitude":"17.14533000"},{"id":"103317","name":"H\u00e4llbybrunn","state_id":1540,"state_code":"D","country_id":213,"country_code":"SE","latitude":"59.39152000","longitude":"16.42229000"},{"id":"103320","name":"H\u00e4lleforsn\u00e4s","state_id":1540,"state_code":"D","country_id":213,"country_code":"SE","latitude":"59.15208000","longitude":"16.49700000"},{"id":"103385","name":"Katrineholm","state_id":1540,"state_code":"D","country_id":213,"country_code":"SE","latitude":"58.99587000","longitude":"16.20721000"},{"id":"103386","name":"Katrineholms Kommun","state_id":1540,"state_code":"D","country_id":213,"country_code":"SE","latitude":"59.01734000","longitude":"16.26049000"},{"id":"103432","name":"Kvicksund","state_id":1540,"state_code":"D","country_id":213,"country_code":"SE","latitude":"59.45099000","longitude":"16.32131000"},{"id":"103515","name":"Malmk\u00f6ping","state_id":1540,"state_code":"D","country_id":213,"country_code":"SE","latitude":"59.13333000","longitude":"16.73333000"},{"id":"103525","name":"Mariefred","state_id":1540,"state_code":"D","country_id":213,"country_code":"SE","latitude":"59.25963000","longitude":"17.22300000"},{"id":"103598","name":"Nyk\u00f6ping","state_id":1540,"state_code":"D","country_id":213,"country_code":"SE","latitude":"58.75300000","longitude":"17.00788000"},{"id":"103599","name":"Nyk\u00f6pings Kommun","state_id":1540,"state_code":"D","country_id":213,"country_code":"SE","latitude":"58.81762000","longitude":"16.89945000"},{"id":"103614","name":"Olstorp","state_id":1540,"state_code":"D","country_id":213,"country_code":"SE","latitude":"58.81667000","longitude":"16.63333000"},{"id":"103627","name":"Oxel\u00f6sund","state_id":1540,"state_code":"D","country_id":213,"country_code":"SE","latitude":"58.67057000","longitude":"17.10152000"},{"id":"103628","name":"Oxel\u00f6sunds Kommun","state_id":1540,"state_code":"D","country_id":213,"country_code":"SE","latitude":"58.67519000","longitude":"17.08406000"},{"id":"103709","name":"Skogstorp","state_id":1540,"state_code":"D","country_id":213,"country_code":"SE","latitude":"59.32472000","longitude":"16.48284000"},{"id":"103746","name":"Stallarholmen","state_id":1540,"state_code":"D","country_id":213,"country_code":"SE","latitude":"59.36667000","longitude":"17.20000000"},{"id":"103756","name":"Stigtomta","state_id":1540,"state_code":"D","country_id":213,"country_code":"SE","latitude":"58.80000000","longitude":"16.78333000"},{"id":"103771","name":"Str\u00e4ngn\u00e4s","state_id":1540,"state_code":"D","country_id":213,"country_code":"SE","latitude":"59.37741000","longitude":"17.03119000"},{"id":"103772","name":"Str\u00e4ngn\u00e4s Kommun","state_id":1540,"state_code":"D","country_id":213,"country_code":"SE","latitude":"59.36109000","longitude":"17.08804000"},{"id":"103793","name":"Svalsta","state_id":1540,"state_code":"D","country_id":213,"country_code":"SE","latitude":"58.74273000","longitude":"16.86978000"},{"id":"103864","name":"Torsh\u00e4lla","state_id":1540,"state_code":"D","country_id":213,"country_code":"SE","latitude":"59.41667000","longitude":"16.46667000"},{"id":"103877","name":"Trosa","state_id":1540,"state_code":"D","country_id":213,"country_code":"SE","latitude":"58.89621000","longitude":"17.54812000"},{"id":"103878","name":"Trosa Kommun","state_id":1540,"state_code":"D","country_id":213,"country_code":"SE","latitude":"58.89330000","longitude":"17.49847000"},{"id":"103911","name":"Vagnh\u00e4rad","state_id":1540,"state_code":"D","country_id":213,"country_code":"SE","latitude":"58.94587000","longitude":"17.48757000"},{"id":"103916","name":"Valla","state_id":1540,"state_code":"D","country_id":213,"country_code":"SE","latitude":"59.01667000","longitude":"16.38333000"},{"id":"103951","name":"Ving\u00e5ker","state_id":1540,"state_code":"D","country_id":213,"country_code":"SE","latitude":"59.04330000","longitude":"15.87374000"},{"id":"103952","name":"Ving\u00e5kers Kommun","state_id":1540,"state_code":"D","country_id":213,"country_code":"SE","latitude":"59.06667000","longitude":"15.88333000"},{"id":"102998","name":"Andersl\u00f6v","state_id":1541,"state_code":"M","country_id":213,"country_code":"SE","latitude":"55.43836000","longitude":"13.31966000"},{"id":"103012","name":"Arl\u00f6v","state_id":1541,"state_code":"M","country_id":213,"country_code":"SE","latitude":"55.63248000","longitude":"13.07141000"},{"id":"103021","name":"Asmundtorp","state_id":1541,"state_code":"M","country_id":213,"country_code":"SE","latitude":"55.88333000","longitude":"12.93333000"},{"id":"104030","name":"\u00d6d\u00e5kra","state_id":1541,"state_code":"M","country_id":213,"country_code":"SE","latitude":"56.10412000","longitude":"12.74770000"},{"id":"104032","name":"\u00d6nnestad","state_id":1541,"state_code":"M","country_id":213,"country_code":"SE","latitude":"56.05747000","longitude":"14.02233000"},{"id":"104037","name":"\u00d6rkelljunga","state_id":1541,"state_code":"M","country_id":213,"country_code":"SE","latitude":"56.28338000","longitude":"13.27773000"},{"id":"104038","name":"\u00d6rkelljunga Kommun","state_id":1541,"state_code":"M","country_id":213,"country_code":"SE","latitude":"56.32464000","longitude":"13.33941000"},{"id":"104050","name":"\u00d6stra G\u00f6inge Kommun","state_id":1541,"state_code":"M","country_id":213,"country_code":"SE","latitude":"56.27212000","longitude":"14.15980000"},{"id":"104051","name":"\u00d6stra Ljungby","state_id":1541,"state_code":"M","country_id":213,"country_code":"SE","latitude":"56.19601000","longitude":"13.09199000"},{"id":"103996","name":"\u00c4ngelholm","state_id":1541,"state_code":"M","country_id":213,"country_code":"SE","latitude":"56.24280000","longitude":"12.86219000"},{"id":"103997","name":"\u00c4ngelholms Kommun","state_id":1541,"state_code":"M","country_id":213,"country_code":"SE","latitude":"56.26814000","longitude":"12.96622000"},{"id":"104000","name":"\u00c5hus","state_id":1541,"state_code":"M","country_id":213,"country_code":"SE","latitude":"55.91667000","longitude":"14.28333000"},{"id":"104002","name":"\u00c5karp","state_id":1541,"state_code":"M","country_id":213,"country_code":"SE","latitude":"55.65396000","longitude":"13.11107000"},{"id":"104021","name":"\u00c5storp","state_id":1541,"state_code":"M","country_id":213,"country_code":"SE","latitude":"56.13566000","longitude":"12.94430000"},{"id":"104022","name":"\u00c5storps Kommun","state_id":1541,"state_code":"M","country_id":213,"country_code":"SE","latitude":"56.14003000","longitude":"12.97259000"},{"id":"103028","name":"Bara","state_id":1541,"state_code":"M","country_id":213,"country_code":"SE","latitude":"55.58155000","longitude":"13.17862000"},{"id":"103104","name":"B\u00e5rsl\u00f6v","state_id":1541,"state_code":"M","country_id":213,"country_code":"SE","latitude":"56.00910000","longitude":"12.80580000"},{"id":"103105","name":"B\u00e5stad","state_id":1541,"state_code":"M","country_id":213,"country_code":"SE","latitude":"56.42689000","longitude":"12.85339000"},{"id":"103106","name":"B\u00e5stads Kommun","state_id":1541,"state_code":"M","country_id":213,"country_code":"SE","latitude":"56.40102000","longitude":"12.79912000"},{"id":"103041","name":"Billeberga","state_id":1541,"state_code":"M","country_id":213,"country_code":"SE","latitude":"55.88333000","longitude":"13.00000000"},{"id":"103042","name":"Billesholm","state_id":1541,"state_code":"M","country_id":213,"country_code":"SE","latitude":"56.05000000","longitude":"13.00000000"},{"id":"103049","name":"Bj\u00e4rnum","state_id":1541,"state_code":"M","country_id":213,"country_code":"SE","latitude":"56.29032000","longitude":"13.71128000"},{"id":"103050","name":"Bj\u00e4rred","state_id":1541,"state_code":"M","country_id":213,"country_code":"SE","latitude":"55.71667000","longitude":"13.01667000"},{"id":"103047","name":"Bjuv","state_id":1541,"state_code":"M","country_id":213,"country_code":"SE","latitude":"56.08372000","longitude":"12.91914000"},{"id":"103048","name":"Bjuvs Kommun","state_id":1541,"state_code":"M","country_id":213,"country_code":"SE","latitude":"56.05409000","longitude":"12.96542000"},{"id":"103058","name":"Blentarp","state_id":1541,"state_code":"M","country_id":213,"country_code":"SE","latitude":"55.58333000","longitude":"13.60000000"},{"id":"103087","name":"Broby","state_id":1541,"state_code":"M","country_id":213,"country_code":"SE","latitude":"56.25521000","longitude":"14.07797000"},{"id":"103089","name":"Brom\u00f6lla","state_id":1541,"state_code":"M","country_id":213,"country_code":"SE","latitude":"56.07551000","longitude":"14.46958000"},{"id":"103090","name":"Brom\u00f6lla Kommun","state_id":1541,"state_code":"M","country_id":213,"country_code":"SE","latitude":"56.11934000","longitude":"14.51150000"},{"id":"103097","name":"Bunkeflostrand","state_id":1541,"state_code":"M","country_id":213,"country_code":"SE","latitude":"55.54478000","longitude":"12.92375000"},{"id":"103099","name":"Burl\u00f6vs Kommun","state_id":1541,"state_code":"M","country_id":213,"country_code":"SE","latitude":"55.63873000","longitude":"13.09473000"},{"id":"103109","name":"Dalby","state_id":1541,"state_code":"M","country_id":213,"country_code":"SE","latitude":"55.66655000","longitude":"13.34976000"},{"id":"103114","name":"Degeberga","state_id":1541,"state_code":"M","country_id":213,"country_code":"SE","latitude":"55.83333000","longitude":"14.08333000"},{"id":"103130","name":"Ekeby","state_id":1541,"state_code":"M","country_id":213,"country_code":"SE","latitude":"56.00000000","longitude":"12.96667000"},{"id":"103152","name":"Esl\u00f6v","state_id":1541,"state_code":"M","country_id":213,"country_code":"SE","latitude":"55.83928000","longitude":"13.30393000"},{"id":"103153","name":"Esl\u00f6vs Kommun","state_id":1541,"state_code":"M","country_id":213,"country_code":"SE","latitude":"55.83607000","longitude":"13.37522000"},{"id":"103195","name":"F\u00e4rl\u00f6v","state_id":1541,"state_code":"M","country_id":213,"country_code":"SE","latitude":"56.06667000","longitude":"14.08333000"},{"id":"103196","name":"F\u00f6rsl\u00f6v","state_id":1541,"state_code":"M","country_id":213,"country_code":"SE","latitude":"56.35000000","longitude":"12.81667000"},{"id":"103171","name":"Fj\u00e4lkinge","state_id":1541,"state_code":"M","country_id":213,"country_code":"SE","latitude":"56.04364000","longitude":"14.27562000"},{"id":"103188","name":"Furulund","state_id":1541,"state_code":"M","country_id":213,"country_code":"SE","latitude":"55.77380000","longitude":"13.09022000"},{"id":"103203","name":"Gantofta","state_id":1541,"state_code":"M","country_id":213,"country_code":"SE","latitude":"55.98729000","longitude":"12.80482000"},{"id":"103239","name":"G\u00e4rsn\u00e4s","state_id":1541,"state_code":"M","country_id":213,"country_code":"SE","latitude":"55.54949000","longitude":"14.17923000"},{"id":"103206","name":"Genarp","state_id":1541,"state_code":"M","country_id":213,"country_code":"SE","latitude":"55.59907000","longitude":"13.39820000"},{"id":"103211","name":"Glim\u00e5kra","state_id":1541,"state_code":"M","country_id":213,"country_code":"SE","latitude":"56.30000000","longitude":"14.13333000"},{"id":"103213","name":"Glumsl\u00f6v","state_id":1541,"state_code":"M","country_id":213,"country_code":"SE","latitude":"55.94091000","longitude":"12.80929000"},{"id":"103260","name":"Hammar","state_id":1541,"state_code":"M","country_id":213,"country_code":"SE","latitude":"56.01667000","longitude":"14.21667000"},{"id":"103263","name":"Hanaskog","state_id":1541,"state_code":"M","country_id":213,"country_code":"SE","latitude":"56.16061000","longitude":"14.09307000"},{"id":"103315","name":"H\u00e4ljarp","state_id":1541,"state_code":"M","country_id":213,"country_code":"SE","latitude":"55.85000000","longitude":"12.91667000"},{"id":"103325","name":"H\u00e4ssleholm","state_id":1541,"state_code":"M","country_id":213,"country_code":"SE","latitude":"56.15905000","longitude":"13.76638000"},{"id":"103326","name":"H\u00e4ssleholms Kommun","state_id":1541,"state_code":"M","country_id":213,"country_code":"SE","latitude":"56.20687000","longitude":"13.72374000"},{"id":"103327","name":"H\u00e4stveda","state_id":1541,"state_code":"M","country_id":213,"country_code":"SE","latitude":"56.28468000","longitude":"13.93547000"},{"id":"103342","name":"H\u00f6\u00f6r","state_id":1541,"state_code":"M","country_id":213,"country_code":"SE","latitude":"55.93444000","longitude":"13.53850000"},{"id":"103343","name":"H\u00f6\u00f6rs Kommun","state_id":1541,"state_code":"M","country_id":213,"country_code":"SE","latitude":"55.94588000","longitude":"13.51686000"},{"id":"103329","name":"H\u00f6gan\u00e4s","state_id":1541,"state_code":"M","country_id":213,"country_code":"SE","latitude":"56.19971000","longitude":"12.55795000"},{"id":"103330","name":"H\u00f6gan\u00e4s Kommun","state_id":1541,"state_code":"M","country_id":213,"country_code":"SE","latitude":"56.22517000","longitude":"12.59701000"},{"id":"103334","name":"H\u00f6k\u00f6pinge","state_id":1541,"state_code":"M","country_id":213,"country_code":"SE","latitude":"55.49411000","longitude":"13.00782000"},{"id":"103335","name":"H\u00f6llviken","state_id":1541,"state_code":"M","country_id":213,"country_code":"SE","latitude":"55.40982000","longitude":"12.95580000"},{"id":"103338","name":"H\u00f6rby","state_id":1541,"state_code":"M","country_id":213,"country_code":"SE","latitude":"55.85238000","longitude":"13.66094000"},{"id":"103339","name":"H\u00f6rby Kommun","state_id":1541,"state_code":"M","country_id":213,"country_code":"SE","latitude":"55.83766000","longitude":"13.74284000"},{"id":"103277","name":"Helsingborg","state_id":1541,"state_code":"M","country_id":213,"country_code":"SE","latitude":"56.05648000","longitude":"12.78718000"},{"id":"103287","name":"Hittarp","state_id":1541,"state_code":"M","country_id":213,"country_code":"SE","latitude":"56.10000000","longitude":"12.63333000"},{"id":"103291","name":"Hj\u00e4rnarp","state_id":1541,"state_code":"M","country_id":213,"country_code":"SE","latitude":"56.31667000","longitude":"12.91667000"},{"id":"103292","name":"Hj\u00e4rup","state_id":1541,"state_code":"M","country_id":213,"country_code":"SE","latitude":"55.66880000","longitude":"13.13931000"},{"id":"103295","name":"Hofterup","state_id":1541,"state_code":"M","country_id":213,"country_code":"SE","latitude":"55.80485000","longitude":"12.97970000"},{"id":"103312","name":"Hyllinge","state_id":1541,"state_code":"M","country_id":213,"country_code":"SE","latitude":"56.10000000","longitude":"12.85000000"},{"id":"103356","name":"Jonstorp","state_id":1541,"state_code":"M","country_id":213,"country_code":"SE","latitude":"56.23380000","longitude":"12.67184000"},{"id":"103437","name":"K\u00e4vlinge","state_id":1541,"state_code":"M","country_id":213,"country_code":"SE","latitude":"55.79188000","longitude":"13.11021000"},{"id":"103438","name":"K\u00e4vlinge Kommun","state_id":1541,"state_code":"M","country_id":213,"country_code":"SE","latitude":"55.79469000","longitude":"13.07364000"},{"id":"103440","name":"K\u00e5ger\u00f6d","state_id":1541,"state_code":"M","country_id":213,"country_code":"SE","latitude":"55.99976000","longitude":"13.08795000"},{"id":"103443","name":"K\u00f6pingebro","state_id":1541,"state_code":"M","country_id":213,"country_code":"SE","latitude":"55.45526000","longitude":"13.93453000"},{"id":"103401","name":"Kl\u00e5gerup","state_id":1541,"state_code":"M","country_id":213,"country_code":"SE","latitude":"55.59416000","longitude":"13.24574000"},{"id":"103399","name":"Klippan","state_id":1541,"state_code":"M","country_id":213,"country_code":"SE","latitude":"56.13559000","longitude":"13.13086000"},{"id":"103400","name":"Klippans Kommun","state_id":1541,"state_code":"M","country_id":213,"country_code":"SE","latitude":"56.11138000","longitude":"13.23836000"},{"id":"103402","name":"Knislinge","state_id":1541,"state_code":"M","country_id":213,"country_code":"SE","latitude":"56.18333000","longitude":"14.08333000"},{"id":"103414","name":"Kristianstad","state_id":1541,"state_code":"M","country_id":213,"country_code":"SE","latitude":"56.03129000","longitude":"14.15242000"},{"id":"103415","name":"Kristianstads kommun","state_id":1541,"state_code":"M","country_id":213,"country_code":"SE","latitude":"56.00000000","longitude":"14.15000000"},{"id":"103433","name":"Kvidinge","state_id":1541,"state_code":"M","country_id":213,"country_code":"SE","latitude":"56.13386000","longitude":"13.04678000"},{"id":"103451","name":"Landskrona","state_id":1541,"state_code":"M","country_id":213,"country_code":"SE","latitude":"55.88620000","longitude":"12.85880000"},{"id":"103506","name":"L\u00f6ber\u00f6d","state_id":1541,"state_code":"M","country_id":213,"country_code":"SE","latitude":"55.77610000","longitude":"13.52414000"},{"id":"103507","name":"L\u00f6ddek\u00f6pinge","state_id":1541,"state_code":"M","country_id":213,"country_code":"SE","latitude":"55.76667000","longitude":"13.01667000"},{"id":"103509","name":"L\u00f6nsboda","state_id":1541,"state_code":"M","country_id":213,"country_code":"SE","latitude":"56.40000000","longitude":"14.31667000"},{"id":"103480","name":"Ljungbyhed","state_id":1541,"state_code":"M","country_id":213,"country_code":"SE","latitude":"56.07437000","longitude":"13.24010000"},{"id":"103482","name":"Ljunghusen","state_id":1541,"state_code":"M","country_id":213,"country_code":"SE","latitude":"55.39793000","longitude":"12.92486000"},{"id":"103489","name":"Lomma","state_id":1541,"state_code":"M","country_id":213,"country_code":"SE","latitude":"55.67244000","longitude":"13.06849000"},{"id":"103490","name":"Lomma Kommun","state_id":1541,"state_code":"M","country_id":213,"country_code":"SE","latitude":"55.70358000","longitude":"13.07324000"},{"id":"103495","name":"Lund","state_id":1541,"state_code":"M","country_id":213,"country_code":"SE","latitude":"55.70584000","longitude":"13.19321000"},{"id":"103496","name":"Lunds Kommun","state_id":1541,"state_code":"M","country_id":213,"country_code":"SE","latitude":"55.66897000","longitude":"13.36408000"},{"id":"103517","name":"Malm\u00f6","state_id":1541,"state_code":"M","country_id":213,"country_code":"SE","latitude":"55.60587000","longitude":"13.00073000"},{"id":"103527","name":"Marieholm","state_id":1541,"state_code":"M","country_id":213,"country_code":"SE","latitude":"55.86667000","longitude":"13.15000000"},{"id":"103567","name":"M\u00f6rarp","state_id":1541,"state_code":"M","country_id":213,"country_code":"SE","latitude":"56.05749000","longitude":"12.88018000"},{"id":"103552","name":"Munka-Ljungby","state_id":1541,"state_code":"M","country_id":213,"country_code":"SE","latitude":"56.25000000","longitude":"12.96667000"},{"id":"103604","name":"N\u00e4sum","state_id":1541,"state_code":"M","country_id":213,"country_code":"SE","latitude":"56.17693000","longitude":"14.49706000"},{"id":"103584","name":"Norra \u00c5sum","state_id":1541,"state_code":"M","country_id":213,"country_code":"SE","latitude":"55.98333000","longitude":"14.15000000"},{"id":"103621","name":"Osby","state_id":1541,"state_code":"M","country_id":213,"country_code":"SE","latitude":"56.38165000","longitude":"13.99364000"},{"id":"103622","name":"Osby kommun","state_id":1541,"state_code":"M","country_id":213,"country_code":"SE","latitude":"56.44081000","longitude":"14.11842000"},{"id":"103629","name":"Oxie","state_id":1541,"state_code":"M","country_id":213,"country_code":"SE","latitude":"55.54014000","longitude":"13.09605000"},{"id":"103639","name":"P\u00e5arp","state_id":1541,"state_code":"M","country_id":213,"country_code":"SE","latitude":"56.03333000","longitude":"12.81667000"},{"id":"103635","name":"Perstorp","state_id":1541,"state_code":"M","country_id":213,"country_code":"SE","latitude":"56.13829000","longitude":"13.39476000"},{"id":"103636","name":"Perstorps Kommun","state_id":1541,"state_code":"M","country_id":213,"country_code":"SE","latitude":"56.18857000","longitude":"13.37681000"},{"id":"103663","name":"Rydeb\u00e4ck","state_id":1541,"state_code":"M","country_id":213,"country_code":"SE","latitude":"55.96667000","longitude":"12.76667000"},{"id":"103664","name":"Rydsg\u00e5rd","state_id":1541,"state_code":"M","country_id":213,"country_code":"SE","latitude":"55.47285000","longitude":"13.58829000"},{"id":"103683","name":"Saxtorpsskogen","state_id":1541,"state_code":"M","country_id":213,"country_code":"SE","latitude":"55.83208000","longitude":"12.94429000"},{"id":"103810","name":"S\u00e4tofta","state_id":1541,"state_code":"M","country_id":213,"country_code":"SE","latitude":"55.91667000","longitude":"13.55000000"},{"id":"103826","name":"S\u00f6dra Sandby","state_id":1541,"state_code":"M","country_id":213,"country_code":"SE","latitude":"55.71677000","longitude":"13.34659000"},{"id":"103834","name":"S\u00f6sdala","state_id":1541,"state_code":"M","country_id":213,"country_code":"SE","latitude":"56.03992000","longitude":"13.67811000"},{"id":"103685","name":"Sibbhult","state_id":1541,"state_code":"M","country_id":213,"country_code":"SE","latitude":"56.26667000","longitude":"14.20000000"},{"id":"103689","name":"Simrishamn","state_id":1541,"state_code":"M","country_id":213,"country_code":"SE","latitude":"55.55653000","longitude":"14.35037000"},{"id":"103690","name":"Simrishamns kommun","state_id":1541,"state_code":"M","country_id":213,"country_code":"SE","latitude":"55.58621000","longitude":"14.23778000"},{"id":"103692","name":"Sj\u00f6bo","state_id":1541,"state_code":"M","country_id":213,"country_code":"SE","latitude":"55.63135000","longitude":"13.70622000"},{"id":"103693","name":"Sj\u00f6bo Kommun","state_id":1541,"state_code":"M","country_id":213,"country_code":"SE","latitude":"55.65146000","longitude":"13.75557000"},{"id":"103695","name":"Skan\u00f6r med Falsterbo","state_id":1541,"state_code":"M","country_id":213,"country_code":"SE","latitude":"55.40000000","longitude":"12.85000000"},{"id":"103721","name":"Sk\u00e5re","state_id":1541,"state_code":"M","country_id":213,"country_code":"SE","latitude":"55.38333000","longitude":"13.05000000"},{"id":"103699","name":"Skegrie","state_id":1541,"state_code":"M","country_id":213,"country_code":"SE","latitude":"55.40633000","longitude":"13.07693000"},{"id":"103707","name":"Skivarp","state_id":1541,"state_code":"M","country_id":213,"country_code":"SE","latitude":"55.41667000","longitude":"13.56667000"},{"id":"103714","name":"Skurup","state_id":1541,"state_code":"M","country_id":213,"country_code":"SE","latitude":"55.47839000","longitude":"13.50186000"},{"id":"103715","name":"Skurups Kommun","state_id":1541,"state_code":"M","country_id":213,"country_code":"SE","latitude":"55.47322000","longitude":"13.54550000"},{"id":"103731","name":"Smygehamn","state_id":1541,"state_code":"M","country_id":213,"country_code":"SE","latitude":"55.34337000","longitude":"13.36989000"},{"id":"103744","name":"Staffanstorp","state_id":1541,"state_code":"M","country_id":213,"country_code":"SE","latitude":"55.64277000","longitude":"13.20638000"},{"id":"103745","name":"Staffanstorps Kommun","state_id":1541,"state_code":"M","country_id":213,"country_code":"SE","latitude":"55.65000000","longitude":"13.20000000"},{"id":"103781","name":"St\u00e5ngby","state_id":1541,"state_code":"M","country_id":213,"country_code":"SE","latitude":"55.75030000","longitude":"13.19797000"},{"id":"103748","name":"Stehag","state_id":1541,"state_code":"M","country_id":213,"country_code":"SE","latitude":"55.90188000","longitude":"13.39577000"},{"id":"103777","name":"Str\u00f6velstorp","state_id":1541,"state_code":"M","country_id":213,"country_code":"SE","latitude":"56.16979000","longitude":"12.83925000"},{"id":"103794","name":"Sval\u00f6v","state_id":1541,"state_code":"M","country_id":213,"country_code":"SE","latitude":"55.91340000","longitude":"13.10762000"},{"id":"103795","name":"Sval\u00f6vs Kommun","state_id":1541,"state_code":"M","country_id":213,"country_code":"SE","latitude":"55.96497000","longitude":"13.13173000"},{"id":"103797","name":"Svedala","state_id":1541,"state_code":"M","country_id":213,"country_code":"SE","latitude":"55.50788000","longitude":"13.23515000"},{"id":"103798","name":"Svedala Kommun","state_id":1541,"state_code":"M","country_id":213,"country_code":"SE","latitude":"55.54324000","longitude":"13.26859000"},{"id":"103839","name":"Teckomatorp","state_id":1541,"state_code":"M","country_id":213,"country_code":"SE","latitude":"55.86667000","longitude":"13.08333000"},{"id":"103856","name":"Tollarp","state_id":1541,"state_code":"M","country_id":213,"country_code":"SE","latitude":"55.93333000","longitude":"13.98333000"},{"id":"103857","name":"Tollarp1","state_id":1541,"state_code":"M","country_id":213,"country_code":"SE","latitude":"56.16667000","longitude":"14.28333000"},{"id":"103858","name":"Tomelilla","state_id":1541,"state_code":"M","country_id":213,"country_code":"SE","latitude":"55.54293000","longitude":"13.95460000"},{"id":"103859","name":"Tomelilla Kommun","state_id":1541,"state_code":"M","country_id":213,"country_code":"SE","latitude":"55.61963000","longitude":"14.01975000"},{"id":"103860","name":"Torekov","state_id":1541,"state_code":"M","country_id":213,"country_code":"SE","latitude":"56.42500000","longitude":"12.63333000"},{"id":"103861","name":"Tormestorp","state_id":1541,"state_code":"M","country_id":213,"country_code":"SE","latitude":"56.11350000","longitude":"13.74516000"},{"id":"103874","name":"Trelleborg","state_id":1541,"state_code":"M","country_id":213,"country_code":"SE","latitude":"55.37514000","longitude":"13.15691000"},{"id":"103875","name":"Trelleborgs Kommun","state_id":1541,"state_code":"M","country_id":213,"country_code":"SE","latitude":"55.41274000","longitude":"13.26859000"},{"id":"103884","name":"Tygelsj\u00f6","state_id":1541,"state_code":"M","country_id":213,"country_code":"SE","latitude":"55.51667000","longitude":"13.00000000"},{"id":"103886","name":"Tyringe","state_id":1541,"state_code":"M","country_id":213,"country_code":"SE","latitude":"56.16037000","longitude":"13.59811000"},{"id":"103915","name":"Valje","state_id":1541,"state_code":"M","country_id":213,"country_code":"SE","latitude":"56.06279000","longitude":"14.54388000"},{"id":"103931","name":"Veber\u00f6d","state_id":1541,"state_code":"M","country_id":213,"country_code":"SE","latitude":"55.63333000","longitude":"13.48333000"},{"id":"103934","name":"Vejbystrand","state_id":1541,"state_code":"M","country_id":213,"country_code":"SE","latitude":"56.31778000","longitude":"12.76722000"},{"id":"103935","name":"Vellinge","state_id":1541,"state_code":"M","country_id":213,"country_code":"SE","latitude":"55.47124000","longitude":"13.01971000"},{"id":"103936","name":"Vellinge Kommun","state_id":1541,"state_code":"M","country_id":213,"country_code":"SE","latitude":"55.44776000","longitude":"13.00919000"},{"id":"103943","name":"Viken","state_id":1541,"state_code":"M","country_id":213,"country_code":"SE","latitude":"56.15063000","longitude":"12.57429000"},{"id":"103954","name":"Vinsl\u00f6v","state_id":1541,"state_code":"M","country_id":213,"country_code":"SE","latitude":"56.10000000","longitude":"13.91667000"},{"id":"103960","name":"Vittsj\u00f6","state_id":1541,"state_code":"M","country_id":213,"country_code":"SE","latitude":"56.34366000","longitude":"13.66081000"},{"id":"103983","name":"Ystad","state_id":1541,"state_code":"M","country_id":213,"country_code":"SE","latitude":"55.42966000","longitude":"13.82041000"},{"id":"103984","name":"Ystads Kommun","state_id":1541,"state_code":"M","country_id":213,"country_code":"SE","latitude":"55.46367000","longitude":"13.91153000"},{"id":"102995","name":"Alvesta","state_id":1542,"state_code":"G","country_id":213,"country_code":"SE","latitude":"56.89935000","longitude":"14.55559000"},{"id":"102996","name":"Alvesta Kommun","state_id":1542,"state_code":"G","country_id":213,"country_code":"SE","latitude":"56.84663000","longitude":"14.47490000"},{"id":"103985","name":"\u00c4lmhult","state_id":1542,"state_code":"G","country_id":213,"country_code":"SE","latitude":"56.55146000","longitude":"14.13827000"},{"id":"103986","name":"\u00c4lmhults Kommun","state_id":1542,"state_code":"G","country_id":213,"country_code":"SE","latitude":"56.58563000","longitude":"14.15502000"},{"id":"104018","name":"\u00c5seda","state_id":1542,"state_code":"G","country_id":213,"country_code":"SE","latitude":"57.17010000","longitude":"15.34430000"},{"id":"103082","name":"Bra\u00e5s","state_id":1542,"state_code":"G","country_id":213,"country_code":"SE","latitude":"57.06667000","longitude":"15.05000000"},{"id":"103205","name":"Gemla","state_id":1542,"state_code":"G","country_id":213,"country_code":"SE","latitude":"56.86753000","longitude":"14.64379000"},{"id":"103301","name":"Hovmantorp","state_id":1542,"state_code":"G","country_id":213,"country_code":"SE","latitude":"56.78685000","longitude":"15.14023000"},{"id":"103346","name":"Ingelstad","state_id":1542,"state_code":"G","country_id":213,"country_code":"SE","latitude":"56.75000000","longitude":"14.91667000"},{"id":"103446","name":"Lagan","state_id":1542,"state_code":"G","country_id":213,"country_code":"SE","latitude":"56.91667000","longitude":"13.98333000"},{"id":"103449","name":"Lammhult","state_id":1542,"state_code":"G","country_id":213,"country_code":"SE","latitude":"57.16667000","longitude":"14.58333000"},{"id":"103458","name":"Lenhovda","state_id":1542,"state_code":"G","country_id":213,"country_code":"SE","latitude":"57.00000000","longitude":"15.28333000"},{"id":"103461","name":"Lessebo","state_id":1542,"state_code":"G","country_id":213,"country_code":"SE","latitude":"56.75185000","longitude":"15.26969000"},{"id":"103462","name":"Lessebo Kommun","state_id":1542,"state_code":"G","country_id":213,"country_code":"SE","latitude":"56.76387000","longitude":"15.31359000"},{"id":"103478","name":"Ljungby","state_id":1542,"state_code":"G","country_id":213,"country_code":"SE","latitude":"56.83324000","longitude":"13.94082000"},{"id":"103479","name":"Ljungby Kommun","state_id":1542,"state_code":"G","country_id":213,"country_code":"SE","latitude":"56.80684000","longitude":"13.82719000"},{"id":"103531","name":"Markaryd","state_id":1542,"state_code":"G","country_id":213,"country_code":"SE","latitude":"56.46135000","longitude":"13.59644000"},{"id":"103532","name":"Markaryds Kommun","state_id":1542,"state_code":"G","country_id":213,"country_code":"SE","latitude":"56.54425000","longitude":"13.62348000"},{"id":"103543","name":"Moheda","state_id":1542,"state_code":"G","country_id":213,"country_code":"SE","latitude":"57.00000000","longitude":"14.56667000"},{"id":"103659","name":"Rottne","state_id":1542,"state_code":"G","country_id":213,"country_code":"SE","latitude":"57.01667000","longitude":"14.90000000"},{"id":"103660","name":"Ryd","state_id":1542,"state_code":"G","country_id":213,"country_code":"SE","latitude":"56.46667000","longitude":"14.68333000"},{"id":"103774","name":"Str\u00f6msn\u00e4sbruk","state_id":1542,"state_code":"G","country_id":213,"country_code":"SE","latitude":"56.55000000","longitude":"13.71667000"},{"id":"103852","name":"Tingsryd","state_id":1542,"state_code":"G","country_id":213,"country_code":"SE","latitude":"56.52470000","longitude":"14.97902000"},{"id":"103853","name":"Tingsryds Kommun","state_id":1542,"state_code":"G","country_id":213,"country_code":"SE","latitude":"56.53333000","longitude":"14.96667000"},{"id":"103905","name":"Uppvidinge Kommun","state_id":1542,"state_code":"G","country_id":213,"country_code":"SE","latitude":"57.03442000","longitude":"15.44727000"},{"id":"103975","name":"V\u00e4xj\u00f6","state_id":1542,"state_code":"G","country_id":213,"country_code":"SE","latitude":"56.87767000","longitude":"14.80906000"},{"id":"103976","name":"V\u00e4xj\u00f6 Kommun","state_id":1542,"state_code":"G","country_id":213,"country_code":"SE","latitude":"56.94530000","longitude":"14.89981000"},{"id":"103959","name":"Vislanda","state_id":1542,"state_code":"G","country_id":213,"country_code":"SE","latitude":"56.78333000","longitude":"14.45000000"},{"id":"104019","name":"\u00c5sele","state_id":1543,"state_code":"AC","country_id":213,"country_code":"SE","latitude":"64.16026000","longitude":"17.34762000"},{"id":"104020","name":"\u00c5sele Kommun","state_id":1543,"state_code":"AC","country_id":213,"country_code":"SE","latitude":"64.16604000","longitude":"17.62356000"},{"id":"103025","name":"Backa","state_id":1543,"state_code":"AC","country_id":213,"country_code":"SE","latitude":"64.98333000","longitude":"21.06667000"},{"id":"103044","name":"Bjurholm","state_id":1543,"state_code":"AC","country_id":213,"country_code":"SE","latitude":"63.93027000","longitude":"19.21369000"},{"id":"103045","name":"Bjurholms Kommun","state_id":1543,"state_code":"AC","country_id":213,"country_code":"SE","latitude":"63.96667000","longitude":"19.00000000"},{"id":"103063","name":"Boliden","state_id":1543,"state_code":"AC","country_id":213,"country_code":"SE","latitude":"64.86667000","longitude":"20.38333000"},{"id":"103098","name":"Bure\u00e5","state_id":1543,"state_code":"AC","country_id":213,"country_code":"SE","latitude":"64.61667000","longitude":"21.20000000"},{"id":"103100","name":"Burtr\u00e4sk","state_id":1543,"state_code":"AC","country_id":213,"country_code":"SE","latitude":"64.51667000","longitude":"20.65000000"},{"id":"103101","name":"Byske","state_id":1543,"state_code":"AC","country_id":213,"country_code":"SE","latitude":"64.95258000","longitude":"21.20580000"},{"id":"103125","name":"Dorotea","state_id":1543,"state_code":"AC","country_id":213,"country_code":"SE","latitude":"64.26185000","longitude":"16.41306000"},{"id":"103126","name":"Dorotea Kommun","state_id":1543,"state_code":"AC","country_id":213,"country_code":"SE","latitude":"64.57981000","longitude":"15.80614000"},{"id":"103149","name":"Ersmark","state_id":1543,"state_code":"AC","country_id":213,"country_code":"SE","latitude":"63.88333000","longitude":"20.31667000"},{"id":"103176","name":"Forsbacka","state_id":1543,"state_code":"AC","country_id":213,"country_code":"SE","latitude":"64.76667000","longitude":"20.50000000"},{"id":"103340","name":"H\u00f6rnefors","state_id":1543,"state_code":"AC","country_id":213,"country_code":"SE","latitude":"63.62312000","longitude":"19.90856000"},{"id":"103296","name":"Holmsund","state_id":1543,"state_code":"AC","country_id":213,"country_code":"SE","latitude":"63.70602000","longitude":"20.36409000"},{"id":"103348","name":"Insj\u00f6n","state_id":1543,"state_code":"AC","country_id":213,"country_code":"SE","latitude":"64.40000000","longitude":"17.48333000"},{"id":"103439","name":"K\u00e5ge","state_id":1543,"state_code":"AC","country_id":213,"country_code":"SE","latitude":"64.83571000","longitude":"20.98453000"},{"id":"103503","name":"L\u00e5ngsele","state_id":1543,"state_code":"AC","country_id":213,"country_code":"SE","latitude":"64.81667000","longitude":"20.25000000"},{"id":"103497","name":"Lycksele","state_id":1543,"state_code":"AC","country_id":213,"country_code":"SE","latitude":"64.59537000","longitude":"18.67351000"},{"id":"103498","name":"Lycksele kommun","state_id":1543,"state_code":"AC","country_id":213,"country_code":"SE","latitude":"64.62437000","longitude":"18.48930000"},{"id":"103520","name":"Mal\u00e5","state_id":1543,"state_code":"AC","country_id":213,"country_code":"SE","latitude":"65.18501000","longitude":"18.74243000"},{"id":"103521","name":"Mal\u00e5 Kommun","state_id":1543,"state_code":"AC","country_id":213,"country_code":"SE","latitude":"65.20000000","longitude":"18.75000000"},{"id":"103582","name":"Nordmaling","state_id":1543,"state_code":"AC","country_id":213,"country_code":"SE","latitude":"63.56852000","longitude":"19.50244000"},{"id":"103583","name":"Nordmalings Kommun","state_id":1543,"state_code":"AC","country_id":213,"country_code":"SE","latitude":"63.68542000","longitude":"19.36777000"},{"id":"103590","name":"Norsj\u00f6","state_id":1543,"state_code":"AC","country_id":213,"country_code":"SE","latitude":"64.91206000","longitude":"19.48153000"},{"id":"103591","name":"Norsj\u00f6 Kommun","state_id":1543,"state_code":"AC","country_id":213,"country_code":"SE","latitude":"64.92993000","longitude":"19.55556000"},{"id":"103606","name":"Obbola","state_id":1543,"state_code":"AC","country_id":213,"country_code":"SE","latitude":"63.70000000","longitude":"20.31667000"},{"id":"103671","name":"R\u00f6b\u00e4ck","state_id":1543,"state_code":"AC","country_id":213,"country_code":"SE","latitude":"63.80879000","longitude":"20.18901000"},{"id":"103650","name":"Robertsfors","state_id":1543,"state_code":"AC","country_id":213,"country_code":"SE","latitude":"64.19324000","longitude":"20.84806000"},{"id":"103651","name":"Robertsfors Kommun","state_id":1543,"state_code":"AC","country_id":213,"country_code":"SE","latitude":"64.16604000","longitude":"20.78415000"},{"id":"103811","name":"S\u00e4var","state_id":1543,"state_code":"AC","country_id":213,"country_code":"SE","latitude":"63.90383000","longitude":"20.55014000"},{"id":"103818","name":"S\u00f6derfors","state_id":1543,"state_code":"AC","country_id":213,"country_code":"SE","latitude":"64.81667000","longitude":"18.05000000"},{"id":"103701","name":"Skellefte\u00e5","state_id":1543,"state_code":"AC","country_id":213,"country_code":"SE","latitude":"64.75067000","longitude":"20.95279000"},{"id":"103702","name":"Skellefte\u00e5 Kommun","state_id":1543,"state_code":"AC","country_id":213,"country_code":"SE","latitude":"64.80261000","longitude":"20.64410000"},{"id":"103700","name":"Skelleftehamn","state_id":1543,"state_code":"AC","country_id":213,"country_code":"SE","latitude":"64.68333000","longitude":"21.23333000"},{"id":"103741","name":"Sorsele","state_id":1543,"state_code":"AC","country_id":213,"country_code":"SE","latitude":"65.53484000","longitude":"17.53702000"},{"id":"103742","name":"Sorsele Kommun","state_id":1543,"state_code":"AC","country_id":213,"country_code":"SE","latitude":"65.75000000","longitude":"16.75000000"},{"id":"103765","name":"Storuman","state_id":1543,"state_code":"AC","country_id":213,"country_code":"SE","latitude":"65.09590000","longitude":"17.11731000"},{"id":"103766","name":"Storumans Kommun","state_id":1543,"state_code":"AC","country_id":213,"country_code":"SE","latitude":"65.45192000","longitude":"16.25810000"},{"id":"103767","name":"Storvik","state_id":1543,"state_code":"AC","country_id":213,"country_code":"SE","latitude":"65.15000000","longitude":"20.73333000"},{"id":"103888","name":"T\u00e4fte\u00e5","state_id":1543,"state_code":"AC","country_id":213,"country_code":"SE","latitude":"63.83970000","longitude":"20.47857000"},{"id":"103898","name":"Ume\u00e5","state_id":1543,"state_code":"AC","country_id":213,"country_code":"SE","latitude":"63.82842000","longitude":"20.25972000"},{"id":"103899","name":"Ume\u00e5 Kommun","state_id":1543,"state_code":"AC","country_id":213,"country_code":"SE","latitude":"63.82992000","longitude":"20.25484000"},{"id":"103906","name":"Ursviken","state_id":1543,"state_code":"AC","country_id":213,"country_code":"SE","latitude":"64.71261000","longitude":"21.16580000"},{"id":"103964","name":"V\u00e4nn\u00e4s","state_id":1543,"state_code":"AC","country_id":213,"country_code":"SE","latitude":"63.90676000","longitude":"19.75712000"},{"id":"103965","name":"V\u00e4nn\u00e4s Kommun","state_id":1543,"state_code":"AC","country_id":213,"country_code":"SE","latitude":"63.94960000","longitude":"19.70834000"},{"id":"103966","name":"V\u00e4nn\u00e4sby","state_id":1543,"state_code":"AC","country_id":213,"country_code":"SE","latitude":"63.91564000","longitude":"19.82438000"},{"id":"103942","name":"Viken","state_id":1543,"state_code":"AC","country_id":213,"country_code":"SE","latitude":"64.72587000","longitude":"20.91548000"},{"id":"103945","name":"Vilhelmina","state_id":1543,"state_code":"AC","country_id":213,"country_code":"SE","latitude":"64.62417000","longitude":"16.65596000"},{"id":"103946","name":"Vilhelmina Kommun","state_id":1543,"state_code":"AC","country_id":213,"country_code":"SE","latitude":"64.99358000","longitude":"16.03212000"},{"id":"103949","name":"Vindeln","state_id":1543,"state_code":"AC","country_id":213,"country_code":"SE","latitude":"64.20175000","longitude":"19.71945000"},{"id":"103950","name":"Vindelns Kommun","state_id":1543,"state_code":"AC","country_id":213,"country_code":"SE","latitude":"64.18605000","longitude":"19.71222000"},{"id":"103004","name":"Ankarsrum","state_id":1544,"state_code":"H","country_id":213,"country_code":"SE","latitude":"57.69896000","longitude":"16.33407000"},{"id":"104056","name":"\u00d6verum","state_id":1544,"state_code":"H","country_id":213,"country_code":"SE","latitude":"57.98856000","longitude":"16.31390000"},{"id":"103035","name":"Bergkvara","state_id":1544,"state_code":"H","country_id":213,"country_code":"SE","latitude":"56.39063000","longitude":"16.07274000"},{"id":"103059","name":"Blomsterm\u00e5la","state_id":1544,"state_code":"H","country_id":213,"country_code":"SE","latitude":"56.98333000","longitude":"16.33333000"},{"id":"103073","name":"Borgholm","state_id":1544,"state_code":"H","country_id":213,"country_code":"SE","latitude":"56.87930000","longitude":"16.65634000"},{"id":"103074","name":"Borgholms Kommun","state_id":1544,"state_code":"H","country_id":213,"country_code":"SE","latitude":"57.09747000","longitude":"16.94092000"},{"id":"103140","name":"Emmaboda","state_id":1544,"state_code":"H","country_id":213,"country_code":"SE","latitude":"56.63268000","longitude":"15.53648000"},{"id":"103141","name":"Emmaboda Kommun","state_id":1544,"state_code":"H","country_id":213,"country_code":"SE","latitude":"56.63333000","longitude":"15.53333000"},{"id":"103194","name":"F\u00e4rjestaden","state_id":1544,"state_code":"H","country_id":213,"country_code":"SE","latitude":"56.64990000","longitude":"16.46859000"},{"id":"103201","name":"Gamleby","state_id":1544,"state_code":"H","country_id":213,"country_code":"SE","latitude":"57.89485000","longitude":"16.40508000"},{"id":"103234","name":"Gunnebo","state_id":1544,"state_code":"H","country_id":213,"country_code":"SE","latitude":"57.71667000","longitude":"16.53333000"},{"id":"103331","name":"H\u00f6gsby","state_id":1544,"state_code":"H","country_id":213,"country_code":"SE","latitude":"57.16597000","longitude":"16.02562000"},{"id":"103332","name":"H\u00f6gsby Kommun","state_id":1544,"state_code":"H","country_id":213,"country_code":"SE","latitude":"57.15537000","longitude":"15.91674000"},{"id":"103307","name":"Hultsfred","state_id":1544,"state_code":"H","country_id":213,"country_code":"SE","latitude":"57.48815000","longitude":"15.84357000"},{"id":"103308","name":"Hultsfreds Kommun","state_id":1544,"state_code":"H","country_id":213,"country_code":"SE","latitude":"57.40000000","longitude":"15.80000000"},{"id":"103372","name":"Kalmar","state_id":1544,"state_code":"H","country_id":213,"country_code":"SE","latitude":"56.66157000","longitude":"16.36163000"},{"id":"103373","name":"Kalmar Kommun","state_id":1544,"state_code":"H","country_id":213,"country_code":"SE","latitude":"56.66361000","longitude":"16.18569000"},{"id":"103413","name":"Kristdala","state_id":1544,"state_code":"H","country_id":213,"country_code":"SE","latitude":"57.40070000","longitude":"16.20496000"},{"id":"103473","name":"Lindsdal","state_id":1544,"state_code":"H","country_id":213,"country_code":"SE","latitude":"56.73333000","longitude":"16.30000000"},{"id":"103481","name":"Ljungbyholm","state_id":1544,"state_code":"H","country_id":213,"country_code":"SE","latitude":"56.63333000","longitude":"16.16667000"},{"id":"103559","name":"M\u00e5lilla","state_id":1544,"state_code":"H","country_id":213,"country_code":"SE","latitude":"57.38773000","longitude":"15.80675000"},{"id":"103565","name":"M\u00f6nster\u00e5s","state_id":1544,"state_code":"H","country_id":213,"country_code":"SE","latitude":"57.04134000","longitude":"16.44463000"},{"id":"103566","name":"M\u00f6nster\u00e5s Kommun","state_id":1544,"state_code":"H","country_id":213,"country_code":"SE","latitude":"57.06625000","longitude":"16.38621000"},{"id":"103568","name":"M\u00f6rbyl\u00e5nga","state_id":1544,"state_code":"H","country_id":213,"country_code":"SE","latitude":"56.52480000","longitude":"16.37877000"},{"id":"103569","name":"M\u00f6rbyl\u00e5nga Kommun","state_id":1544,"state_code":"H","country_id":213,"country_code":"SE","latitude":"56.50000000","longitude":"16.50000000"},{"id":"103593","name":"Nybro","state_id":1544,"state_code":"H","country_id":213,"country_code":"SE","latitude":"56.74461000","longitude":"15.90714000"},{"id":"103594","name":"Nybro Kommun","state_id":1544,"state_code":"H","country_id":213,"country_code":"SE","latitude":"56.82435000","longitude":"15.88969000"},{"id":"103623","name":"Oskarshamn","state_id":1544,"state_code":"H","country_id":213,"country_code":"SE","latitude":"57.26455000","longitude":"16.44837000"},{"id":"103624","name":"Oskarshamns Kommun","state_id":1544,"state_code":"H","country_id":213,"country_code":"SE","latitude":"57.37339000","longitude":"16.38303000"},{"id":"103641","name":"P\u00e5skallavik","state_id":1544,"state_code":"H","country_id":213,"country_code":"SE","latitude":"57.16667000","longitude":"16.45000000"},{"id":"103649","name":"Rinkabyholm","state_id":1544,"state_code":"H","country_id":213,"country_code":"SE","latitude":"56.64972000","longitude":"16.26667000"},{"id":"103827","name":"S\u00f6dra Sandby","state_id":1544,"state_code":"H","country_id":213,"country_code":"SE","latitude":"56.56667000","longitude":"16.61667000"},{"id":"103829","name":"S\u00f6dra Vi","state_id":1544,"state_code":"H","country_id":213,"country_code":"SE","latitude":"57.73993000","longitude":"15.79391000"},{"id":"103727","name":"Smedby","state_id":1544,"state_code":"H","country_id":213,"country_code":"SE","latitude":"56.67413000","longitude":"16.24320000"},{"id":"103762","name":"Storebro","state_id":1544,"state_code":"H","country_id":213,"country_code":"SE","latitude":"57.58333000","longitude":"15.85000000"},{"id":"103849","name":"Timmernabben","state_id":1544,"state_code":"H","country_id":213,"country_code":"SE","latitude":"56.96667000","longitude":"16.43333000"},{"id":"103866","name":"Tors\u00e5s","state_id":1544,"state_code":"H","country_id":213,"country_code":"SE","latitude":"56.41251000","longitude":"15.99844000"},{"id":"103867","name":"Tors\u00e5s Kommun","state_id":1544,"state_code":"H","country_id":213,"country_code":"SE","latitude":"56.42649000","longitude":"15.89128000"},{"id":"103873","name":"Trekanten","state_id":1544,"state_code":"H","country_id":213,"country_code":"SE","latitude":"56.70000000","longitude":"16.11667000"},{"id":"103970","name":"V\u00e4stervik","state_id":1544,"state_code":"H","country_id":213,"country_code":"SE","latitude":"57.75840000","longitude":"16.63733000"},{"id":"103971","name":"V\u00e4sterviks Kommun","state_id":1544,"state_code":"H","country_id":213,"country_code":"SE","latitude":"57.85242000","longitude":"16.38940000"},{"id":"103947","name":"Vimmerby","state_id":1544,"state_code":"H","country_id":213,"country_code":"SE","latitude":"57.66588000","longitude":"15.85515000"},{"id":"103948","name":"Vimmerby Kommun","state_id":1544,"state_code":"H","country_id":213,"country_code":"SE","latitude":"57.69009000","longitude":"15.86741000"},{"id":"103956","name":"Virserum","state_id":1544,"state_code":"H","country_id":213,"country_code":"SE","latitude":"57.31667000","longitude":"15.58333000"},{"id":"102993","name":"Alsike","state_id":1545,"state_code":"C","country_id":213,"country_code":"SE","latitude":"59.75324000","longitude":"17.77331000"},{"id":"102994","name":"Alunda","state_id":1545,"state_code":"C","country_id":213,"country_code":"SE","latitude":"60.26667000","longitude":"18.40000000"},{"id":"103005","name":"Anneberg","state_id":1545,"state_code":"C","country_id":213,"country_code":"SE","latitude":"60.24167000","longitude":"18.41667000"},{"id":"104033","name":"\u00d6rbyhus","state_id":1545,"state_code":"C","country_id":213,"country_code":"SE","latitude":"60.22407000","longitude":"17.70138000"},{"id":"104036","name":"\u00d6regrund","state_id":1545,"state_code":"C","country_id":213,"country_code":"SE","latitude":"60.33333000","longitude":"18.43333000"},{"id":"104041","name":"\u00d6rsundsbro","state_id":1545,"state_code":"C","country_id":213,"country_code":"SE","latitude":"59.73333000","longitude":"17.30000000"},{"id":"104043","name":"\u00d6sterbybruk","state_id":1545,"state_code":"C","country_id":213,"country_code":"SE","latitude":"60.20000000","longitude":"17.90000000"},{"id":"104046","name":"\u00d6sterv\u00e5la","state_id":1545,"state_code":"C","country_id":213,"country_code":"SE","latitude":"60.18333000","longitude":"17.18333000"},{"id":"104048","name":"\u00d6sthammar","state_id":1545,"state_code":"C","country_id":213,"country_code":"SE","latitude":"60.25909000","longitude":"18.37408000"},{"id":"104049","name":"\u00d6sthammars Kommun","state_id":1545,"state_code":"C","country_id":213,"country_code":"SE","latitude":"60.24156000","longitude":"18.26968000"},{"id":"103991","name":"\u00c4lvkarleby","state_id":1545,"state_code":"C","country_id":213,"country_code":"SE","latitude":"60.57081000","longitude":"17.44895000"},{"id":"103992","name":"\u00c4lvkarleby Kommun","state_id":1545,"state_code":"C","country_id":213,"country_code":"SE","latitude":"60.58212000","longitude":"17.44532000"},{"id":"103102","name":"B\u00e4linge","state_id":1545,"state_code":"C","country_id":213,"country_code":"SE","latitude":"59.95000000","longitude":"17.53333000"},{"id":"103103","name":"B\u00e5lsta","state_id":1545,"state_code":"C","country_id":213,"country_code":"SE","latitude":"59.56710000","longitude":"17.52781000"},{"id":"103053","name":"Bj\u00f6rklinge","state_id":1545,"state_code":"C","country_id":213,"country_code":"SE","latitude":"60.03004000","longitude":"17.55203000"},{"id":"103145","name":"Enk\u00f6ping","state_id":1545,"state_code":"C","country_id":213,"country_code":"SE","latitude":"59.63607000","longitude":"17.07768000"},{"id":"103146","name":"Enk\u00f6pings Kommun","state_id":1545,"state_code":"C","country_id":213,"country_code":"SE","latitude":"59.68575000","longitude":"17.11668000"},{"id":"103200","name":"Gamla Uppsala","state_id":1545,"state_code":"C","country_id":213,"country_code":"SE","latitude":"59.89817000","longitude":"17.63386000"},{"id":"103208","name":"Gimo","state_id":1545,"state_code":"C","country_id":213,"country_code":"SE","latitude":"60.17304000","longitude":"18.18507000"},{"id":"103222","name":"Grillby","state_id":1545,"state_code":"C","country_id":213,"country_code":"SE","latitude":"59.62603000","longitude":"17.25787000"},{"id":"103328","name":"H\u00e5bo kommun","state_id":1545,"state_code":"C","country_id":213,"country_code":"SE","latitude":"59.64953000","longitude":"17.50701000"},{"id":"103272","name":"Heby","state_id":1545,"state_code":"C","country_id":213,"country_code":"SE","latitude":"59.93815000","longitude":"16.86217000"},{"id":"103273","name":"Heby kommun","state_id":1545,"state_code":"C","country_id":213,"country_code":"SE","latitude":"60.10000000","longitude":"17.00000000"},{"id":"103350","name":"Irsta","state_id":1545,"state_code":"C","country_id":213,"country_code":"SE","latitude":"59.70000000","longitude":"16.93333000"},{"id":"103374","name":"Karlholmsbruk","state_id":1545,"state_code":"C","country_id":213,"country_code":"SE","latitude":"60.52091000","longitude":"17.63152000"},{"id":"103403","name":"Knivsta","state_id":1545,"state_code":"C","country_id":213,"country_code":"SE","latitude":"59.72564000","longitude":"17.78753000"},{"id":"103404","name":"Knivsta Kommun","state_id":1545,"state_code":"C","country_id":213,"country_code":"SE","latitude":"59.73702000","longitude":"17.78137000"},{"id":"103511","name":"L\u00f6vstal\u00f6t","state_id":1545,"state_code":"C","country_id":213,"country_code":"SE","latitude":"59.95740000","longitude":"17.57826000"},{"id":"103524","name":"Marieberg","state_id":1545,"state_code":"C","country_id":213,"country_code":"SE","latitude":"60.23333000","longitude":"18.50000000"},{"id":"103547","name":"Morgong\u00e5va","state_id":1545,"state_code":"C","country_id":213,"country_code":"SE","latitude":"59.93395000","longitude":"16.96353000"},{"id":"103813","name":"S\u00e4vja","state_id":1545,"state_code":"C","country_id":213,"country_code":"SE","latitude":"59.81872000","longitude":"17.69958000"},{"id":"103817","name":"S\u00f6derfors","state_id":1545,"state_code":"C","country_id":213,"country_code":"SE","latitude":"60.38333000","longitude":"17.23333000"},{"id":"103716","name":"Skutsk\u00e4r","state_id":1545,"state_code":"C","country_id":213,"country_code":"SE","latitude":"60.62507000","longitude":"17.41552000"},{"id":"103769","name":"Storvreta","state_id":1545,"state_code":"C","country_id":213,"country_code":"SE","latitude":"59.95933000","longitude":"17.70588000"},{"id":"103889","name":"T\u00e4rnsj\u00f6","state_id":1545,"state_code":"C","country_id":213,"country_code":"SE","latitude":"60.15000000","longitude":"16.93333000"},{"id":"103846","name":"Tierp","state_id":1545,"state_code":"C","country_id":213,"country_code":"SE","latitude":"60.34269000","longitude":"17.51812000"},{"id":"103847","name":"Tierps kommun","state_id":1545,"state_code":"C","country_id":213,"country_code":"SE","latitude":"60.37206000","longitude":"17.63629000"},{"id":"103903","name":"Uppsala","state_id":1545,"state_code":"C","country_id":213,"country_code":"SE","latitude":"59.85882000","longitude":"17.63889000"},{"id":"103904","name":"Uppsala Kommun","state_id":1545,"state_code":"C","country_id":213,"country_code":"SE","latitude":"59.96425000","longitude":"17.77395000"},