[{"id":"55047","name":"Anse \u00e0 Galets","state_id":4120,"state_code":"OU","country_id":95,"country_code":"HT","latitude":"18.83449000","longitude":"-72.86644000"},{"id":"55052","name":"Arcahaie","state_id":4120,"state_code":"OU","country_id":95,"country_code":"HT","latitude":"18.83333000","longitude":"-72.41667000"},{"id":"55055","name":"Arrondissement de Croix des Bouquets","state_id":4120,"state_code":"OU","country_id":95,"country_code":"HT","latitude":"18.48333000","longitude":"-72.01667000"},{"id":"55058","name":"Arrondissement de L\u00e9og\u00e2ne","state_id":4120,"state_code":"OU","country_id":95,"country_code":"HT","latitude":"18.41667000","longitude":"-72.75000000"},{"id":"55061","name":"Arrondissement de Port-au-Prince","state_id":4120,"state_code":"OU","country_id":95,"country_code":"HT","latitude":"18.50000000","longitude":"-72.36667000"},{"id":"55076","name":"Cabaret","state_id":4120,"state_code":"OU","country_id":95,"country_code":"HT","latitude":"18.73582000","longitude":"-72.41929000"},{"id":"55079","name":"Carrefour","state_id":4120,"state_code":"OU","country_id":95,"country_code":"HT","latitude":"18.54114000","longitude":"-72.39922000"},{"id":"55087","name":"Cornillon","state_id":4120,"state_code":"OU","country_id":95,"country_code":"HT","latitude":"18.67546000","longitude":"-71.95271000"},{"id":"55088","name":"Croix-des-Bouquets","state_id":4120,"state_code":"OU","country_id":95,"country_code":"HT","latitude":"18.57677000","longitude":"-72.22625000"},{"id":"55090","name":"Delmas 73","state_id":4120,"state_code":"OU","country_id":95,"country_code":"HT","latitude":"18.54472000","longitude":"-72.30278000"},{"id":"55098","name":"Fond Parisien","state_id":4120,"state_code":"OU","country_id":95,"country_code":"HT","latitude":"18.50547000","longitude":"-71.98122000"},{"id":"55100","name":"Fonds Verrettes","state_id":4120,"state_code":"OU","country_id":95,"country_code":"HT","latitude":"18.39566000","longitude":"-71.85634000"},{"id":"55105","name":"Grangwav","state_id":4120,"state_code":"OU","country_id":95,"country_code":"HT","latitude":"18.42590000","longitude":"-72.76995000"},{"id":"55106","name":"Gressier","state_id":4120,"state_code":"OU","country_id":95,"country_code":"HT","latitude":"18.54091000","longitude":"-72.52679000"},{"id":"55113","name":"Kenscoff","state_id":4120,"state_code":"OU","country_id":95,"country_code":"HT","latitude":"18.44773000","longitude":"-72.28398000"},{"id":"55116","name":"Lagonav","state_id":4120,"state_code":"OU","country_id":95,"country_code":"HT","latitude":"18.85000000","longitude":"-73.05000000"},{"id":"55124","name":"L\u00e9og\u00e2ne","state_id":4120,"state_code":"OU","country_id":95,"country_code":"HT","latitude":"18.51110000","longitude":"-72.63343000"},{"id":"55149","name":"P\u00e9tionville","state_id":4120,"state_code":"OU","country_id":95,"country_code":"HT","latitude":"18.51250000","longitude":"-72.28528000"},{"id":"55146","name":"Port-au-Prince","state_id":4120,"state_code":"OU","country_id":95,"country_code":"HT","latitude":"18.54349000","longitude":"-72.33881000"},{"id":"55159","name":"Thomazeau","state_id":4120,"state_code":"OU","country_id":95,"country_code":"HT","latitude":"18.65297000","longitude":"-72.09391000"},{"id":"55163","name":"Tigwav","state_id":4120,"state_code":"OU","country_id":95,"country_code":"HT","latitude":"18.43117000","longitude":"-72.86521000"}]