[{"id":"55054","name":"Arrondissement de Cerca La Source","state_id":4125,"state_code":"CE","country_id":95,"country_code":"HT","latitude":"19.11667000","longitude":"-71.75000000"},{"id":"55082","name":"Cerca la Source","state_id":4125,"state_code":"CE","country_id":95,"country_code":"HT","latitude":"19.16696000","longitude":"-71.79015000"},{"id":"55108","name":"Hinche","state_id":4125,"state_code":"CE","country_id":95,"country_code":"HT","latitude":"19.15000000","longitude":"-72.01667000"},{"id":"55117","name":"Lascahobas","state_id":4125,"state_code":"CE","country_id":95,"country_code":"HT","latitude":"18.83047000","longitude":"-71.93563000"},{"id":"55127","name":"Mayisad","state_id":4125,"state_code":"CE","country_id":95,"country_code":"HT","latitude":"19.17607000","longitude":"-72.13958000"},{"id":"55130","name":"Mirebalais","state_id":4125,"state_code":"CE","country_id":95,"country_code":"HT","latitude":"18.83455000","longitude":"-72.10480000"},{"id":"55158","name":"Thomassique","state_id":4125,"state_code":"CE","country_id":95,"country_code":"HT","latitude":"19.08209000","longitude":"-71.83855000"},{"id":"55160","name":"Thomonde","state_id":4125,"state_code":"CE","country_id":95,"country_code":"HT","latitude":"19.01730000","longitude":"-71.96235000"}]