[{"id":"55044","name":"Acul du Nord","state_id":4117,"state_code":"ND","country_id":95,"country_code":"HT","latitude":"19.66667000","longitude":"-72.28333000"},{"id":"55065","name":"Arrondissement de la Grande Rivi\u00e8re du Nord","state_id":4117,"state_code":"ND","country_id":95,"country_code":"HT","latitude":"19.51667000","longitude":"-72.16667000"},{"id":"55059","name":"Arrondissement de Plaisance","state_id":4117,"state_code":"ND","country_id":95,"country_code":"HT","latitude":"19.66756000","longitude":"-72.54908000"},{"id":"55067","name":"Arrondissement du Borgne","state_id":4117,"state_code":"ND","country_id":95,"country_code":"HT","latitude":"19.75000000","longitude":"-72.50000000"},{"id":"55070","name":"Bahon","state_id":4117,"state_code":"ND","country_id":95,"country_code":"HT","latitude":"19.46959000","longitude":"-72.11466000"},{"id":"55075","name":"Borgne","state_id":4117,"state_code":"ND","country_id":95,"country_code":"HT","latitude":"19.84507000","longitude":"-72.52349000"},{"id":"55092","name":"Dondon","state_id":4117,"state_code":"ND","country_id":95,"country_code":"HT","latitude":"19.52734000","longitude":"-72.24337000"},{"id":"55103","name":"Grande Rivi\u00e8re du Nord","state_id":4117,"state_code":"ND","country_id":95,"country_code":"HT","latitude":"19.57744000","longitude":"-72.16872000"},{"id":"55118","name":"Lenbe","state_id":4117,"state_code":"ND","country_id":95,"country_code":"HT","latitude":"19.70603000","longitude":"-72.40336000"},{"id":"55123","name":"Limonade","state_id":4117,"state_code":"ND","country_id":95,"country_code":"HT","latitude":"19.67014000","longitude":"-72.12430000"},{"id":"55128","name":"Milot","state_id":4117,"state_code":"ND","country_id":95,"country_code":"HT","latitude":"19.60837000","longitude":"-72.21319000"},{"id":"55134","name":"Okap","state_id":4117,"state_code":"ND","country_id":95,"country_code":"HT","latitude":"19.75938000","longitude":"-72.19815000"},{"id":"55141","name":"Pignon","state_id":4117,"state_code":"ND","country_id":95,"country_code":"HT","latitude":"19.33594000","longitude":"-72.11662000"},{"id":"55142","name":"Pilate","state_id":4117,"state_code":"ND","country_id":95,"country_code":"HT","latitude":"19.66745000","longitude":"-72.55229000"},{"id":"55143","name":"Plaine du Nord","state_id":4117,"state_code":"ND","country_id":95,"country_code":"HT","latitude":"19.67707000","longitude":"-72.26969000"},{"id":"55144","name":"Plaisance","state_id":4117,"state_code":"ND","country_id":95,"country_code":"HT","latitude":"19.59795000","longitude":"-72.46994000"},{"id":"55145","name":"Port-Margot","state_id":4117,"state_code":"ND","country_id":95,"country_code":"HT","latitude":"19.75180000","longitude":"-72.43006000"},{"id":"55150","name":"Quartier Morin","state_id":4117,"state_code":"ND","country_id":95,"country_code":"HT","latitude":"19.69696000","longitude":"-72.15712000"},{"id":"55151","name":"Ranquitte","state_id":4117,"state_code":"ND","country_id":95,"country_code":"HT","latitude":"19.41327000","longitude":"-72.08077000"},{"id":"55156","name":"Saint-Rapha\u00ebl","state_id":4117,"state_code":"ND","country_id":95,"country_code":"HT","latitude":"19.43877000","longitude":"-72.19910000"},{"id":"55045","name":"Ansavo","state_id":4118,"state_code":"NI","country_id":95,"country_code":"HT","latitude":"18.41667000","longitude":"-73.50000000"},{"id":"55072","name":"Barad\u00e8res","state_id":4118,"state_code":"NI","country_id":95,"country_code":"HT","latitude":"18.48255000","longitude":"-73.63884000"},{"id":"55129","name":"Mirago\u00e2ne","state_id":4118,"state_code":"NI","country_id":95,"country_code":"HT","latitude":"18.44599000","longitude":"-73.08957000"},{"id":"55137","name":"Petit Trou de Nippes","state_id":4118,"state_code":"NI","country_id":95,"country_code":"HT","latitude":"18.52535000","longitude":"-73.50815000"},{"id":"55049","name":"Anse-\u00e0-Veau","state_id":4119,"state_code":"GA","country_id":95,"country_code":"HT","latitude":"18.50110000","longitude":"-73.34490000"},{"id":"55083","name":"Chambellan","state_id":4119,"state_code":"GA","country_id":95,"country_code":"HT","latitude":"18.55037000","longitude":"-74.31317000"},{"id":"55086","name":"Corail","state_id":4119,"state_code":"GA","country_id":95,"country_code":"HT","latitude":"18.56766000","longitude":"-73.88942000"},{"id":"55089","name":"Dame-Marie","state_id":4119,"state_code":"GA","country_id":95,"country_code":"HT","latitude":"18.56107000","longitude":"-74.42167000"},{"id":"55112","name":"J\u00e9r\u00e9mie","state_id":4119,"state_code":"GA","country_id":95,"country_code":"HT","latitude":"18.65000000","longitude":"-74.11667000"},{"id":"55111","name":"Jeremi","state_id":4119,"state_code":"GA","country_id":95,"country_code":"HT","latitude":"18.58333000","longitude":"-74.20000000"},{"id":"55119","name":"Les Abricots","state_id":4119,"state_code":"GA","country_id":95,"country_code":"HT","latitude":"18.64901000","longitude":"-74.30786000"},{"id":"55122","name":"Les Irois","state_id":4119,"state_code":"GA","country_id":95,"country_code":"HT","latitude":"18.40490000","longitude":"-74.45280000"},{"id":"55132","name":"Moron","state_id":4119,"state_code":"GA","country_id":95,"country_code":"HT","latitude":"18.56039000","longitude":"-74.25777000"},{"id":"55139","name":"Petite Rivi\u00e8re de Nippes","state_id":4119,"state_code":"GA","country_id":95,"country_code":"HT","latitude":"18.47611000","longitude":"-73.23495000"},{"id":"55047","name":"Anse \u00e0 Galets","state_id":4120,"state_code":"OU","country_id":95,"country_code":"HT","latitude":"18.83449000","longitude":"-72.86644000"},{"id":"55052","name":"Arcahaie","state_id":4120,"state_code":"OU","country_id":95,"country_code":"HT","latitude":"18.83333000","longitude":"-72.41667000"},{"id":"55055","name":"Arrondissement de Croix des Bouquets","state_id":4120,"state_code":"OU","country_id":95,"country_code":"HT","latitude":"18.48333000","longitude":"-72.01667000"},{"id":"55058","name":"Arrondissement de L\u00e9og\u00e2ne","state_id":4120,"state_code":"OU","country_id":95,"country_code":"HT","latitude":"18.41667000","longitude":"-72.75000000"},{"id":"55061","name":"Arrondissement de Port-au-Prince","state_id":4120,"state_code":"OU","country_id":95,"country_code":"HT","latitude":"18.50000000","longitude":"-72.36667000"},{"id":"55076","name":"Cabaret","state_id":4120,"state_code":"OU","country_id":95,"country_code":"HT","latitude":"18.73582000","longitude":"-72.41929000"},{"id":"55079","name":"Carrefour","state_id":4120,"state_code":"OU","country_id":95,"country_code":"HT","latitude":"18.54114000","longitude":"-72.39922000"},{"id":"55087","name":"Cornillon","state_id":4120,"state_code":"OU","country_id":95,"country_code":"HT","latitude":"18.67546000","longitude":"-71.95271000"},{"id":"55088","name":"Croix-des-Bouquets","state_id":4120,"state_code":"OU","country_id":95,"country_code":"HT","latitude":"18.57677000","longitude":"-72.22625000"},{"id":"55090","name":"Delmas 73","state_id":4120,"state_code":"OU","country_id":95,"country_code":"HT","latitude":"18.54472000","longitude":"-72.30278000"},{"id":"55098","name":"Fond Parisien","state_id":4120,"state_code":"OU","country_id":95,"country_code":"HT","latitude":"18.50547000","longitude":"-71.98122000"},{"id":"55100","name":"Fonds Verrettes","state_id":4120,"state_code":"OU","country_id":95,"country_code":"HT","latitude":"18.39566000","longitude":"-71.85634000"},{"id":"55105","name":"Grangwav","state_id":4120,"state_code":"OU","country_id":95,"country_code":"HT","latitude":"18.42590000","longitude":"-72.76995000"},{"id":"55106","name":"Gressier","state_id":4120,"state_code":"OU","country_id":95,"country_code":"HT","latitude":"18.54091000","longitude":"-72.52679000"},{"id":"55113","name":"Kenscoff","state_id":4120,"state_code":"OU","country_id":95,"country_code":"HT","latitude":"18.44773000","longitude":"-72.28398000"},{"id":"55116","name":"Lagonav","state_id":4120,"state_code":"OU","country_id":95,"country_code":"HT","latitude":"18.85000000","longitude":"-73.05000000"},{"id":"55124","name":"L\u00e9og\u00e2ne","state_id":4120,"state_code":"OU","country_id":95,"country_code":"HT","latitude":"18.51110000","longitude":"-72.63343000"},{"id":"55149","name":"P\u00e9tionville","state_id":4120,"state_code":"OU","country_id":95,"country_code":"HT","latitude":"18.51250000","longitude":"-72.28528000"},{"id":"55146","name":"Port-au-Prince","state_id":4120,"state_code":"OU","country_id":95,"country_code":"HT","latitude":"18.54349000","longitude":"-72.33881000"},{"id":"55159","name":"Thomazeau","state_id":4120,"state_code":"OU","country_id":95,"country_code":"HT","latitude":"18.65297000","longitude":"-72.09391000"},{"id":"55163","name":"Tigwav","state_id":4120,"state_code":"OU","country_id":95,"country_code":"HT","latitude":"18.43117000","longitude":"-72.86521000"},{"id":"55056","name":"Arrondissement de Fort Libert\u00e9","state_id":4121,"state_code":"NE","country_id":95,"country_code":"HT","latitude":"19.56667000","longitude":"-71.83333000"},{"id":"55069","name":"Arrondissement du Trou du Nord","state_id":4121,"state_code":"NE","country_id":95,"country_code":"HT","latitude":"19.55000000","longitude":"-71.98333000"},{"id":"55077","name":"Caracol","state_id":4121,"state_code":"NE","country_id":95,"country_code":"HT","latitude":"19.69274000","longitude":"-72.01733000"},{"id":"55078","name":"Carice","state_id":4121,"state_code":"NE","country_id":95,"country_code":"HT","latitude":"19.37795000","longitude":"-71.83030000"},{"id":"55093","name":"D\u00e9rac","state_id":4121,"state_code":"NE","country_id":95,"country_code":"HT","latitude":"19.65476000","longitude":"-71.81451000"},{"id":"55096","name":"Ferrier","state_id":4121,"state_code":"NE","country_id":95,"country_code":"HT","latitude":"19.61549000","longitude":"-71.77792000"},{"id":"55101","name":"Fort Libert\u00e9","state_id":4121,"state_code":"NE","country_id":95,"country_code":"HT","latitude":"19.66273000","longitude":"-71.83798000"},{"id":"55131","name":"Mont\u00f2rganize","state_id":4121,"state_code":"NE","country_id":95,"country_code":"HT","latitude":"19.40815000","longitude":"-71.78132000"},{"id":"55135","name":"Ouanaminthe","state_id":4121,"state_code":"NE","country_id":95,"country_code":"HT","latitude":"19.54934000","longitude":"-71.72475000"},{"id":"55136","name":"Perches","state_id":4121,"state_code":"NE","country_id":95,"country_code":"HT","latitude":"19.52201000","longitude":"-71.92323000"},{"id":"55140","name":"Pha\u00ebton","state_id":4121,"state_code":"NE","country_id":95,"country_code":"HT","latitude":"19.67525000","longitude":"-71.89691000"},{"id":"55165","name":"Trou du Nord","state_id":4121,"state_code":"NE","country_id":95,"country_code":"HT","latitude":"19.61668000","longitude":"-72.02442000"},{"id":"55167","name":"Wanament","state_id":4121,"state_code":"NE","country_id":95,"country_code":"HT","latitude":"19.48333000","longitude":"-71.76667000"},{"id":"55050","name":"Aquin","state_id":4122,"state_code":"SD","country_id":95,"country_code":"HT","latitude":"18.27974000","longitude":"-73.39433000"},{"id":"55060","name":"Arrondissement de Port-Salut","state_id":4122,"state_code":"SD","country_id":95,"country_code":"HT","latitude":"18.13333000","longitude":"-73.90000000"},{"id":"55066","name":"Arrondissement des Cayes","state_id":4122,"state_code":"SD","country_id":95,"country_code":"HT","latitude":"18.30000000","longitude":"-73.83333000"},{"id":"55080","name":"Cavaillon","state_id":4122,"state_code":"SD","country_id":95,"country_code":"HT","latitude":"18.29987000","longitude":"-73.65455000"},{"id":"55084","name":"Chantal","state_id":4122,"state_code":"SD","country_id":95,"country_code":"HT","latitude":"18.20169000","longitude":"-73.88957000"},{"id":"55085","name":"Chardonni\u00e8re","state_id":4122,"state_code":"SD","country_id":95,"country_code":"HT","latitude":"18.27484000","longitude":"-74.16613000"},{"id":"55099","name":"Fond des Blancs","state_id":4122,"state_code":"SD","country_id":95,"country_code":"HT","latitude":"18.27782000","longitude":"-73.12733000"},{"id":"55115","name":"Koto","state_id":4122,"state_code":"SD","country_id":95,"country_code":"HT","latitude":"18.20601000","longitude":"-74.04013000"},{"id":"55120","name":"Les Anglais","state_id":4122,"state_code":"SD","country_id":95,"country_code":"HT","latitude":"18.30540000","longitude":"-74.21968000"},{"id":"55121","name":"Les Cayes","state_id":4122,"state_code":"SD","country_id":95,"country_code":"HT","latitude":"18.19331000","longitude":"-73.74601000"},{"id":"55148","name":"Port-\u00e0-Piment","state_id":4122,"state_code":"SD","country_id":95,"country_code":"HT","latitude":"18.24963000","longitude":"-74.09710000"},{"id":"55152","name":"Roche-\u00e0-Bateau","state_id":4122,"state_code":"SD","country_id":95,"country_code":"HT","latitude":"18.18182000","longitude":"-74.00345000"},{"id":"55154","name":"Saint-Louis du Sud","state_id":4122,"state_code":"SD","country_id":95,"country_code":"HT","latitude":"18.26241000","longitude":"-73.54603000"},{"id":"55162","name":"Tiburon","state_id":4122,"state_code":"SD","country_id":95,"country_code":"HT","latitude":"18.32589000","longitude":"-74.39598000"},{"id":"55164","name":"Torbeck","state_id":4122,"state_code":"SD","country_id":95,"country_code":"HT","latitude":"18.16338000","longitude":"-73.80949000"},{"id":"55046","name":"Anse Rouge","state_id":4123,"state_code":"AR","country_id":95,"country_code":"HT","latitude":"19.63382000","longitude":"-73.05530000"},{"id":"55064","name":"Arrondissement de Saint-Marc","state_id":4123,"state_code":"AR","country_id":95,"country_code":"HT","latitude":"19.00000000","longitude":"-72.50000000"},{"id":"55094","name":"D\u00e9sarmes","state_id":4123,"state_code":"AR","country_id":95,"country_code":"HT","latitude":"18.99345000","longitude":"-72.39058000"},{"id":"55091","name":"Dessalines","state_id":4123,"state_code":"AR","country_id":95,"country_code":"HT","latitude":"19.26177000","longitude":"-72.51611000"},{"id":"55095","name":"Ennery","state_id":4123,"state_code":"AR","country_id":95,"country_code":"HT","latitude":"19.48342000","longitude":"-72.48537000"},{"id":"55102","name":"Gona\u00efves","state_id":4123,"state_code":"AR","country_id":95,"country_code":"HT","latitude":"19.44755000","longitude":"-72.68928000"},{"id":"55104","name":"Grande Saline","state_id":4123,"state_code":"AR","country_id":95,"country_code":"HT","latitude":"19.26513000","longitude":"-72.76897000"},{"id":"55107","name":"Gros Morne","state_id":4123,"state_code":"AR","country_id":95,"country_code":"HT","latitude":"19.67080000","longitude":"-72.67808000"},{"id":"55126","name":"Marmelade","state_id":4123,"state_code":"AR","country_id":95,"country_code":"HT","latitude":"19.51736000","longitude":"-72.36133000"},{"id":"55155","name":"Saint-Marc","state_id":4123,"state_code":"AR","country_id":95,"country_code":"HT","latitude":"19.10819000","longitude":"-72.69379000"},{"id":"55166","name":"Verrettes","state_id":4123,"state_code":"AR","country_id":95,"country_code":"HT","latitude":"19.05050000","longitude":"-72.46585000"},{"id":"55048","name":"Anse-\u00e0-Pitre","state_id":4124,"state_code":"SE","country_id":95,"country_code":"HT","latitude":"18.05000000","longitude":"-71.75000000"},{"id":"55053","name":"Arrondissement de Bainet","state_id":4124,"state_code":"SE","country_id":95,"country_code":"HT","latitude":"18.25000000","longitude":"-72.85000000"},{"id":"55057","name":"Arrondissement de Jacmel","state_id":4124,"state_code":"SE","country_id":95,"country_code":"HT","latitude":"18.33333000","longitude":"-72.50000000"},{"id":"55073","name":"Belle-Anse","state_id":4124,"state_code":"SE","country_id":95,"country_code":"HT","latitude":"18.23768000","longitude":"-72.06638000"},{"id":"55081","name":"Cayes-Jacmel","state_id":4124,"state_code":"SE","country_id":95,"country_code":"HT","latitude":"18.23110000","longitude":"-72.39545000"},{"id":"55109","name":"Jacmel","state_id":4124,"state_code":"SE","country_id":95,"country_code":"HT","latitude":"18.23427000","longitude":"-72.53539000"},{"id":"55114","name":"Kotdef\u00e8","state_id":4124,"state_code":"SE","country_id":95,"country_code":"HT","latitude":"18.18872000","longitude":"-73.00287000"},{"id":"55125","name":"Marigot","state_id":4124,"state_code":"SE","country_id":95,"country_code":"HT","latitude":"18.23167000","longitude":"-72.32289000"},{"id":"55157","name":"Thiotte","state_id":4124,"state_code":"SE","country_id":95,"country_code":"HT","latitude":"18.24384000","longitude":"-71.84157000"},{"id":"55054","name":"Arrondissement de Cerca La Source","state_id":4125,"state_code":"CE","country_id":95,"country_code":"HT","latitude":"19.11667000","longitude":"-71.75000000"},{"id":"55082","name":"Cerca la Source","state_id":4125,"state_code":"CE","country_id":95,"country_code":"HT","latitude":"19.16696000","longitude":"-71.79015000"},{"id":"55108","name":"Hinche","state_id":4125,"state_code":"CE","country_id":95,"country_code":"HT","latitude":"19.15000000","longitude":"-72.01667000"},{"id":"55117","name":"Lascahobas","state_id":4125,"state_code":"CE","country_id":95,"country_code":"HT","latitude":"18.83047000","longitude":"-71.93563000"},{"id":"55127","name":"Mayisad","state_id":4125,"state_code":"CE","country_id":95,"country_code":"HT","latitude":"19.17607000","longitude":"-72.13958000"},{"id":"55130","name":"Mirebalais","state_id":4125,"state_code":"CE","country_id":95,"country_code":"HT","latitude":"18.83455000","longitude":"-72.10480000"},{"id":"55158","name":"Thomassique","state_id":4125,"state_code":"CE","country_id":95,"country_code":"HT","latitude":"19.08209000","longitude":"-71.83855000"},{"id":"55160","name":"Thomonde","state_id":4125,"state_code":"CE","country_id":95,"country_code":"HT","latitude":"19.01730000","longitude":"-71.96235000"},{"id":"55051","name":"Arcahaie","state_id":4126,"state_code":"NO","country_id":95,"country_code":"HT","latitude":"19.81667000","longitude":"-72.91667000"},{"id":"55062","name":"Arrondissement de Port-de-Paix","state_id":4126,"state_code":"NO","country_id":95,"country_code":"HT","latitude":"19.83333000","longitude":"-72.88333000"},{"id":"55063","name":"Arrondissement de Saint-Louis du Nord","state_id":4126,"state_code":"NO","country_id":95,"country_code":"HT","latitude":"19.85000000","longitude":"-72.66667000"},{"id":"55068","name":"Arrondissement du M\u00f4le Saint-Nicolas","state_id":4126,"state_code":"NO","country_id":95,"country_code":"HT","latitude":"19.75000000","longitude":"-73.25000000"},{"id":"55071","name":"Baie de Henne","state_id":4126,"state_code":"NO","country_id":95,"country_code":"HT","latitude":"19.66307000","longitude":"-73.20943000"},{"id":"55074","name":"Bombardopolis","state_id":4126,"state_code":"NO","country_id":95,"country_code":"HT","latitude":"19.69142000","longitude":"-73.33769000"},{"id":"55097","name":"Fond Bassin Bleu","state_id":4126,"state_code":"NO","country_id":95,"country_code":"HT","latitude":"19.79445000","longitude":"-72.79949000"},{"id":"55110","name":"Jean-Rabel","state_id":4126,"state_code":"NO","country_id":95,"country_code":"HT","latitude":"19.85379000","longitude":"-73.19131000"},{"id":"55133","name":"M\u00f4le Saint-Nicolas","state_id":4126,"state_code":"NO","country_id":95,"country_code":"HT","latitude":"19.80700000","longitude":"-73.37605000"},{"id":"55138","name":"Petite Anse","state_id":4126,"state_code":"NO","country_id":95,"country_code":"HT","latitude":"19.63011000","longitude":"-73.15499000"},{"id":"55147","name":"Port-de-Paix","state_id":4126,"state_code":"NO","country_id":95,"country_code":"HT","latitude":"19.93984000","longitude":"-72.83037000"},{"id":"55153","name":"Saint-Louis du Nord","state_id":4126,"state_code":"NO","country_id":95,"country_code":"HT","latitude":"19.93397000","longitude":"-72.72138000"},{"id":"55161","name":"Ti Port-de-Paix","state_id":4126,"state_code":"NO","country_id":95,"country_code":"HT","latitude":"19.93333000","longitude":"-72.83333000"}]