[{"id":"65306","name":"Dobong-gu","state_id":3849,"state_code":"11","country_id":116,"country_code":"KR","latitude":"37.65066000","longitude":"127.03011000"},{"id":"65309","name":"Dongdaemun-gu","state_id":3849,"state_code":"11","country_id":116,"country_code":"KR","latitude":"37.58189000","longitude":"127.05408000"},{"id":"65312","name":"Dongjak-gu","state_id":3849,"state_code":"11","country_id":116,"country_code":"KR","latitude":"37.50056000","longitude":"126.95149000"},{"id":"65316","name":"Eunpyeong-gu","state_id":3849,"state_code":"11","country_id":116,"country_code":"KR","latitude":"37.61846000","longitude":"126.92780000"},{"id":"65318","name":"Gangbuk-gu","state_id":3849,"state_code":"11","country_id":116,"country_code":"KR","latitude":"37.63490000","longitude":"127.02015000"},{"id":"65319","name":"Gangdong-gu","state_id":3849,"state_code":"11","country_id":116,"country_code":"KR","latitude":"37.55274000","longitude":"127.14546000"},{"id":"65321","name":"Gangnam-gu","state_id":3849,"state_code":"11","country_id":116,"country_code":"KR","latitude":"37.49510000","longitude":"127.06278000"},{"id":"65324","name":"Gangseo-gu","state_id":3849,"state_code":"11","country_id":116,"country_code":"KR","latitude":"37.56227000","longitude":"126.81622000"},{"id":"65330","name":"Geumcheon-gu","state_id":3849,"state_code":"11","country_id":116,"country_code":"KR","latitude":"37.47486000","longitude":"126.89106000"},{"id":"65357","name":"Guro-gu","state_id":3849,"state_code":"11","country_id":116,"country_code":"KR","latitude":"37.49447000","longitude":"126.85020000"},{"id":"65360","name":"Gwanak-gu","state_id":3849,"state_code":"11","country_id":116,"country_code":"KR","latitude":"37.47876000","longitude":"126.95235000"},{"id":"65361","name":"Gwangjin-gu","state_id":3849,"state_code":"11","country_id":116,"country_code":"KR","latitude":"37.53913000","longitude":"127.08366000"},{"id":"65419","name":"Jongno-gu","state_id":3849,"state_code":"11","country_id":116,"country_code":"KR","latitude":"37.57290000","longitude":"126.97928000"},{"id":"65420","name":"Jung-gu","state_id":3849,"state_code":"11","country_id":116,"country_code":"KR","latitude":"37.55986000","longitude":"126.99398000"},{"id":"65424","name":"Jungnang-gu","state_id":3849,"state_code":"11","country_id":116,"country_code":"KR","latitude":"37.60199000","longitude":"127.10461000"},{"id":"65436","name":"Mapo-gu","state_id":3849,"state_code":"11","country_id":116,"country_code":"KR","latitude":"37.55438000","longitude":"126.90926000"},{"id":"65462","name":"Nowon-gu","state_id":3849,"state_code":"11","country_id":116,"country_code":"KR","latitude":"37.66045000","longitude":"127.06718000"},{"id":"65488","name":"Seocho-gu","state_id":3849,"state_code":"11","country_id":116,"country_code":"KR","latitude":"37.49447000","longitude":"127.01088000"},{"id":"65489","name":"Seodaemun-gu","state_id":3849,"state_code":"11","country_id":116,"country_code":"KR","latitude":"37.57809000","longitude":"126.93506000"},{"id":"65491","name":"Seongbuk-gu","state_id":3849,"state_code":"11","country_id":116,"country_code":"KR","latitude":"37.60267000","longitude":"127.01448000"},{"id":"65492","name":"Seongdong-gu","state_id":3849,"state_code":"11","country_id":116,"country_code":"KR","latitude":"37.54784000","longitude":"127.02461000"},{"id":"65498","name":"Seoul","state_id":3849,"state_code":"11","country_id":116,"country_code":"KR","latitude":"37.56600000","longitude":"126.97840000"},{"id":"65507","name":"Songpa-gu","state_id":3849,"state_code":"11","country_id":116,"country_code":"KR","latitude":"37.50210000","longitude":"127.11113000"},{"id":"65535","name":"Yangcheon-gu","state_id":3849,"state_code":"11","country_id":116,"country_code":"KR","latitude":"37.52157000","longitude":"126.85827000"},{"id":"65551","name":"Yeongdeungpo-gu","state_id":3849,"state_code":"11","country_id":116,"country_code":"KR","latitude":"37.52606000","longitude":"126.90308000"},{"id":"65565","name":"Yongsan-dong","state_id":3849,"state_code":"11","country_id":116,"country_code":"KR","latitude":"37.54450000","longitude":"126.98370000"},{"id":"65566","name":"Yongsan-gu","state_id":3849,"state_code":"11","country_id":116,"country_code":"KR","latitude":"37.53391000","longitude":"126.97750000"}]