[{"id":"65260","name":"Andong","state_id":3855,"state_code":"47","country_id":116,"country_code":"KR","latitude":"36.56636000","longitude":"128.72275000"},{"id":"65261","name":"Andong-si","state_id":3855,"state_code":"47","country_id":116,"country_code":"KR","latitude":"36.56667000","longitude":"128.71667000"},{"id":"65269","name":"Bonghwa-gun","state_id":3855,"state_code":"47","country_id":116,"country_code":"KR","latitude":"36.88951000","longitude":"128.73573000"},{"id":"65288","name":"Cheongdo-gun","state_id":3855,"state_code":"47","country_id":116,"country_code":"KR","latitude":"35.67166000","longitude":"128.78509000"},{"id":"65290","name":"Cheongsong gun","state_id":3855,"state_code":"47","country_id":116,"country_code":"KR","latitude":"36.43351000","longitude":"129.05700000"},{"id":"65291","name":"Cheongsong-gun","state_id":3855,"state_code":"47","country_id":116,"country_code":"KR","latitude":"36.43288000","longitude":"129.05159000"},{"id":"65294","name":"Chilgok-gun","state_id":3855,"state_code":"47","country_id":116,"country_code":"KR","latitude":"36.01512000","longitude":"128.46138000"},{"id":"65314","name":"Eisen","state_id":3855,"state_code":"47","country_id":116,"country_code":"KR","latitude":"36.82167000","longitude":"128.63083000"},{"id":"65335","name":"Gimcheon","state_id":3855,"state_code":"47","country_id":116,"country_code":"KR","latitude":"36.12176000","longitude":"128.11981000"},{"id":"65336","name":"Gimcheon-si","state_id":3855,"state_code":"47","country_id":116,"country_code":"KR","latitude":"36.14481000","longitude":"128.11157000"},{"id":"65346","name":"Goryeong-gun","state_id":3855,"state_code":"47","country_id":116,"country_code":"KR","latitude":"35.74959000","longitude":"128.29707000"},{"id":"65351","name":"Gumi-si","state_id":3855,"state_code":"47","country_id":116,"country_code":"KR","latitude":"36.21009000","longitude":"128.35442000"},{"id":"65355","name":"Gunwi-gun","state_id":3855,"state_code":"47","country_id":116,"country_code":"KR","latitude":"36.16995000","longitude":"128.64705000"},{"id":"65369","name":"Gyeongju","state_id":3855,"state_code":"47","country_id":116,"country_code":"KR","latitude":"35.84278000","longitude":"129.21167000"},{"id":"65370","name":"Gyeongsan-si","state_id":3855,"state_code":"47","country_id":116,"country_code":"KR","latitude":"35.83333000","longitude":"128.80000000"},{"id":"65381","name":"Hayang","state_id":3855,"state_code":"47","country_id":116,"country_code":"KR","latitude":"35.91333000","longitude":"128.82000000"},{"id":"65382","name":"Heunghae","state_id":3855,"state_code":"47","country_id":116,"country_code":"KR","latitude":"36.10945000","longitude":"129.34517000"},{"id":"65408","name":"Jenzan","state_id":3855,"state_code":"47","country_id":116,"country_code":"KR","latitude":"36.24083000","longitude":"128.29750000"},{"id":"65431","name":"Kunwi","state_id":3855,"state_code":"47","country_id":116,"country_code":"KR","latitude":"36.23472000","longitude":"128.57278000"},{"id":"65446","name":"Mungyeong","state_id":3855,"state_code":"47","country_id":116,"country_code":"KR","latitude":"36.59458000","longitude":"128.19946000"},{"id":"65447","name":"Mungyeong-si","state_id":3855,"state_code":"47","country_id":116,"country_code":"KR","latitude":"36.58755000","longitude":"128.18624000"},{"id":"65469","name":"Pohang","state_id":3855,"state_code":"47","country_id":116,"country_code":"KR","latitude":"36.02917000","longitude":"129.36481000"},{"id":"65470","name":"Pohang-si","state_id":3855,"state_code":"47","country_id":116,"country_code":"KR","latitude":"36.08333000","longitude":"129.36667000"},{"id":"65480","name":"Sangju","state_id":3855,"state_code":"47","country_id":116,"country_code":"KR","latitude":"36.41528000","longitude":"128.16056000"},{"id":"65494","name":"Seongju-gun","state_id":3855,"state_code":"47","country_id":116,"country_code":"KR","latitude":"35.91888000","longitude":"128.28838000"},{"id":"65522","name":"Uiseong-gun","state_id":3855,"state_code":"47","country_id":116,"country_code":"KR","latitude":"36.36122000","longitude":"128.61517000"},{"id":"65524","name":"Uljin-gun","state_id":3855,"state_code":"47","country_id":116,"country_code":"KR","latitude":"36.91968000","longitude":"129.31966000"},{"id":"65526","name":"Ulleung-gun","state_id":3855,"state_code":"47","country_id":116,"country_code":"KR","latitude":"37.50442000","longitude":"130.86084000"},{"id":"65530","name":"Waegwan","state_id":3855,"state_code":"47","country_id":116,"country_code":"KR","latitude":"35.99251000","longitude":"128.39785000"},{"id":"65544","name":"Yecheon-gun","state_id":3855,"state_code":"47","country_id":116,"country_code":"KR","latitude":"36.65272000","longitude":"128.43007000"},{"id":"65549","name":"Yeongcheon-si","state_id":3855,"state_code":"47","country_id":116,"country_code":"KR","latitude":"36.00000000","longitude":"129.00000000"},{"id":"65550","name":"Yeongdeok-gun","state_id":3855,"state_code":"47","country_id":116,"country_code":"KR","latitude":"36.48125000","longitude":"129.31078000"},{"id":"65557","name":"Yeongju-si","state_id":3855,"state_code":"47","country_id":116,"country_code":"KR","latitude":"36.87459000","longitude":"128.58631000"},{"id":"65558","name":"Yeongyang-gun","state_id":3855,"state_code":"47","country_id":116,"country_code":"KR","latitude":"36.69592000","longitude":"129.14196000"},{"id":"65559","name":"Yeonil","state_id":3855,"state_code":"47","country_id":116,"country_code":"KR","latitude":"35.99526000","longitude":"129.35162000"}]