[{"id":"65267","name":"Beolgyo","state_id":3856,"state_code":"46","country_id":116,"country_code":"KR","latitude":"34.84897000","longitude":"127.34052000"},{"id":"65272","name":"Boseong-gun","state_id":3856,"state_code":"46","country_id":116,"country_code":"KR","latitude":"34.84622000","longitude":"127.22189000"},{"id":"65304","name":"Damyang-gun","state_id":3856,"state_code":"46","country_id":116,"country_code":"KR","latitude":"35.33976000","longitude":"126.99125000"},{"id":"65320","name":"Gangjin-gun","state_id":3856,"state_code":"46","country_id":116,"country_code":"KR","latitude":"34.61787000","longitude":"126.76758000"},{"id":"65342","name":"Goheung-gun","state_id":3856,"state_code":"46","country_id":116,"country_code":"KR","latitude":"34.58333000","longitude":"127.33333000"},{"id":"65343","name":"Gokseong-gun","state_id":3856,"state_code":"46","country_id":116,"country_code":"KR","latitude":"35.21449000","longitude":"127.26280000"},{"id":"65358","name":"Gurye-gun","state_id":3856,"state_code":"46","country_id":116,"country_code":"KR","latitude":"35.23616000","longitude":"127.50129000"},{"id":"65367","name":"Gwangyang","state_id":3856,"state_code":"46","country_id":116,"country_code":"KR","latitude":"34.94140000","longitude":"127.69569000"},{"id":"65368","name":"Gwangyang-si","state_id":3856,"state_code":"46","country_id":116,"country_code":"KR","latitude":"35.04007000","longitude":"127.60949000"},{"id":"65373","name":"Haenam","state_id":3856,"state_code":"46","country_id":116,"country_code":"KR","latitude":"34.57111000","longitude":"126.59889000"},{"id":"65374","name":"Haenam-gun","state_id":3856,"state_code":"46","country_id":116,"country_code":"KR","latitude":"34.54047000","longitude":"126.51870000"},{"id":"65377","name":"Hampyeong-gun","state_id":3856,"state_code":"46","country_id":116,"country_code":"KR","latitude":"35.14988000","longitude":"126.53337000"},{"id":"65392","name":"Hwasun","state_id":3856,"state_code":"46","country_id":116,"country_code":"KR","latitude":"35.06125000","longitude":"126.98746000"},{"id":"65393","name":"Hwasun-gun","state_id":3856,"state_code":"46","country_id":116,"country_code":"KR","latitude":"35.00468000","longitude":"127.02648000"},{"id":"65402","name":"Jangheung-gun","state_id":3856,"state_code":"46","country_id":116,"country_code":"KR","latitude":"34.70555000","longitude":"126.94905000"},{"id":"65403","name":"Jangseong-gun","state_id":3856,"state_code":"46","country_id":116,"country_code":"KR","latitude":"35.32734000","longitude":"126.76817000"},{"id":"65417","name":"Jindo-gun","state_id":3856,"state_code":"46","country_id":116,"country_code":"KR","latitude":"34.41958000","longitude":"126.22599000"},{"id":"65432","name":"Kurye","state_id":3856,"state_code":"46","country_id":116,"country_code":"KR","latitude":"35.20944000","longitude":"127.46444000"},{"id":"65434","name":"Kwangyang","state_id":3856,"state_code":"46","country_id":116,"country_code":"KR","latitude":"34.97528000","longitude":"127.58917000"},{"id":"65441","name":"Mokpo","state_id":3856,"state_code":"46","country_id":116,"country_code":"KR","latitude":"34.81282000","longitude":"126.39181000"},{"id":"65442","name":"Mokpo-si","state_id":3856,"state_code":"46","country_id":116,"country_code":"KR","latitude":"34.81226000","longitude":"126.39179000"},{"id":"65443","name":"Muan","state_id":3856,"state_code":"46","country_id":116,"country_code":"KR","latitude":"34.99014000","longitude":"126.47899000"},{"id":"65444","name":"Muan-gun","state_id":3856,"state_code":"46","country_id":116,"country_code":"KR","latitude":"34.95642000","longitude":"126.44041000"},{"id":"65450","name":"Naju","state_id":3856,"state_code":"46","country_id":116,"country_code":"KR","latitude":"35.02920000","longitude":"126.71750000"},{"id":"65451","name":"Naju-si","state_id":3856,"state_code":"46","country_id":116,"country_code":"KR","latitude":"35.05683000","longitude":"126.67362000"},{"id":"65500","name":"Sinan","state_id":3856,"state_code":"46","country_id":116,"country_code":"KR","latitude":"34.82620000","longitude":"126.10863000"},{"id":"65501","name":"Sinan-gun","state_id":3856,"state_code":"46","country_id":116,"country_code":"KR","latitude":"34.83107000","longitude":"126.09872000"},{"id":"65509","name":"Suncheon","state_id":3856,"state_code":"46","country_id":116,"country_code":"KR","latitude":"34.95050000","longitude":"127.48784000"},{"id":"65510","name":"Suncheon-si","state_id":3856,"state_code":"46","country_id":116,"country_code":"KR","latitude":"34.97162000","longitude":"127.46096000"},{"id":"65531","name":"Wando-gun","state_id":3856,"state_code":"46","country_id":116,"country_code":"KR","latitude":"34.31182000","longitude":"126.73845000"},{"id":"65547","name":"Yeongam","state_id":3856,"state_code":"46","country_id":116,"country_code":"KR","latitude":"34.80059000","longitude":"126.69669000"},{"id":"65548","name":"Yeongam-gun","state_id":3856,"state_code":"46","country_id":116,"country_code":"KR","latitude":"34.79790000","longitude":"126.62651000"},{"id":"65555","name":"Yeonggwang","state_id":3856,"state_code":"46","country_id":116,"country_code":"KR","latitude":"35.27814000","longitude":"126.51181000"},{"id":"65556","name":"Yeonggwang-gun","state_id":3856,"state_code":"46","country_id":116,"country_code":"KR","latitude":"35.28711000","longitude":"126.43616000"},{"id":"65561","name":"Yeosu","state_id":3856,"state_code":"46","country_id":116,"country_code":"KR","latitude":"34.76062000","longitude":"127.66215000"}]