[{"id":"65265","name":"Asan","state_id":3859,"state_code":"44","country_id":116,"country_code":"KR","latitude":"36.78361000","longitude":"127.00417000"},{"id":"65266","name":"Asan-si","state_id":3859,"state_code":"44","country_id":116,"country_code":"KR","latitude":"36.80791000","longitude":"126.97769000"},{"id":"65270","name":"Boryeong","state_id":3859,"state_code":"44","country_id":116,"country_code":"KR","latitude":"36.34931000","longitude":"126.59772000"},{"id":"65271","name":"Boryeong-si","state_id":3859,"state_code":"44","country_id":116,"country_code":"KR","latitude":"36.35649000","longitude":"126.59444000"},{"id":"65279","name":"Buyeo","state_id":3859,"state_code":"44","country_id":116,"country_code":"KR","latitude":"36.27472000","longitude":"126.90906000"},{"id":"65280","name":"Buyeo-gun","state_id":3859,"state_code":"44","country_id":116,"country_code":"KR","latitude":"36.26257000","longitude":"126.85802000"},{"id":"65286","name":"Cheonan","state_id":3859,"state_code":"44","country_id":116,"country_code":"KR","latitude":"36.80650000","longitude":"127.15220000"},{"id":"65287","name":"Cheonan-si","state_id":3859,"state_code":"44","country_id":116,"country_code":"KR","latitude":"36.80488000","longitude":"127.19431000"},{"id":"65292","name":"Cheongyang-gun","state_id":3859,"state_code":"44","country_id":116,"country_code":"KR","latitude":"36.41676000","longitude":"126.79419000"},{"id":"65332","name":"Geumsan-gun","state_id":3859,"state_code":"44","country_id":116,"country_code":"KR","latitude":"36.13381000","longitude":"127.48062000"},{"id":"65344","name":"Gongju","state_id":3859,"state_code":"44","country_id":116,"country_code":"KR","latitude":"36.45556000","longitude":"127.12472000"},{"id":"65345","name":"Gongju-si","state_id":3859,"state_code":"44","country_id":116,"country_code":"KR","latitude":"36.50000000","longitude":"127.08333000"},{"id":"65371","name":"Gyeryong-si","state_id":3859,"state_code":"44","country_id":116,"country_code":"KR","latitude":"36.29304000","longitude":"127.22575000"},{"id":"65386","name":"Hongseong","state_id":3859,"state_code":"44","country_id":116,"country_code":"KR","latitude":"36.60090000","longitude":"126.66500000"},{"id":"65387","name":"Hongseong-gun","state_id":3859,"state_code":"44","country_id":116,"country_code":"KR","latitude":"36.56705000","longitude":"126.62626000"},{"id":"65427","name":"Kinzan","state_id":3859,"state_code":"44","country_id":116,"country_code":"KR","latitude":"36.10306000","longitude":"127.48889000"},{"id":"65460","name":"Nonsan","state_id":3859,"state_code":"44","country_id":116,"country_code":"KR","latitude":"36.20389000","longitude":"127.08472000"},{"id":"65461","name":"Nonsan-si","state_id":3859,"state_code":"44","country_id":116,"country_code":"KR","latitude":"36.19774000","longitude":"127.12143000"},{"id":"65487","name":"Seocheon-gun","state_id":3859,"state_code":"44","country_id":116,"country_code":"KR","latitude":"36.10600000","longitude":"126.69716000"},{"id":"65493","name":"Seonghwan","state_id":3859,"state_code":"44","country_id":116,"country_code":"KR","latitude":"36.91556000","longitude":"127.13139000"},{"id":"65496","name":"Seosan","state_id":3859,"state_code":"44","country_id":116,"country_code":"KR","latitude":"36.78167000","longitude":"126.45222000"},{"id":"65497","name":"Seosan-si","state_id":3859,"state_code":"44","country_id":116,"country_code":"KR","latitude":"36.78518000","longitude":"126.46568000"},{"id":"65514","name":"Taean-gun","state_id":3859,"state_code":"44","country_id":116,"country_code":"KR","latitude":"36.70036000","longitude":"126.28391000"},{"id":"65516","name":"Taesal-li","state_id":3859,"state_code":"44","country_id":116,"country_code":"KR","latitude":"36.97140000","longitude":"126.45420000"},{"id":"65517","name":"Tangjin","state_id":3859,"state_code":"44","country_id":116,"country_code":"KR","latitude":"36.89444000","longitude":"126.62972000"},{"id":"65568","name":"Yonmu","state_id":3859,"state_code":"44","country_id":116,"country_code":"KR","latitude":"36.12944000","longitude":"127.10000000"},{"id":"65562","name":"Yesan","state_id":3859,"state_code":"44","country_id":116,"country_code":"KR","latitude":"36.67756000","longitude":"126.84272000"},{"id":"65563","name":"Yesan-gun","state_id":3859,"state_code":"44","country_id":116,"country_code":"KR","latitude":"36.68218000","longitude":"126.79592000"}]