[{"id":"9160","name":"Bati\u00e9","state_id":3140,"state_code":"13","country_id":35,"country_code":"BF","latitude":"9.88333000","longitude":"-2.91667000"},{"id":"9167","name":"Dano","state_id":3140,"state_code":"13","country_id":35,"country_code":"BF","latitude":"11.14640000","longitude":"-3.05784000"},{"id":"9169","name":"Di\u00e9bougou","state_id":3140,"state_code":"13","country_id":35,"country_code":"BF","latitude":"10.96209000","longitude":"-3.24967000"},{"id":"9199","name":"Province de la Bougouriba","state_id":3140,"state_code":"13","country_id":35,"country_code":"BF","latitude":"10.83333000","longitude":"-3.41667000"},{"id":"9216","name":"Province du Ioba","state_id":3140,"state_code":"13","country_id":35,"country_code":"BF","latitude":"11.08333000","longitude":"-3.08333000"},{"id":"9224","name":"Province du Noumbi\u00e8l","state_id":3140,"state_code":"13","country_id":35,"country_code":"BF","latitude":"9.83333000","longitude":"-3.00000000"},{"id":"9226","name":"Province du Poni","state_id":3140,"state_code":"13","country_id":35,"country_code":"BF","latitude":"10.25000000","longitude":"-3.41667000"}]