[{"id":"639","name":"Achiras","state_id":3642,"state_code":"X","country_id":11,"country_code":"AR","latitude":"-33.17538000","longitude":"-64.99331000"},{"id":"640","name":"Adelia Mar\u00eda","state_id":3642,"state_code":"X","country_id":11,"country_code":"AR","latitude":"-33.63152000","longitude":"-64.02097000"},{"id":"641","name":"Agua de Oro","state_id":3642,"state_code":"X","country_id":11,"country_code":"AR","latitude":"-31.06661000","longitude":"-64.30017000"},{"id":"647","name":"Alejandro Roca","state_id":3642,"state_code":"X","country_id":11,"country_code":"AR","latitude":"-33.35369000","longitude":"-63.71849000"},{"id":"648","name":"Alejo Ledesma","state_id":3642,"state_code":"X","country_id":11,"country_code":"AR","latitude":"-33.60643000","longitude":"-62.62304000"},{"id":"651","name":"Almafuerte","state_id":3642,"state_code":"X","country_id":11,"country_code":"AR","latitude":"-32.19296000","longitude":"-64.25559000"},{"id":"653","name":"Alta Gracia","state_id":3642,"state_code":"X","country_id":11,"country_code":"AR","latitude":"-31.65292000","longitude":"-64.42826000"},{"id":"656","name":"Altos de Chipi\u00f3n","state_id":3642,"state_code":"X","country_id":11,"country_code":"AR","latitude":"-30.95590000","longitude":"-62.33727000"},{"id":"668","name":"Arias","state_id":3642,"state_code":"X","country_id":11,"country_code":"AR","latitude":"-33.64411000","longitude":"-62.40272000"},{"id":"671","name":"Arroyito","state_id":3642,"state_code":"X","country_id":11,"country_code":"AR","latitude":"-31.42022000","longitude":"-63.05002000"},{"id":"672","name":"Arroyo Cabral","state_id":3642,"state_code":"X","country_id":11,"country_code":"AR","latitude":"-32.49119000","longitude":"-63.40126000"},{"id":"681","name":"Balnearia","state_id":3642,"state_code":"X","country_id":11,"country_code":"AR","latitude":"-31.00880000","longitude":"-62.66733000"},{"id":"688","name":"Bell Ville","state_id":3642,"state_code":"X","country_id":11,"country_code":"AR","latitude":"-32.62591000","longitude":"-62.68873000"},{"id":"695","name":"Berrotar\u00e1n","state_id":3642,"state_code":"X","country_id":11,"country_code":"AR","latitude":"-32.45100000","longitude":"-64.38867000"},{"id":"701","name":"Brinkmann","state_id":3642,"state_code":"X","country_id":11,"country_code":"AR","latitude":"-30.86589000","longitude":"-62.03742000"},{"id":"702","name":"Buchardo","state_id":3642,"state_code":"X","country_id":11,"country_code":"AR","latitude":"-34.72263000","longitude":"-63.50920000"},{"id":"744","name":"Ca\u00f1ada de Luque","state_id":3642,"state_code":"X","country_id":11,"country_code":"AR","latitude":"-30.73341000","longitude":"-63.72375000"},{"id":"716","name":"Camilo Aldao","state_id":3642,"state_code":"X","country_id":11,"country_code":"AR","latitude":"-33.12745000","longitude":"-62.09453000"},{"id":"723","name":"Canals","state_id":3642,"state_code":"X","country_id":11,"country_code":"AR","latitude":"-33.56542000","longitude":"-62.88927000"},{"id":"727","name":"Capilla del Monte","state_id":3642,"state_code":"X","country_id":11,"country_code":"AR","latitude":"-30.86088000","longitude":"-64.52515000"},{"id":"733","name":"Carnerillo","state_id":3642,"state_code":"X","country_id":11,"country_code":"AR","latitude":"-32.91371000","longitude":"-64.02175000"},{"id":"734","name":"Carrilobo","state_id":3642,"state_code":"X","country_id":11,"country_code":"AR","latitude":"-31.87296000","longitude":"-63.11715000"},{"id":"742","name":"Cavanagh","state_id":3642,"state_code":"X","country_id":11,"country_code":"AR","latitude":"-33.47606000","longitude":"-62.33888000"},{"id":"815","name":"C\u00f3rdoba","state_id":3642,"state_code":"X","country_id":11,"country_code":"AR","latitude":"-31.41350000","longitude":"-64.18105000"},{"id":"755","name":"Charras","state_id":3642,"state_code":"X","country_id":11,"country_code":"AR","latitude":"-33.02400000","longitude":"-64.04719000"},{"id":"757","name":"Chaz\u00f3n","state_id":3642,"state_code":"X","country_id":11,"country_code":"AR","latitude":"-33.07872000","longitude":"-63.27657000"},{"id":"769","name":"Cintra","state_id":3642,"state_code":"X","country_id":11,"country_code":"AR","latitude":"-32.30673000","longitude":"-62.65214000"},{"id":"780","name":"Colonia La Tordilla","state_id":3642,"state_code":"X","country_id":11,"country_code":"AR","latitude":"-31.23746000","longitude":"-63.06134000"},{"id":"781","name":"Colonia San Bartolom\u00e9","state_id":3642,"state_code":"X","country_id":11,"country_code":"AR","latitude":"-31.52780000","longitude":"-62.72436000"},{"id":"797","name":"Coronel Baigorria","state_id":3642,"state_code":"X","country_id":11,"country_code":"AR","latitude":"-32.84770000","longitude":"-64.36107000"},{"id":"800","name":"Coronel Moldes","state_id":3642,"state_code":"X","country_id":11,"country_code":"AR","latitude":"-33.62270000","longitude":"-64.59711000"},{"id":"801","name":"Corral de Bustos","state_id":3642,"state_code":"X","country_id":11,"country_code":"AR","latitude":"-33.28205000","longitude":"-62.18463000"},{"id":"802","name":"Corralito","state_id":3642,"state_code":"X","country_id":11,"country_code":"AR","latitude":"-32.02462000","longitude":"-64.19216000"},{"id":"805","name":"Cosqu\u00edn","state_id":3642,"state_code":"X","country_id":11,"country_code":"AR","latitude":"-31.24508000","longitude":"-64.46563000"},{"id":"806","name":"Costa Sacate","state_id":3642,"state_code":"X","country_id":11,"country_code":"AR","latitude":"-31.64770000","longitude":"-63.75935000"},{"id":"809","name":"Cruz Alta","state_id":3642,"state_code":"X","country_id":11,"country_code":"AR","latitude":"-33.00887000","longitude":"-61.80746000"},{"id":"811","name":"Cruz del Eje","state_id":3642,"state_code":"X","country_id":11,"country_code":"AR","latitude":"-30.72644000","longitude":"-64.80387000"},{"id":"812","name":"Cuesta Blanca","state_id":3642,"state_code":"X","country_id":11,"country_code":"AR","latitude":"-31.48658000","longitude":"-64.57150000"},{"id":"816","name":"Dalmacio V\u00e9lez S\u00e1rsfield","state_id":3642,"state_code":"X","country_id":11,"country_code":"AR","latitude":"-32.61072000","longitude":"-63.58038000"},{"id":"1039","name":"De\u00e1n Funes","state_id":3642,"state_code":"X","country_id":11,"country_code":"AR","latitude":"-30.42036000","longitude":"-64.34984000"},{"id":"818","name":"Del Campillo","state_id":3642,"state_code":"X","country_id":11,"country_code":"AR","latitude":"-34.37659000","longitude":"-64.49504000"},{"id":"842","name":"Departamento de Calamuchita","state_id":3642,"state_code":"X","country_id":11,"country_code":"AR","latitude":"-32.25000000","longitude":"-64.58333000"},{"id":"864","name":"Departamento de Col\u00f3n","state_id":3642,"state_code":"X","country_id":11,"country_code":"AR","latitude":"-31.16667000","longitude":"-64.16667000"},{"id":"871","name":"Departamento de Cruz del Eje","state_id":3642,"state_code":"X","country_id":11,"country_code":"AR","latitude":"-30.75000000","longitude":"-65.00000000"},{"id":"896","name":"Departamento de General Roca","state_id":3642,"state_code":"X","country_id":11,"country_code":"AR","latitude":"-34.66667000","longitude":"-64.25000000"},{"id":"897","name":"Departamento de General San Mart\u00edn","state_id":3642,"state_code":"X","country_id":11,"country_code":"AR","latitude":"-32.50000000","longitude":"-63.33333000"},{"id":"914","name":"Departamento de Ju\u00e1rez Celman","state_id":3642,"state_code":"X","country_id":11,"country_code":"AR","latitude":"-33.33333000","longitude":"-63.66667000"},{"id":"939","name":"Departamento de Marcos Ju\u00e1rez","state_id":3642,"state_code":"X","country_id":11,"country_code":"AR","latitude":"-33.00000000","longitude":"-62.25000000"},{"id":"943","name":"Departamento de Minas","state_id":3642,"state_code":"X","country_id":11,"country_code":"AR","latitude":"-31.00000000","longitude":"-65.33333000"},{"id":"961","name":"Departamento de Presidente Roque S\u00e1enz Pe\u00f1a","state_id":3642,"state_code":"X","country_id":11,"country_code":"AR","latitude":"-34.25000000","longitude":"-63.50000000"},{"id":"974","name":"Departamento de R\u00edo Cuarto","state_id":3642,"state_code":"X","country_id":11,"country_code":"AR","latitude":"-33.33333000","longitude":"-64.50000000"},{"id":"976","name":"Departamento de R\u00edo Primero","state_id":3642,"state_code":"X","country_id":11,"country_code":"AR","latitude":"-31.08333000","longitude":"-63.50000000"},{"id":"977","name":"Departamento de R\u00edo Seco","state_id":3642,"state_code":"X","country_id":11,"country_code":"AR","latitude":"-30.08333000","longitude":"-63.00000000"},{"id":"978","name":"Departamento de R\u00edo Segundo","state_id":3642,"state_code":"X","country_id":11,"country_code":"AR","latitude":"-31.75000000","longitude":"-63.50000000"},{"id":"981","name":"Departamento de San Alberto","state_id":3642,"state_code":"X","country_id":11,"country_code":"AR","latitude":"-31.75000000","longitude":"-65.25000000"},{"id":"990","name":"Departamento de San Javier","state_id":3642,"state_code":"X","country_id":11,"country_code":"AR","latitude":"-32.08333000","longitude":"-65.16667000"},{"id":"991","name":"Departamento de San Justo","state_id":3642,"state_code":"X","country_id":11,"country_code":"AR","latitude":"-31.33333000","longitude":"-62.66667000"},{"id":"1016","name":"Departamento de Sobremonte","state_id":3642,"state_code":"X","country_id":11,"country_code":"AR","latitude":"-29.66667000","longitude":"-64.08333000"},{"id":"1022","name":"Departamento de Totoral","state_id":3642,"state_code":"X","country_id":11,"country_code":"AR","latitude":"-30.83333000","longitude":"-63.91667000"},{"id":"1024","name":"Departamento de Tulumba","state_id":3642,"state_code":"X","country_id":11,"country_code":"AR","latitude":"-30.25000000","longitude":"-63.91667000"},{"id":"1029","name":"Departamento de Uni\u00f3n","state_id":3642,"state_code":"X","country_id":11,"country_code":"AR","latitude":"-32.83333000","longitude":"-62.75000000"},{"id":"1037","name":"Despe\u00f1aderos","state_id":3642,"state_code":"X","country_id":11,"country_code":"AR","latitude":"-31.81626000","longitude":"-64.28989000"},{"id":"1038","name":"Devoto","state_id":3642,"state_code":"X","country_id":11,"country_code":"AR","latitude":"-31.40431000","longitude":"-62.30634000"},{"id":"1049","name":"El Ara\u00f1ado","state_id":3642,"state_code":"X","country_id":11,"country_code":"AR","latitude":"-31.74120000","longitude":"-62.89322000"},{"id":"1063","name":"El T\u00edo","state_id":3642,"state_code":"X","country_id":11,"country_code":"AR","latitude":"-31.38357000","longitude":"-62.82938000"},{"id":"1064","name":"Elena","state_id":3642,"state_code":"X","country_id":11,"country_code":"AR","latitude":"-32.57205000","longitude":"-64.39481000"},{"id":"1066","name":"Embalse","state_id":3642,"state_code":"X","country_id":11,"country_code":"AR","latitude":"-32.18000000","longitude":"-64.41809000"},{"id":"1073","name":"Etruria","state_id":3642,"state_code":"X","country_id":11,"country_code":"AR","latitude":"-32.94008000","longitude":"-63.24660000"},{"id":"1096","name":"General Baldissera","state_id":3642,"state_code":"X","country_id":11,"country_code":"AR","latitude":"-33.12246000","longitude":"-62.30630000"},{"id":"1097","name":"General Cabrera","state_id":3642,"state_code":"X","country_id":11,"country_code":"AR","latitude":"-32.81313000","longitude":"-63.87243000"},{"id":"1106","name":"General Levalle","state_id":3642,"state_code":"X","country_id":11,"country_code":"AR","latitude":"-34.01472000","longitude":"-63.92413000"},{"id":"1111","name":"General Roca","state_id":3642,"state_code":"X","country_id":11,"country_code":"AR","latitude":"-32.73196000","longitude":"-61.91599000"},{"id":"1129","name":"Guatimoz\u00edn","state_id":3642,"state_code":"X","country_id":11,"country_code":"AR","latitude":"-33.46149000","longitude":"-62.43844000"},{"id":"1136","name":"Hernando","state_id":3642,"state_code":"X","country_id":11,"country_code":"AR","latitude":"-32.42657000","longitude":"-63.73333000"},{"id":"1143","name":"Huanchillas","state_id":3642,"state_code":"X","country_id":11,"country_code":"AR","latitude":"-33.66653000","longitude":"-63.63701000"},{"id":"1144","name":"Huerta Grande","state_id":3642,"state_code":"X","country_id":11,"country_code":"AR","latitude":"-31.07524000","longitude":"-64.49063000"},{"id":"1146","name":"Huinca Renanc\u00f3","state_id":3642,"state_code":"X","country_id":11,"country_code":"AR","latitude":"-34.84038000","longitude":"-64.37580000"},{"id":"1150","name":"Idiaz\u00e1bal","state_id":3642,"state_code":"X","country_id":11,"country_code":"AR","latitude":"-32.81411000","longitude":"-63.03252000"},{"id":"1156","name":"Inriville","state_id":3642,"state_code":"X","country_id":11,"country_code":"AR","latitude":"-32.94424000","longitude":"-62.23028000"},{"id":"1159","name":"Isla Verde","state_id":3642,"state_code":"X","country_id":11,"country_code":"AR","latitude":"-33.24104000","longitude":"-62.40297000"},{"id":"1160","name":"Ital\u00f3","state_id":3642,"state_code":"X","country_id":11,"country_code":"AR","latitude":"-34.79237000","longitude":"-63.78199000"},{"id":"1165","name":"James Craik","state_id":3642,"state_code":"X","country_id":11,"country_code":"AR","latitude":"-32.16120000","longitude":"-63.46688000"},{"id":"1167","name":"Jes\u00fas Mar\u00eda","state_id":3642,"state_code":"X","country_id":11,"country_code":"AR","latitude":"-30.98153000","longitude":"-64.09424000"},{"id":"1173","name":"Justiniano Posse","state_id":3642,"state_code":"X","country_id":11,"country_code":"AR","latitude":"-32.88411000","longitude":"-62.67788000"},{"id":"1178","name":"La Calera","state_id":3642,"state_code":"X","country_id":11,"country_code":"AR","latitude":"-31.34377000","longitude":"-64.33529000"},{"id":"1179","name":"La Carlota","state_id":3642,"state_code":"X","country_id":11,"country_code":"AR","latitude":"-33.41993000","longitude":"-63.29769000"},{"id":"1180","name":"La Cesira","state_id":3642,"state_code":"X","country_id":11,"country_code":"AR","latitude":"-33.95115000","longitude":"-62.97238000"},{"id":"1185","name":"La Cumbre","state_id":3642,"state_code":"X","country_id":11,"country_code":"AR","latitude":"-30.98201000","longitude":"-64.49139000"},{"id":"1188","name":"La Falda","state_id":3642,"state_code":"X","country_id":11,"country_code":"AR","latitude":"-31.08841000","longitude":"-64.48987000"},{"id":"1189","name":"La Francia","state_id":3642,"state_code":"X","country_id":11,"country_code":"AR","latitude":"-31.40675000","longitude":"-62.63396000"},{"id":"1190","name":"La Granja","state_id":3642,"state_code":"X","country_id":11,"country_code":"AR","latitude":"-31.00919000","longitude":"-64.26869000"},{"id":"1194","name":"La Para","state_id":3642,"state_code":"X","country_id":11,"country_code":"AR","latitude":"-30.89416000","longitude":"-63.00107000"},{"id":"1196","name":"La Playosa","state_id":3642,"state_code":"X","country_id":11,"country_code":"AR","latitude":"-32.10002000","longitude":"-63.03088000"},{"id":"1204","name":"Laborde","state_id":3642,"state_code":"X","country_id":11,"country_code":"AR","latitude":"-33.15319000","longitude":"-62.85661000"},{"id":"1205","name":"Laboulaye","state_id":3642,"state_code":"X","country_id":11,"country_code":"AR","latitude":"-34.12662000","longitude":"-63.39119000"},{"id":"1207","name":"Laguna Larga","state_id":3642,"state_code":"X","country_id":11,"country_code":"AR","latitude":"-31.77652000","longitude":"-63.80104000"},{"id":"1215","name":"Las Acequias","state_id":3642,"state_code":"X","country_id":11,"country_code":"AR","latitude":"-33.28155000","longitude":"-63.97610000"},{"id":"1221","name":"Las Higueras","state_id":3642,"state_code":"X","country_id":11,"country_code":"AR","latitude":"-33.09231000","longitude":"-64.28899000"},{"id":"1222","name":"Las Junturas","state_id":3642,"state_code":"X","country_id":11,"country_code":"AR","latitude":"-31.83125000","longitude":"-63.45016000"},{"id":"1228","name":"Las Perdices","state_id":3642,"state_code":"X","country_id":11,"country_code":"AR","latitude":"-32.69794000","longitude":"-63.70634000"},{"id":"1232","name":"Las Varas","state_id":3642,"state_code":"X","country_id":11,"country_code":"AR","latitude":"-31.80260000","longitude":"-62.61655000"},{"id":"1233","name":"Las Varillas","state_id":3642,"state_code":"X","country_id":11,"country_code":"AR","latitude":"-31.87208000","longitude":"-62.71946000"},{"id":"1234","name":"Leones","state_id":3642,"state_code":"X","country_id":11,"country_code":"AR","latitude":"-32.66174000","longitude":"-62.29678000"},{"id":"1248","name":"Los C\u00f3ndores","state_id":3642,"state_code":"X","country_id":11,"country_code":"AR","latitude":"-32.31983000","longitude":"-64.27751000"},{"id":"1246","name":"Los Cocos","state_id":3642,"state_code":"X","country_id":11,"country_code":"AR","latitude":"-30.92497000","longitude":"-64.50207000"},{"id":"1254","name":"Los Surgentes","state_id":3642,"state_code":"X","country_id":11,"country_code":"AR","latitude":"-32.98454000","longitude":"-62.02191000"},{"id":"1266","name":"Malague\u00f1o","state_id":3642,"state_code":"X","country_id":11,"country_code":"AR","latitude":"-31.46467000","longitude":"-64.35840000"},{"id":"1267","name":"Malvinas Argentinas","state_id":3642,"state_code":"X","country_id":11,"country_code":"AR","latitude":"-31.38194000","longitude":"-64.05545000"},{"id":"1269","name":"Marcos Ju\u00e1rez","state_id":3642,"state_code":"X","country_id":11,"country_code":"AR","latitude":"-32.69780000","longitude":"-62.10672000"},{"id":"1273","name":"Marull","state_id":3642,"state_code":"X","country_id":11,"country_code":"AR","latitude":"-30.99471000","longitude":"-62.82576000"},{"id":"1274","name":"Mattaldi","state_id":3642,"state_code":"X","country_id":11,"country_code":"AR","latitude":"-34.48194000","longitude":"-64.17255000"},{"id":"1277","name":"Mendiolaza","state_id":3642,"state_code":"X","country_id":11,"country_code":"AR","latitude":"-31.26738000","longitude":"-64.30087000"},{"id":"1282","name":"Mina Clavero","state_id":3642,"state_code":"X","country_id":11,"country_code":"AR","latitude":"-31.72101000","longitude":"-65.00619000"},{"id":"1283","name":"Miramar","state_id":3642,"state_code":"X","country_id":11,"country_code":"AR","latitude":"-30.91859000","longitude":"-62.67814000"},{"id":"1286","name":"Monte Buey","state_id":3642,"state_code":"X","country_id":11,"country_code":"AR","latitude":"-32.91642000","longitude":"-62.45669000"},{"id":"1288","name":"Monte Cristo","state_id":3642,"state_code":"X","country_id":11,"country_code":"AR","latitude":"-31.34312000","longitude":"-63.94437000"},{"id":"1289","name":"Monte Ma\u00edz","state_id":3642,"state_code":"X","country_id":11,"country_code":"AR","latitude":"-33.20462000","longitude":"-62.60085000"},{"id":"1292","name":"Morrison","state_id":3642,"state_code":"X","country_id":11,"country_code":"AR","latitude":"-32.59480000","longitude":"-62.83455000"},{"id":"1293","name":"Morteros","state_id":3642,"state_code":"X","country_id":11,"country_code":"AR","latitude":"-30.71164000","longitude":"-61.99862000"},{"id":"1299","name":"Noetinger","state_id":3642,"state_code":"X","country_id":11,"country_code":"AR","latitude":"-32.36597000","longitude":"-62.31126000"},{"id":"1305","name":"Obispo Trejo","state_id":3642,"state_code":"X","country_id":11,"country_code":"AR","latitude":"-30.78128000","longitude":"-63.41349000"},{"id":"1306","name":"Oliva","state_id":3642,"state_code":"X","country_id":11,"country_code":"AR","latitude":"-32.04158000","longitude":"-63.56978000"},{"id":"1307","name":"Oncativo","state_id":3642,"state_code":"X","country_id":11,"country_code":"AR","latitude":"-31.91353000","longitude":"-63.68201000"},{"id":"1308","name":"Ord\u00f3\u00f1ez","state_id":3642,"state_code":"X","country_id":11,"country_code":"AR","latitude":"-32.84057000","longitude":"-62.86552000"},{"id":"1321","name":"Pascanas","state_id":3642,"state_code":"X","country_id":11,"country_code":"AR","latitude":"-33.12550000","longitude":"-63.04084000"},{"id":"1322","name":"Pasco","state_id":3642,"state_code":"X","country_id":11,"country_code":"AR","latitude":"-32.74733000","longitude":"-63.34232000"},{"id":"1333","name":"Pilar","state_id":3642,"state_code":"X","country_id":11,"country_code":"AR","latitude":"-31.67890000","longitude":"-63.87964000"},{"id":"1335","name":"Piquill\u00edn","state_id":3642,"state_code":"X","country_id":11,"country_code":"AR","latitude":"-31.30158000","longitude":"-63.75788000"},{"id":"1341","name":"Porte\u00f1a","state_id":3642,"state_code":"X","country_id":11,"country_code":"AR","latitude":"-31.01391000","longitude":"-62.06650000"},{"id":"1343","name":"Pozo del Molle","state_id":3642,"state_code":"X","country_id":11,"country_code":"AR","latitude":"-32.01860000","longitude":"-62.91984000"},{"id":"1368","name":"Quilino","state_id":3642,"state_code":"X","country_id":11,"country_code":"AR","latitude":"-30.21397000","longitude":"-64.50063000"},{"id":"1388","name":"R\u00edo Ceballos","state_id":3642,"state_code":"X","country_id":11,"country_code":"AR","latitude":"-31.16486000","longitude":"-64.32241000"},{"id":"1390","name":"R\u00edo Cuarto","state_id":3642,"state_code":"X","country_id":11,"country_code":"AR","latitude":"-33.13067000","longitude":"-64.34992000"},{"id":"1395","name":"R\u00edo Segundo","state_id":3642,"state_code":"X","country_id":11,"country_code":"AR","latitude":"-31.65260000","longitude":"-63.90990000"},{"id":"1396","name":"R\u00edo Tercero","state_id":3642,"state_code":"X","country_id":11,"country_code":"AR","latitude":"-32.17301000","longitude":"-64.11405000"},{"id":"1398","name":"Sacanta","state_id":3642,"state_code":"X","country_id":11,"country_code":"AR","latitude":"-31.66300000","longitude":"-63.04505000"},{"id":"1400","name":"Sald\u00e1n","state_id":3642,"state_code":"X","country_id":11,"country_code":"AR","latitude":"-31.30262000","longitude":"-64.30700000"},{"id":"1401","name":"Salsacate","state_id":3642,"state_code":"X","country_id":11,"country_code":"AR","latitude":"-31.31842000","longitude":"-65.09003000"},{"id":"1402","name":"Salsipuedes","state_id":3642,"state_code":"X","country_id":11,"country_code":"AR","latitude":"-31.13725000","longitude":"-64.29589000"},{"id":"1404","name":"Sampacho","state_id":3642,"state_code":"X","country_id":11,"country_code":"AR","latitude":"-33.38390000","longitude":"-64.72211000"},{"id":"1406","name":"San Agust\u00edn","state_id":3642,"state_code":"X","country_id":11,"country_code":"AR","latitude":"-31.97681000","longitude":"-64.37400000"},{"id":"1410","name":"San Antonio de Lit\u00edn","state_id":3642,"state_code":"X","country_id":11,"country_code":"AR","latitude":"-32.21377000","longitude":"-62.63237000"},{"id":"1412","name":"San Basilio","state_id":3642,"state_code":"X","country_id":11,"country_code":"AR","latitude":"-33.49763000","longitude":"-64.31495000"},{"id":"1415","name":"San Carlos","state_id":3642,"state_code":"X","country_id":11,"country_code":"AR","latitude":"-31.17761000","longitude":"-65.10245000"},{"id":"1422","name":"San Francisco","state_id":3642,"state_code":"X","country_id":11,"country_code":"AR","latitude":"-31.42797000","longitude":"-62.08266000"},{"id":"1424","name":"San Francisco del Cha\u00f1ar","state_id":3642,"state_code":"X","country_id":11,"country_code":"AR","latitude":"-29.78830000","longitude":"-63.94411000"},{"id":"1432","name":"San Jos\u00e9 de la Dormida","state_id":3642,"state_code":"X","country_id":11,"country_code":"AR","latitude":"-30.35440000","longitude":"-63.94871000"},{"id":"1457","name":"Santa Eufemia","state_id":3642,"state_code":"X","country_id":11,"country_code":"AR","latitude":"-33.17659000","longitude":"-63.28281000"},{"id":"1462","name":"Santa Magdalena","state_id":3642,"state_code":"X","country_id":11,"country_code":"AR","latitude":"-34.51776000","longitude":"-63.94409000"},{"id":"1467","name":"Santa Rosa de Calamuchita","state_id":3642,"state_code":"X","country_id":11,"country_code":"AR","latitude":"-32.06905000","longitude":"-64.53631000"},{"id":"1468","name":"Santa Rosa de R\u00edo Primero","state_id":3642,"state_code":"X","country_id":11,"country_code":"AR","latitude":"-31.15231000","longitude":"-63.40191000"},{"id":"1472","name":"Santiago Temple","state_id":3642,"state_code":"X","country_id":11,"country_code":"AR","latitude":"-31.38731000","longitude":"-63.41821000"},{"id":"1479","name":"Saturnino M. Laspiur","state_id":3642,"state_code":"X","country_id":11,"country_code":"AR","latitude":"-31.70287000","longitude":"-62.48202000"},{"id":"1481","name":"Sebasti\u00e1n Elcano","state_id":3642,"state_code":"X","country_id":11,"country_code":"AR","latitude":"-30.16105000","longitude":"-63.59360000"},{"id":"1484","name":"Serrano","state_id":3642,"state_code":"X","country_id":11,"country_code":"AR","latitude":"-34.46971000","longitude":"-63.53842000"},{"id":"1485","name":"Serrezuela","state_id":3642,"state_code":"X","country_id":11,"country_code":"AR","latitude":"-30.63761000","longitude":"-65.38692000"},{"id":"1497","name":"Tancacha","state_id":3642,"state_code":"X","country_id":11,"country_code":"AR","latitude":"-32.24309000","longitude":"-63.98070000"},{"id":"1517","name":"T\u00edo Pujio","state_id":3642,"state_code":"X","country_id":11,"country_code":"AR","latitude":"-32.28790000","longitude":"-63.35598000"},{"id":"1502","name":"Ticino","state_id":3642,"state_code":"X","country_id":11,"country_code":"AR","latitude":"-32.69350000","longitude":"-63.43606000"},{"id":"1507","name":"Toledo","state_id":3642,"state_code":"X","country_id":11,"country_code":"AR","latitude":"-31.55574000","longitude":"-64.00947000"},{"id":"1519","name":"Ucacha","state_id":3642,"state_code":"X","country_id":11,"country_code":"AR","latitude":"-33.03203000","longitude":"-63.50666000"},{"id":"1521","name":"Unquillo","state_id":3642,"state_code":"X","country_id":11,"country_code":"AR","latitude":"-31.23073000","longitude":"-64.31615000"},{"id":"1526","name":"Valle Hermoso","state_id":3642,"state_code":"X","country_id":11,"country_code":"AR","latitude":"-31.11732000","longitude":"-64.48084000"},{"id":"1532","name":"Viamonte","state_id":3642,"state_code":"X","country_id":11,"country_code":"AR","latitude":"-33.74647000","longitude":"-63.09764000"},{"id":"1535","name":"Vicu\u00f1a Mackenna","state_id":3642,"state_code":"X","country_id":11,"country_code":"AR","latitude":"-33.91965000","longitude":"-64.39215000"},{"id":"1537","name":"Villa Allende","state_id":3642,"state_code":"X","country_id":11,"country_code":"AR","latitude":"-31.29458000","longitude":"-64.29538000"},{"id":"1538","name":"Villa Ascasubi","state_id":3642,"state_code":"X","country_id":11,"country_code":"AR","latitude":"-32.16351000","longitude":"-63.89157000"},{"id":"1541","name":"Villa Berna","state_id":3642,"state_code":"X","country_id":11,"country_code":"AR","latitude":"-31.91419000","longitude":"-64.73249000"},{"id":"1544","name":"Villa Carlos Paz","state_id":3642,"state_code":"X","country_id":11,"country_code":"AR","latitude":"-31.42414000","longitude":"-64.49778000"},{"id":"1546","name":"Villa Concepci\u00f3n del T\u00edo","state_id":3642,"state_code":"X","country_id":11,"country_code":"AR","latitude":"-31.32259000","longitude":"-62.81354000"},{"id":"1548","name":"Villa Cura Brochero","state_id":3642,"state_code":"X","country_id":11,"country_code":"AR","latitude":"-31.70578000","longitude":"-65.01796000"},{"id":"1581","name":"Villa de Soto","state_id":3642,"state_code":"X","country_id":11,"country_code":"AR","latitude":"-30.85523000","longitude":"-64.99947000"},{"id":"1582","name":"Villa del Dique","state_id":3642,"state_code":"X","country_id":11,"country_code":"AR","latitude":"-32.17667000","longitude":"-64.45543000"},{"id":"1583","name":"Villa del Rosario","state_id":3642,"state_code":"X","country_id":11,"country_code":"AR","latitude":"-31.55660000","longitude":"-63.53452000"},{"id":"1585","name":"Villa del Totoral","state_id":3642,"state_code":"X","country_id":11,"country_code":"AR","latitude":"-30.81667000","longitude":"-63.71667000"},{"id":"1549","name":"Villa Dolores","state_id":3642,"state_code":"X","country_id":11,"country_code":"AR","latitude":"-31.94585000","longitude":"-65.18958000"},{"id":"1552","name":"Villa General Belgrano","state_id":3642,"state_code":"X","country_id":11,"country_code":"AR","latitude":"-31.97828000","longitude":"-64.55627000"},{"id":"1556","name":"Villa Giardino","state_id":3642,"state_code":"X","country_id":11,"country_code":"AR","latitude":"-31.03333000","longitude":"-64.48333000"},{"id":"1558","name":"Villa Huidobro","state_id":3642,"state_code":"X","country_id":11,"country_code":"AR","latitude":"-34.83826000","longitude":"-64.58686000"},{"id":"1560","name":"Villa Las Rosas","state_id":3642,"state_code":"X","country_id":11,"country_code":"AR","latitude":"-31.95021000","longitude":"-65.05354000"},{"id":"1563","name":"Villa Mar\u00eda","state_id":3642,"state_code":"X","country_id":11,"country_code":"AR","latitude":"-32.40751000","longitude":"-63.24016000"},{"id":"1567","name":"Villa Nueva","state_id":3642,"state_code":"X","country_id":11,"country_code":"AR","latitude":"-32.43293000","longitude":"-63.24763000"},{"id":"1573","name":"Villa Reducci\u00f3n","state_id":3642,"state_code":"X","country_id":11,"country_code":"AR","latitude":"-33.20105000","longitude":"-63.86234000"},{"id":"1575","name":"Villa Rumipal","state_id":3642,"state_code":"X","country_id":11,"country_code":"AR","latitude":"-32.18790000","longitude":"-64.48027000"},{"id":"1578","name":"Villa Tulumba","state_id":3642,"state_code":"X","country_id":11,"country_code":"AR","latitude":"-30.39552000","longitude":"-64.12241000"},{"id":"1580","name":"Villa Valeria","state_id":3642,"state_code":"X","country_id":11,"country_code":"AR","latitude":"-34.34093000","longitude":"-64.92030000"},{"id":"1591","name":"Wenceslao Escalante","state_id":3642,"state_code":"X","country_id":11,"country_code":"AR","latitude":"-33.17303000","longitude":"-62.77078000"}]