[{"id":"644","name":"Albard\u00f3n","state_id":3634,"state_code":"J","country_id":11,"country_code":"AR","latitude":"-31.43722000","longitude":"-68.52556000"},{"id":"714","name":"Calingasta","state_id":3634,"state_code":"J","country_id":11,"country_code":"AR","latitude":"-31.33394000","longitude":"-69.42080000"},{"id":"741","name":"Caucete","state_id":3634,"state_code":"J","country_id":11,"country_code":"AR","latitude":"-31.65179000","longitude":"-68.28105000"},{"id":"762","name":"Chimbas","state_id":3634,"state_code":"J","country_id":11,"country_code":"AR","latitude":"-31.48333000","longitude":"-68.53333000"},{"id":"821","name":"Departamento de Albard\u00f3n","state_id":3634,"state_code":"J","country_id":11,"country_code":"AR","latitude":"-31.28333000","longitude":"-68.41667000"},{"id":"827","name":"Departamento de Angaco","state_id":3634,"state_code":"J","country_id":11,"country_code":"AR","latitude":"-31.20000000","longitude":"-68.13333000"},{"id":"844","name":"Departamento de Calingasta","state_id":3634,"state_code":"J","country_id":11,"country_code":"AR","latitude":"-31.50000000","longitude":"-69.75000000"},{"id":"851","name":"Departamento de Capital","state_id":3634,"state_code":"J","country_id":11,"country_code":"AR","latitude":"-31.53333000","longitude":"-68.53333000"},{"id":"856","name":"Departamento de Caucete","state_id":3634,"state_code":"J","country_id":11,"country_code":"AR","latitude":"-31.45000000","longitude":"-67.66667000"},{"id":"859","name":"Departamento de Chimbas","state_id":3634,"state_code":"J","country_id":11,"country_code":"AR","latitude":"-31.48738000","longitude":"-68.52691000"},{"id":"907","name":"Departamento de Iglesia","state_id":3634,"state_code":"J","country_id":11,"country_code":"AR","latitude":"-29.33333000","longitude":"-69.58333000"},{"id":"915","name":"Departamento de J\u00e1chal","state_id":3634,"state_code":"J","country_id":11,"country_code":"AR","latitude":"-30.50000000","longitude":"-68.50000000"},{"id":"952","name":"Departamento de Nueve de Julio","state_id":3634,"state_code":"J","country_id":11,"country_code":"AR","latitude":"-31.65072000","longitude":"-68.38925000"},{"id":"964","name":"Departamento de Rawson","state_id":3634,"state_code":"J","country_id":11,"country_code":"AR","latitude":"-31.70000000","longitude":"-68.46667000"},{"id":"966","name":"Departamento de Rivadavia","state_id":3634,"state_code":"J","country_id":11,"country_code":"AR","latitude":"-31.56450000","longitude":"-68.65219000"},{"id":"998","name":"Departamento de San Mart\u00edn","state_id":3634,"state_code":"J","country_id":11,"country_code":"AR","latitude":"-31.50000000","longitude":"-68.25000000"},{"id":"1005","name":"Departamento de Santa Luc\u00eda","state_id":3634,"state_code":"J","country_id":11,"country_code":"AR","latitude":"-31.53333000","longitude":"-68.46667000"},{"id":"1013","name":"Departamento de Sarmiento","state_id":3634,"state_code":"J","country_id":11,"country_code":"AR","latitude":"-32.00000000","longitude":"-68.66667000"},{"id":"1028","name":"Departamento de Ull\u00fam","state_id":3634,"state_code":"J","country_id":11,"country_code":"AR","latitude":"-31.00000000","longitude":"-68.91667000"},{"id":"1036","name":"Departamento de Zonda","state_id":3634,"state_code":"J","country_id":11,"country_code":"AR","latitude":"-31.68260000","longitude":"-68.89938000"},{"id":"1302","name":"Nueve de Julio","state_id":3634,"state_code":"J","country_id":11,"country_code":"AR","latitude":"-31.66914000","longitude":"-68.39023000"},{"id":"1339","name":"Pocito","state_id":3634,"state_code":"J","country_id":11,"country_code":"AR","latitude":"-31.68333000","longitude":"-68.58333000"},{"id":"1407","name":"San Agust\u00edn de Valle F\u00e9rtil","state_id":3634,"state_code":"J","country_id":11,"country_code":"AR","latitude":"-30.63353000","longitude":"-67.46821000"},{"id":"1431","name":"San Jos\u00e9 de J\u00e1chal","state_id":3634,"state_code":"J","country_id":11,"country_code":"AR","latitude":"-30.24057000","longitude":"-68.74693000"},{"id":"1433","name":"San Juan","state_id":3634,"state_code":"J","country_id":11,"country_code":"AR","latitude":"-31.53750000","longitude":"-68.53639000"},{"id":"1441","name":"San Mart\u00edn","state_id":3634,"state_code":"J","country_id":11,"country_code":"AR","latitude":"-31.42957000","longitude":"-68.50065000"},{"id":"1460","name":"Santa Luc\u00eda","state_id":3634,"state_code":"J","country_id":11,"country_code":"AR","latitude":"-31.53987000","longitude":"-68.49503000"},{"id":"1540","name":"Villa Basilio Nievas","state_id":3634,"state_code":"J","country_id":11,"country_code":"AR","latitude":"-31.55000000","longitude":"-68.73333000"},{"id":"1572","name":"Villa Paula de Sarmiento","state_id":3634,"state_code":"J","country_id":11,"country_code":"AR","latitude":"-31.49330000","longitude":"-68.53838000"},{"id":"679","name":"A\u00f1atuya","state_id":3635,"state_code":"G","country_id":11,"country_code":"AR","latitude":"-28.46064000","longitude":"-62.83472000"},{"id":"691","name":"Beltr\u00e1n","state_id":3635,"state_code":"G","country_id":11,"country_code":"AR","latitude":"-27.82913000","longitude":"-64.06098000"},{"id":"717","name":"Campo Gallo","state_id":3635,"state_code":"G","country_id":11,"country_code":"AR","latitude":"-26.58333000","longitude":"-62.85000000"},{"id":"771","name":"Clodomira","state_id":3635,"state_code":"G","country_id":11,"country_code":"AR","latitude":"-27.57440000","longitude":"-64.13108000"},{"id":"777","name":"Colonia Dora","state_id":3635,"state_code":"G","country_id":11,"country_code":"AR","latitude":"-28.60000000","longitude":"-62.95000000"},{"id":"820","name":"Departamento de Aguirre","state_id":3635,"state_code":"G","country_id":11,"country_code":"AR","latitude":"-29.33333000","longitude":"-62.50000000"},{"id":"834","name":"Departamento de Banda","state_id":3635,"state_code":"G","country_id":11,"country_code":"AR","latitude":"-27.50000000","longitude":"-64.33333000"},{"id":"861","name":"Departamento de Choya","state_id":3635,"state_code":"G","country_id":11,"country_code":"AR","latitude":"-28.75000000","longitude":"-64.75000000"},{"id":"904","name":"Departamento de Guasay\u00e1n","state_id":3635,"state_code":"G","country_id":11,"country_code":"AR","latitude":"-28.00000000","longitude":"-64.83333000"},{"id":"930","name":"Departamento de Loreto","state_id":3635,"state_code":"G","country_id":11,"country_code":"AR","latitude":"-28.55000000","longitude":"-64.33333000"},{"id":"948","name":"Departamento de Moreno","state_id":3635,"state_code":"G","country_id":11,"country_code":"AR","latitude":"-27.33333000","longitude":"-62.50000000"},{"id":"975","name":"Departamento de R\u00edo Hondo","state_id":3635,"state_code":"G","country_id":11,"country_code":"AR","latitude":"-27.58333000","longitude":"-64.75000000"},{"id":"969","name":"Departamento de Robles","state_id":3635,"state_code":"G","country_id":11,"country_code":"AR","latitude":"-27.83333000","longitude":"-63.91667000"},{"id":"997","name":"Departamento de San Mart\u00edn","state_id":3635,"state_code":"G","country_id":11,"country_code":"AR","latitude":"-28.16667000","longitude":"-63.83333000"},{"id":"1011","name":"Departamento de Sarmiento","state_id":3635,"state_code":"G","country_id":11,"country_code":"AR","latitude":"-28.08333000","longitude":"-63.41667000"},{"id":"1056","name":"El Hoyo","state_id":3635,"state_code":"G","country_id":11,"country_code":"AR","latitude":"-27.02872000","longitude":"-63.23197000"},{"id":"1176","name":"La Banda","state_id":3635,"state_code":"G","country_id":11,"country_code":"AR","latitude":"-27.73348000","longitude":"-64.24278000"},{"id":"1251","name":"Los Jur\u00edes","state_id":3635,"state_code":"G","country_id":11,"country_code":"AR","latitude":"-28.46539000","longitude":"-62.10862000"},{"id":"1255","name":"Los Telares","state_id":3635,"state_code":"G","country_id":11,"country_code":"AR","latitude":"-28.98479000","longitude":"-63.44889000"},{"id":"1315","name":"Pampa de los Guanacos","state_id":3635,"state_code":"G","country_id":11,"country_code":"AR","latitude":"-26.23002000","longitude":"-61.83774000"},{"id":"1369","name":"Quimil\u00ed","state_id":3635,"state_code":"G","country_id":11,"country_code":"AR","latitude":"-27.64615000","longitude":"-62.41655000"},{"id":"1445","name":"San Pedro","state_id":3635,"state_code":"G","country_id":11,"country_code":"AR","latitude":"-27.95386000","longitude":"-65.16651000"},{"id":"1473","name":"Santiago del Estero","state_id":3635,"state_code":"G","country_id":11,"country_code":"AR","latitude":"-27.79511000","longitude":"-64.26149000"},{"id":"1489","name":"Sumampa","state_id":3635,"state_code":"G","country_id":11,"country_code":"AR","latitude":"-29.38470000","longitude":"-63.46907000"},{"id":"1491","name":"Suncho Corral","state_id":3635,"state_code":"G","country_id":11,"country_code":"AR","latitude":"-27.93357000","longitude":"-63.42938000"},{"id":"1501","name":"Termas de R\u00edo Hondo","state_id":3635,"state_code":"G","country_id":11,"country_code":"AR","latitude":"-27.49362000","longitude":"-64.85972000"},{"id":"1506","name":"Tintina","state_id":3635,"state_code":"G","country_id":11,"country_code":"AR","latitude":"-27.02687000","longitude":"-62.70643000"},{"id":"1539","name":"Villa Atamisqui","state_id":3635,"state_code":"G","country_id":11,"country_code":"AR","latitude":"-28.49609000","longitude":"-63.81609000"},{"id":"1554","name":"Villa General Mitre","state_id":3635,"state_code":"G","country_id":11,"country_code":"AR","latitude":"-29.14310000","longitude":"-62.65248000"},{"id":"1569","name":"Villa Ojo de Agua","state_id":3635,"state_code":"G","country_id":11,"country_code":"AR","latitude":"-29.50003000","longitude":"-63.69377000"},{"id":"703","name":"Buena Esperanza","state_id":3636,"state_code":"D","country_id":11,"country_code":"AR","latitude":"-34.75647000","longitude":"-65.25379000"},{"id":"725","name":"Candelaria","state_id":3636,"state_code":"D","country_id":11,"country_code":"AR","latitude":"-32.06036000","longitude":"-65.82477000"},{"id":"788","name":"Concar\u00e1n","state_id":3636,"state_code":"D","country_id":11,"country_code":"AR","latitude":"-32.56009000","longitude":"-65.24270000"},{"id":"1170","name":"Juan Mart\u00edn de Pueyrred\u00f3n","state_id":3636,"state_code":"D","country_id":11,"country_code":"AR","latitude":"-33.27544000","longitude":"-66.32017000"},{"id":"1174","name":"Justo Daract","state_id":3636,"state_code":"D","country_id":11,"country_code":"AR","latitude":"-33.85940000","longitude":"-65.18277000"},{"id":"1198","name":"La Punta","state_id":3636,"state_code":"D","country_id":11,"country_code":"AR","latitude":"-33.18368000","longitude":"-66.31270000"},{"id":"1202","name":"La Toma","state_id":3636,"state_code":"D","country_id":11,"country_code":"AR","latitude":"-33.05258000","longitude":"-65.62385000"},{"id":"1258","name":"Luj\u00e1n","state_id":3636,"state_code":"D","country_id":11,"country_code":"AR","latitude":"-32.36674000","longitude":"-65.93642000"},{"id":"1280","name":"Merlo","state_id":3636,"state_code":"D","country_id":11,"country_code":"AR","latitude":"-32.34288000","longitude":"-65.01396000"},{"id":"1297","name":"Naschel","state_id":3636,"state_code":"D","country_id":11,"country_code":"AR","latitude":"-32.91656000","longitude":"-65.37535000"},{"id":"1425","name":"San Francisco del Monte de Oro","state_id":3636,"state_code":"D","country_id":11,"country_code":"AR","latitude":"-32.59825000","longitude":"-66.12539000"},{"id":"1438","name":"San Luis","state_id":3636,"state_code":"D","country_id":11,"country_code":"AR","latitude":"-33.29501000","longitude":"-66.33563000"},{"id":"1470","name":"Santa Rosa del Conlara","state_id":3636,"state_code":"D","country_id":11,"country_code":"AR","latitude":"-32.34286000","longitude":"-65.20323000"},{"id":"1504","name":"Tilisarao","state_id":3636,"state_code":"D","country_id":11,"country_code":"AR","latitude":"-32.73292000","longitude":"-65.29109000"},{"id":"1520","name":"Uni\u00f3n","state_id":3636,"state_code":"D","country_id":11,"country_code":"AR","latitude":"-35.15282000","longitude":"-65.94602000"},{"id":"1555","name":"Villa General Roca","state_id":3636,"state_code":"D","country_id":11,"country_code":"AR","latitude":"-32.66535000","longitude":"-66.45052000"},{"id":"1565","name":"Villa Mercedes","state_id":3636,"state_code":"D","country_id":11,"country_code":"AR","latitude":"-33.67571000","longitude":"-65.45783000"},{"id":"642","name":"Aguilares","state_id":3637,"state_code":"T","country_id":11,"country_code":"AR","latitude":"-27.43380000","longitude":"-65.61427000"},{"id":"646","name":"Alderetes","state_id":3637,"state_code":"T","country_id":11,"country_code":"AR","latitude":"-26.81667000","longitude":"-65.13333000"},{"id":"690","name":"Bella Vista","state_id":3637,"state_code":"T","country_id":11,"country_code":"AR","latitude":"-27.03424000","longitude":"-65.30196000"},{"id":"705","name":"Burruyac\u00fa","state_id":3637,"state_code":"T","country_id":11,"country_code":"AR","latitude":"-26.49918000","longitude":"-64.74206000"},{"id":"840","name":"Departamento de Burruyac\u00fa","state_id":3637,"state_code":"T","country_id":11,"country_code":"AR","latitude":"-26.50000000","longitude":"-64.91667000"},{"id":"852","name":"Departamento de Capital","state_id":3637,"state_code":"T","country_id":11,"country_code":"AR","latitude":"-26.82825000","longitude":"-65.21126000"},{"id":"870","name":"Departamento de Cruz Alta","state_id":3637,"state_code":"T","country_id":11,"country_code":"AR","latitude":"-26.91667000","longitude":"-64.91667000"},{"id":"882","name":"Departamento de Famaill\u00e1","state_id":3637,"state_code":"T","country_id":11,"country_code":"AR","latitude":"-26.91667000","longitude":"-65.50000000"},{"id":"900","name":"Departamento de Graneros","state_id":3637,"state_code":"T","country_id":11,"country_code":"AR","latitude":"-27.75000000","longitude":"-65.33333000"},{"id":"917","name":"Departamento de La Cocha","state_id":3637,"state_code":"T","country_id":11,"country_code":"AR","latitude":"-27.77784000","longitude":"-65.57109000"},{"id":"933","name":"Departamento de Lules","state_id":3637,"state_code":"T","country_id":11,"country_code":"AR","latitude":"-26.92886000","longitude":"-65.33848000"},{"id":"947","name":"Departamento de Monteros","state_id":3637,"state_code":"T","country_id":11,"country_code":"AR","latitude":"-27.16667000","longitude":"-65.58333000"},{"id":"973","name":"Departamento de R\u00edo Chico","state_id":3637,"state_code":"T","country_id":11,"country_code":"AR","latitude":"-27.43368000","longitude":"-65.76671000"},{"id":"1015","name":"Departamento de Simoca","state_id":3637,"state_code":"T","country_id":11,"country_code":"AR","latitude":"-27.26360000","longitude":"-65.35612000"},{"id":"1023","name":"Departamento de Trancas","state_id":3637,"state_code":"T","country_id":11,"country_code":"AR","latitude":"-26.41667000","longitude":"-65.50000000"},{"id":"1034","name":"Departamento de Yerba Buena","state_id":3637,"state_code":"T","country_id":11,"country_code":"AR","latitude":"-26.81826000","longitude":"-65.31733000"},{"id":"1074","name":"Famaill\u00e1","state_id":3637,"state_code":"T","country_id":11,"country_code":"AR","latitude":"-27.05413000","longitude":"-65.40329000"},{"id":"1125","name":"Graneros","state_id":3637,"state_code":"T","country_id":11,"country_code":"AR","latitude":"-27.64934000","longitude":"-65.43830000"},{"id":"1182","name":"La Cocha","state_id":3637,"state_code":"T","country_id":11,"country_code":"AR","latitude":"-27.76927000","longitude":"-65.58711000"},{"id":"1291","name":"Monteros","state_id":3637,"state_code":"T","country_id":11,"country_code":"AR","latitude":"-27.16741000","longitude":"-65.49832000"},{"id":"1444","name":"San Miguel de Tucum\u00e1n","state_id":3637,"state_code":"T","country_id":11,"country_code":"AR","latitude":"-26.82414000","longitude":"-65.22260000"},{"id":"1488","name":"Simoca","state_id":3637,"state_code":"T","country_id":11,"country_code":"AR","latitude":"-27.26272000","longitude":"-65.35647000"},{"id":"1496","name":"Taf\u00ed del Valle","state_id":3637,"state_code":"T","country_id":11,"country_code":"AR","latitude":"-26.85275000","longitude":"-65.70983000"},{"id":"1495","name":"Taf\u00ed Viejo","state_id":3637,"state_code":"T","country_id":11,"country_code":"AR","latitude":"-26.73201000","longitude":"-65.25921000"},{"id":"1511","name":"Trancas","state_id":3637,"state_code":"T","country_id":11,"country_code":"AR","latitude":"-26.23136000","longitude":"-65.28093000"},{"id":"1596","name":"Yerba Buena","state_id":3637,"state_code":"T","country_id":11,"country_code":"AR","latitude":"-26.81667000","longitude":"-65.31667000"},{"id":"658","name":"Alvear","state_id":3638,"state_code":"W","country_id":11,"country_code":"AR","latitude":"-29.09683000","longitude":"-56.55043000"},{"id":"696","name":"Ber\u00f3n de Astrada","state_id":3638,"state_code":"W","country_id":11,"country_code":"AR","latitude":"-27.55067000","longitude":"-57.53460000"},{"id":"698","name":"Bonpland","state_id":3638,"state_code":"W","country_id":11,"country_code":"AR","latitude":"-29.81708000","longitude":"-57.42974000"},{"id":"756","name":"Chavarr\u00eda","state_id":3638,"state_code":"W","country_id":11,"country_code":"AR","latitude":"-28.95489000","longitude":"-58.57277000"},{"id":"789","name":"Concepci\u00f3n","state_id":3638,"state_code":"W","country_id":11,"country_code":"AR","latitude":"-28.39175000","longitude":"-57.88777000"},{"id":"803","name":"Corrientes","state_id":3638,"state_code":"W","country_id":11,"country_code":"AR","latitude":"-27.46784000","longitude":"-58.83440000"},{"id":"810","name":"Cruz de los Milagros","state_id":3638,"state_code":"W","country_id":11,"country_code":"AR","latitude":"-28.83646000","longitude":"-59.00476000"},{"id":"813","name":"Curuz\u00fa Cuati\u00e1","state_id":3638,"state_code":"W","country_id":11,"country_code":"AR","latitude":"-29.79171000","longitude":"-58.05460000"},{"id":"836","name":"Departamento de Bella Vista","state_id":3638,"state_code":"W","country_id":11,"country_code":"AR","latitude":"-28.50000000","longitude":"-58.83333000"},{"id":"838","name":"Departamento de Ber\u00f3n de Astrada","state_id":3638,"state_code":"W","country_id":11,"country_code":"AR","latitude":"-27.50000000","longitude":"-57.66667000"},{"id":"847","name":"Departamento de Capital","state_id":3638,"state_code":"W","country_id":11,"country_code":"AR","latitude":"-27.50000000","longitude":"-58.75000000"},{"id":"866","name":"Departamento de Concepci\u00f3n","state_id":3638,"state_code":"W","country_id":11,"country_code":"AR","latitude":"-28.33333000","longitude":"-58.00000000"},{"id":"872","name":"Departamento de Curuz\u00fa Cuati\u00e1","state_id":3638,"state_code":"W","country_id":11,"country_code":"AR","latitude":"-29.50000000","longitude":"-58.50000000"},{"id":"879","name":"Departamento de Empedrado","state_id":3638,"state_code":"W","country_id":11,"country_code":"AR","latitude":"-27.83333000","longitude":"-58.66667000"},{"id":"881","name":"Departamento de Esquina","state_id":3638,"state_code":"W","country_id":11,"country_code":"AR","latitude":"-30.00000000","longitude":"-59.33333000"},{"id":"888","name":"Departamento de General Alvear","state_id":3638,"state_code":"W","country_id":11,"country_code":"AR","latitude":"-28.83333000","longitude":"-56.50000000"},{"id":"895","name":"Departamento de General Paz","state_id":3638,"state_code":"W","country_id":11,"country_code":"AR","latitude":"-27.75000000","longitude":"-57.83333000"},{"id":"899","name":"Departamento de Goya","state_id":3638,"state_code":"W","country_id":11,"country_code":"AR","latitude":"-29.50000000","longitude":"-59.50000000"},{"id":"912","name":"Departamento de Itat\u00ed","state_id":3638,"state_code":"W","country_id":11,"country_code":"AR","latitude":"-27.33333000","longitude":"-58.00000000"},{"id":"913","name":"Departamento de Ituzaing\u00f3","state_id":3638,"state_code":"W","country_id":11,"country_code":"AR","latitude":"-27.90085000","longitude":"-56.86604000"},{"id":"925","name":"Departamento de Lavalle","state_id":3638,"state_code":"W","country_id":11,"country_code":"AR","latitude":"-29.00000000","longitude":"-58.91667000"},{"id":"940","name":"Departamento de Mburucuy\u00e1","state_id":3638,"state_code":"W","country_id":11,"country_code":"AR","latitude":"-28.00000000","longitude":"-58.25000000"},{"id":"941","name":"Departamento de Mercedes","state_id":3638,"state_code":"W","country_id":11,"country_code":"AR","latitude":"-29.00000000","longitude":"-57.83333000"},{"id":"945","name":"Departamento de Monte Caseros","state_id":3638,"state_code":"W","country_id":11,"country_code":"AR","latitude":"-30.25000000","longitude":"-57.83333000"},{"id":"957","name":"Departamento de Paso de los Libres","state_id":3638,"state_code":"W","country_id":11,"country_code":"AR","latitude":"-29.66667000","longitude":"-57.25000000"},{"id":"980","name":"Departamento de Saladas","state_id":3638,"state_code":"W","country_id":11,"country_code":"AR","latitude":"-28.25000000","longitude":"-58.75000000"},{"id":"984","name":"Departamento de San Cosme","state_id":3638,"state_code":"W","country_id":11,"country_code":"AR","latitude":"-27.33333000","longitude":"-58.50000000"},{"id":"995","name":"Departamento de San Luis del Palmar","state_id":3638,"state_code":"W","country_id":11,"country_code":"AR","latitude":"-27.50000000","longitude":"-58.25000000"},{"id":"996","name":"Departamento de San Mart\u00edn","state_id":3638,"state_code":"W","country_id":11,"country_code":"AR","latitude":"-28.83333000","longitude":"-56.91667000"},{"id":"1001","name":"Departamento de San Miguel","state_id":3638,"state_code":"W","country_id":11,"country_code":"AR","latitude":"-27.91667000","longitude":"-57.50000000"},{"id":"1004","name":"Departamento de San Roque","state_id":3638,"state_code":"W","country_id":11,"country_code":"AR","latitude":"-28.66667000","longitude":"-58.75000000"},{"id":"1009","name":"Departamento de Santo Tom\u00e9","state_id":3638,"state_code":"W","country_id":11,"country_code":"AR","latitude":"-28.25000000","longitude":"-56.25000000"},{"id":"1014","name":"Departamento de Sauce","state_id":3638,"state_code":"W","country_id":11,"country_code":"AR","latitude":"-30.00000000","longitude":"-58.66667000"},{"id":"1068","name":"Empedrado","state_id":3638,"state_code":"W","country_id":11,"country_code":"AR","latitude":"-27.95178000","longitude":"-58.80584000"},{"id":"1071","name":"Esquina","state_id":3638,"state_code":"W","country_id":11,"country_code":"AR","latitude":"-30.01476000","longitude":"-59.52890000"},{"id":"1077","name":"Felipe Yofr\u00e9","state_id":3638,"state_code":"W","country_id":11,"country_code":"AR","latitude":"-29.10226000","longitude":"-58.33772000"},{"id":"1089","name":"Garruchos","state_id":3638,"state_code":"W","country_id":11,"country_code":"AR","latitude":"-28.17208000","longitude":"-55.65406000"},{"id":"1118","name":"Gobernador Juan E. Mart\u00ednez","state_id":3638,"state_code":"W","country_id":11,"country_code":"AR","latitude":"-28.91161000","longitude":"-58.93594000"},{"id":"1121","name":"Gobernador Virasora","state_id":3638,"state_code":"W","country_id":11,"country_code":"AR","latitude":"-28.05000000","longitude":"-56.03333000"},{"id":"1123","name":"Goya","state_id":3638,"state_code":"W","country_id":11,"country_code":"AR","latitude":"-29.13995000","longitude":"-59.26343000"},{"id":"1134","name":"Herlitzka","state_id":3638,"state_code":"W","country_id":11,"country_code":"AR","latitude":"-27.56516000","longitude":"-58.25557000"},{"id":"1161","name":"Itat\u00ed","state_id":3638,"state_code":"W","country_id":11,"country_code":"AR","latitude":"-27.27043000","longitude":"-58.24458000"},{"id":"1163","name":"It\u00e1 Ibat\u00e9","state_id":3638,"state_code":"W","country_id":11,"country_code":"AR","latitude":"-27.42573000","longitude":"-57.33758000"},{"id":"1162","name":"Ituzaing\u00f3","state_id":3638,"state_code":"W","country_id":11,"country_code":"AR","latitude":"-27.58162000","longitude":"-56.68231000"},{"id":"1171","name":"Juan Pujol","state_id":3638,"state_code":"W","country_id":11,"country_code":"AR","latitude":"-30.41873000","longitude":"-57.85612000"},{"id":"1184","name":"La Cruz","state_id":3638,"state_code":"W","country_id":11,"country_code":"AR","latitude":"-29.17443000","longitude":"-56.64326000"},{"id":"1235","name":"Libertad","state_id":3638,"state_code":"W","country_id":11,"country_code":"AR","latitude":"-30.04300000","longitude":"-57.82020000"},{"id":"1237","name":"Lomas de Vallejos","state_id":3638,"state_code":"W","country_id":11,"country_code":"AR","latitude":"-27.73501000","longitude":"-57.91850000"},{"id":"1242","name":"Loreto","state_id":3638,"state_code":"W","country_id":11,"country_code":"AR","latitude":"-27.76834000","longitude":"-57.27531000"},{"id":"1271","name":"Mariano I. Loza","state_id":3638,"state_code":"W","country_id":11,"country_code":"AR","latitude":"-29.37667000","longitude":"-58.19436000"},{"id":"1275","name":"Mburucuy\u00e1","state_id":3638,"state_code":"W","country_id":11,"country_code":"AR","latitude":"-28.04532000","longitude":"-58.22835000"},{"id":"1279","name":"Mercedes","state_id":3638,"state_code":"W","country_id":11,"country_code":"AR","latitude":"-29.18416000","longitude":"-58.07519000"},{"id":"1284","name":"Mocoret\u00e1","state_id":3638,"state_code":"W","country_id":11,"country_code":"AR","latitude":"-30.61891000","longitude":"-57.96344000"},{"id":"1287","name":"Monte Caseros","state_id":3638,"state_code":"W","country_id":11,"country_code":"AR","latitude":"-30.25359000","longitude":"-57.63626000"},{"id":"1301","name":"Nuestra Se\u00f1ora del Rosario de Caa Cat\u00ed","state_id":3638,"state_code":"W","country_id":11,"country_code":"AR","latitude":"-27.75072000","longitude":"-57.62073000"},{"id":"1303","name":"Nueve de Julio","state_id":3638,"state_code":"W","country_id":11,"country_code":"AR","latitude":"-28.84051000","longitude":"-58.82650000"},{"id":"1311","name":"Palmar Grande","state_id":3638,"state_code":"W","country_id":11,"country_code":"AR","latitude":"-27.94195000","longitude":"-57.90057000"},{"id":"1323","name":"Paso de la Patria","state_id":3638,"state_code":"W","country_id":11,"country_code":"AR","latitude":"-27.31676000","longitude":"-58.57197000"},{"id":"1324","name":"Paso de los Libres","state_id":3638,"state_code":"W","country_id":11,"country_code":"AR","latitude":"-29.71251000","longitude":"-57.08771000"},{"id":"1325","name":"Pedro R. Fern\u00e1ndez","state_id":3638,"state_code":"W","country_id":11,"country_code":"AR","latitude":"-28.75097000","longitude":"-58.65583000"},{"id":"1327","name":"Perugorr\u00eda","state_id":3638,"state_code":"W","country_id":11,"country_code":"AR","latitude":"-29.34132000","longitude":"-58.61059000"},{"id":"1349","name":"Pueblo Libertador","state_id":3638,"state_code":"W","country_id":11,"country_code":"AR","latitude":"-30.22087000","longitude":"-59.38981000"},{"id":"1382","name":"Riachuelo","state_id":3638,"state_code":"W","country_id":11,"country_code":"AR","latitude":"-27.58191000","longitude":"-58.74497000"},{"id":"1399","name":"Saladas","state_id":3638,"state_code":"W","country_id":11,"country_code":"AR","latitude":"-28.25384000","longitude":"-58.62591000"},{"id":"1416","name":"San Carlos","state_id":3638,"state_code":"W","country_id":11,"country_code":"AR","latitude":"-27.74586000","longitude":"-55.89731000"},{"id":"1419","name":"San Cosme","state_id":3638,"state_code":"W","country_id":11,"country_code":"AR","latitude":"-27.37123000","longitude":"-58.51214000"},{"id":"1437","name":"San Lorenzo","state_id":3638,"state_code":"W","country_id":11,"country_code":"AR","latitude":"-28.13306000","longitude":"-58.76733000"},{"id":"1439","name":"San Luis del Palmar","state_id":3638,"state_code":"W","country_id":11,"country_code":"AR","latitude":"-27.50790000","longitude":"-58.55454000"},{"id":"1443","name":"San Miguel","state_id":3638,"state_code":"W","country_id":11,"country_code":"AR","latitude":"-27.99585000","longitude":"-57.58964000"},{"id":"1461","name":"Santa Luc\u00eda","state_id":3638,"state_code":"W","country_id":11,"country_code":"AR","latitude":"-28.98746000","longitude":"-59.10287000"},{"id":"1466","name":"Santa Rosa","state_id":3638,"state_code":"W","country_id":11,"country_code":"AR","latitude":"-28.26318000","longitude":"-58.11891000"},{"id":"1476","name":"Santo Tom\u00e9","state_id":3638,"state_code":"W","country_id":11,"country_code":"AR","latitude":"-28.54939000","longitude":"-56.04077000"},{"id":"1594","name":"Yapey\u00fa","state_id":3638,"state_code":"W","country_id":11,"country_code":"AR","latitude":"-29.46914000","longitude":"-56.81841000"},{"id":"1595","name":"Yataity Calle","state_id":3638,"state_code":"W","country_id":11,"country_code":"AR","latitude":"-29.01913000","longitude":"-58.90846000"},{"id":"649","name":"Allen","state_id":3639,"state_code":"R","country_id":11,"country_code":"AR","latitude":"-38.97736000","longitude":"-67.82714000"},{"id":"1599","name":"\u00d1orquinco","state_id":3639,"state_code":"R","country_id":11,"country_code":"AR","latitude":"-41.85072000","longitude":"-70.90173000"},{"id":"739","name":"Catriel","state_id":3639,"state_code":"R","country_id":11,"country_code":"AR","latitude":"-37.87907000","longitude":"-67.79560000"},{"id":"750","name":"Cervantes","state_id":3639,"state_code":"R","country_id":11,"country_code":"AR","latitude":"-39.05444000","longitude":"-67.39426000"},{"id":"759","name":"Chichinales","state_id":3639,"state_code":"R","country_id":11,"country_code":"AR","latitude":"-39.11505000","longitude":"-66.92714000"},{"id":"763","name":"Chimpay","state_id":3639,"state_code":"R","country_id":11,"country_code":"AR","latitude":"-39.16482000","longitude":"-66.14236000"},{"id":"764","name":"Choele Choel","state_id":3639,"state_code":"R","country_id":11,"country_code":"AR","latitude":"-39.28941000","longitude":"-65.66060000"},{"id":"768","name":"Cinco Saltos","state_id":3639,"state_code":"R","country_id":11,"country_code":"AR","latitude":"-38.82225000","longitude":"-68.06293000"},{"id":"770","name":"Cipolletti","state_id":3639,"state_code":"R","country_id":11,"country_code":"AR","latitude":"-38.93392000","longitude":"-67.99032000"},{"id":"784","name":"Comallo","state_id":3639,"state_code":"R","country_id":11,"country_code":"AR","latitude":"-41.02993000","longitude":"-70.26784000"},{"id":"795","name":"Contraalmirante Cordero","state_id":3639,"state_code":"R","country_id":11,"country_code":"AR","latitude":"-38.72423000","longitude":"-68.15284000"},{"id":"798","name":"Coronel Belisle","state_id":3639,"state_code":"R","country_id":11,"country_code":"AR","latitude":"-39.18688000","longitude":"-65.95422000"},{"id":"817","name":"Darwin","state_id":3639,"state_code":"R","country_id":11,"country_code":"AR","latitude":"-39.20334000","longitude":"-65.73952000"},{"id":"832","name":"Departamento de Avellaneda","state_id":3639,"state_code":"R","country_id":11,"country_code":"AR","latitude":"-39.50000000","longitude":"-66.50000000"},{"id":"1032","name":"Departamento de Veinticinco de Mayo","state_id":3639,"state_code":"R","country_id":11,"country_code":"AR","latitude":"-41.25000000","longitude":"-69.00000000"},{"id":"1050","name":"El Bols\u00f3n","state_id":3639,"state_code":"R","country_id":11,"country_code":"AR","latitude":"-41.96051000","longitude":"-71.53336000"},{"id":"1054","name":"El Cuy","state_id":3639,"state_code":"R","country_id":11,"country_code":"AR","latitude":"-39.92685000","longitude":"-68.34208000"},{"id":"1085","name":"Fray Luis Beltr\u00e1n","state_id":3639,"state_code":"R","country_id":11,"country_code":"AR","latitude":"-39.31369000","longitude":"-65.76002000"},{"id":"1099","name":"General Conesa","state_id":3639,"state_code":"R","country_id":11,"country_code":"AR","latitude":"-40.10408000","longitude":"-64.45592000"},{"id":"1100","name":"General Enrique Godoy","state_id":3639,"state_code":"R","country_id":11,"country_code":"AR","latitude":"-39.07891000","longitude":"-67.15807000"},{"id":"1103","name":"General Fern\u00e1ndez Oro","state_id":3639,"state_code":"R","country_id":11,"country_code":"AR","latitude":"-38.95297000","longitude":"-67.92489000"},{"id":"1112","name":"General Roca","state_id":3639,"state_code":"R","country_id":11,"country_code":"AR","latitude":"-39.03333000","longitude":"-67.58333000"},{"id":"1152","name":"Ingeniero Jacobacci","state_id":3639,"state_code":"R","country_id":11,"country_code":"AR","latitude":"-41.32920000","longitude":"-69.55015000"},{"id":"1154","name":"Ingeniero Luis A. Huergo","state_id":3639,"state_code":"R","country_id":11,"country_code":"AR","latitude":"-39.07146000","longitude":"-67.23790000"},{"id":"1212","name":"Lamarque","state_id":3639,"state_code":"R","country_id":11,"country_code":"AR","latitude":"-39.42304000","longitude":"-65.70208000"},{"id":"1253","name":"Los Menucos","state_id":3639,"state_code":"R","country_id":11,"country_code":"AR","latitude":"-40.84402000","longitude":"-68.08718000"},{"id":"1263","name":"Mainque","state_id":3639,"state_code":"R","country_id":11,"country_code":"AR","latitude":"-39.06667000","longitude":"-67.30000000"},{"id":"1268","name":"Maquinchao","state_id":3639,"state_code":"R","country_id":11,"country_code":"AR","latitude":"-41.24912000","longitude":"-68.70321000"},{"id":"1334","name":"Pilcaniyeu","state_id":3639,"state_code":"R","country_id":11,"country_code":"AR","latitude":"-41.12288000","longitude":"-70.72152000"},{"id":"1389","name":"R\u00edo Colorado","state_id":3639,"state_code":"R","country_id":11,"country_code":"AR","latitude":"-38.99397000","longitude":"-64.09295000"},{"id":"1409","name":"San Antonio Oeste","state_id":3639,"state_code":"R","country_id":11,"country_code":"AR","latitude":"-40.73193000","longitude":"-64.94769000"},{"id":"1418","name":"San Carlos de Bariloche","state_id":3639,"state_code":"R","country_id":11,"country_code":"AR","latitude":"-41.14557000","longitude":"-71.30822000"},{"id":"1486","name":"Sierra Colorada","state_id":3639,"state_code":"R","country_id":11,"country_code":"AR","latitude":"-40.58487000","longitude":"-67.75674000"},{"id":"1487","name":"Sierra Grande","state_id":3639,"state_code":"R","country_id":11,"country_code":"AR","latitude":"-41.60603000","longitude":"-65.35574000"},{"id":"1525","name":"Valcheta","state_id":3639,"state_code":"R","country_id":11,"country_code":"AR","latitude":"-40.67989000","longitude":"-66.16283000"},{"id":"1536","name":"Viedma","state_id":3639,"state_code":"R","country_id":11,"country_code":"AR","latitude":"-40.81345000","longitude":"-62.99668000"},{"id":"1574","name":"Villa Regina","state_id":3639,"state_code":"R","country_id":11,"country_code":"AR","latitude":"-39.10000000","longitude":"-67.06667000"},{"id":"677","name":"Avi\u00e1 Terai","state_id":3640,"state_code":"H","country_id":11,"country_code":"AR","latitude":"-26.68532000","longitude":"-60.72920000"},{"id":"685","name":"Barranqueras","state_id":3640,"state_code":"H","country_id":11,"country_code":"AR","latitude":"-27.48132000","longitude":"-58.93925000"},{"id":"686","name":"Basail","state_id":3640,"state_code":"H","country_id":11,"country_code":"AR","latitude":"-27.88539000","longitude":"-59.28245000"},{"id":"719","name":"Campo Largo","state_id":3640,"state_code":"H","country_id":11,"country_code":"AR","latitude":"-26.80077000","longitude":"-60.84215000"},{"id":"730","name":"Capit\u00e1n Solari","state_id":3640,"state_code":"H","country_id":11,"country_code":"AR","latitude":"-26.80215000","longitude":"-59.56089000"},{"id":"737","name":"Castelli","state_id":3640,"state_code":"H","country_id":11,"country_code":"AR","latitude":"-25.94679000","longitude":"-60.61947000"},{"id":"753","name":"Charadai","state_id":3640,"state_code":"H","country_id":11,"country_code":"AR","latitude":"-27.65503000","longitude":"-59.86291000"},{"id":"754","name":"Charata","state_id":3640,"state_code":"H","country_id":11,"country_code":"AR","latitude":"-27.21438000","longitude":"-61.18795000"},{"id":"765","name":"Chorotis","state_id":3640,"state_code":"H","country_id":11,"country_code":"AR","latitude":"-27.91578000","longitude":"-61.39982000"},{"id":"767","name":"Ciervo Petiso","state_id":3640,"state_code":"H","country_id":11,"country_code":"AR","latitude":"-26.58041000","longitude":"-59.63094000"},{"id":"776","name":"Colonia Ben\u00edtez","state_id":3640,"state_code":"H","country_id":11,"country_code":"AR","latitude":"-27.33099000","longitude":"-58.94622000"},{"id":"778","name":"Colonia Elisa","state_id":3640,"state_code":"H","country_id":11,"country_code":"AR","latitude":"-26.93041000","longitude":"-59.51861000"},{"id":"782","name":"Colonias Unidas","state_id":3640,"state_code":"H","country_id":11,"country_code":"AR","latitude":"-26.69825000","longitude":"-59.63154000"},{"id":"791","name":"Concepci\u00f3n del Bermejo","state_id":3640,"state_code":"H","country_id":11,"country_code":"AR","latitude":"-26.59926000","longitude":"-60.94617000"},{"id":"799","name":"Coronel Du Graty","state_id":3640,"state_code":"H","country_id":11,"country_code":"AR","latitude":"-27.68038000","longitude":"-60.91462000"},{"id":"804","name":"Corzuela","state_id":3640,"state_code":"H","country_id":11,"country_code":"AR","latitude":"-26.95374000","longitude":"-60.96928000"},{"id":"807","name":"Cot\u00e9-Lai","state_id":3640,"state_code":"H","country_id":11,"country_code":"AR","latitude":"-27.50000000","longitude":"-59.60000000"},{"id":"822","name":"Departamento de Almirante Brown","state_id":3640,"state_code":"H","country_id":11,"country_code":"AR","latitude":"-25.81662000","longitude":"-61.45576000"},{"id":"837","name":"Departamento de Bermejo","state_id":3640,"state_code":"H","country_id":11,"country_code":"AR","latitude":"-27.00000000","longitude":"-58.66667000"},{"id":"865","name":"Departamento de Comandante Fern\u00e1ndez","state_id":3640,"state_code":"H","country_id":11,"country_code":"AR","latitude":"-26.83333000","longitude":"-60.50000000"},{"id":"875","name":"Departamento de Doce de Octubre","state_id":3640,"state_code":"H","country_id":11,"country_code":"AR","latitude":"-27.41667000","longitude":"-61.33333000"},{"id":"876","name":"Departamento de Dos de Abril","state_id":3640,"state_code":"H","country_id":11,"country_code":"AR","latitude":"-27.60932000","longitude":"-61.34473000"},{"id":"890","name":"Departamento de General Donovan","state_id":3640,"state_code":"H","country_id":11,"country_code":"AR","latitude":"-27.16667000","longitude":"-59.33333000"},{"id":"892","name":"Departamento de General G\u00fcemes","state_id":3640,"state_code":"H","country_id":11,"country_code":"AR","latitude":"-25.16667000","longitude":"-61.41667000"},{"id":"909","name":"Departamento de Independencia","state_id":3640,"state_code":"H","country_id":11,"country_code":"AR","latitude":"-26.66667000","longitude":"-60.66667000"},{"id":"928","name":"Departamento de Libertad","state_id":3640,"state_code":"H","country_id":11,"country_code":"AR","latitude":"-27.33333000","longitude":"-59.33333000"},{"id":"937","name":"Departamento de Maip\u00fa","state_id":3640,"state_code":"H","country_id":11,"country_code":"AR","latitude":"-26.33333000","longitude":"-60.41667000"},{"id":"950","name":"Departamento de Nueve de Julio","state_id":3640,"state_code":"H","country_id":11,"country_code":"AR","latitude":"-26.95331000","longitude":"-61.27627000"},{"id":"954","name":"Departamento de O\u2019Higgins","state_id":3640,"state_code":"H","country_id":11,"country_code":"AR","latitude":"-27.25000000","longitude":"-60.66667000"},{"id":"960","name":"Departamento de Presidencia de la Plaza","state_id":3640,"state_code":"H","country_id":11,"country_code":"AR","latitude":"-27.00000000","longitude":"-59.75000000"},{"id":"962","name":"Departamento de Quitilipi","state_id":3640,"state_code":"H","country_id":11,"country_code":"AR","latitude":"-26.66667000","longitude":"-60.16667000"},{"id":"986","name":"Departamento de San Fernando","state_id":3640,"state_code":"H","country_id":11,"country_code":"AR","latitude":"-27.66667000","longitude":"-59.16667000"},{"id":"994","name":"Departamento de San Lorenzo","state_id":3640,"state_code":"H","country_id":11,"country_code":"AR","latitude":"-27.33333000","longitude":"-60.41667000"},{"id":"1010","name":"Departamento de Sargento Cabral","state_id":3640,"state_code":"H","country_id":11,"country_code":"AR","latitude":"-26.83333000","longitude":"-59.50000000"},{"id":"1017","name":"Departamento de Tapenag\u00e1","state_id":3640,"state_code":"H","country_id":11,"country_code":"AR","latitude":"-27.50000000","longitude":"-59.75000000"},{"id":"1081","name":"Fontana","state_id":3640,"state_code":"H","country_id":11,"country_code":"AR","latitude":"-27.41813000","longitude":"-59.02392000"},{"id":"1088","name":"Gancedo","state_id":3640,"state_code":"H","country_id":11,"country_code":"AR","latitude":"-27.49038000","longitude":"-61.67571000"},{"id":"1105","name":"General Jos\u00e9 de San Mart\u00edn","state_id":3640,"state_code":"H","country_id":11,"country_code":"AR","latitude":"-26.53743000","longitude":"-59.34158000"},{"id":"1109","name":"General Pinedo","state_id":3640,"state_code":"H","country_id":11,"country_code":"AR","latitude":"-27.31667000","longitude":"-61.28333000"},{"id":"1114","name":"General Vedia","state_id":3640,"state_code":"H","country_id":11,"country_code":"AR","latitude":"-26.93382000","longitude":"-58.66040000"},{"id":"1135","name":"Hermoso Campo","state_id":3640,"state_code":"H","country_id":11,"country_code":"AR","latitude":"-27.60816000","longitude":"-61.34441000"},{"id":"1181","name":"La Clotilde","state_id":3640,"state_code":"H","country_id":11,"country_code":"AR","latitude":"-27.13333000","longitude":"-60.66667000"},{"id":"1186","name":"La Eduvigis","state_id":3640,"state_code":"H","country_id":11,"country_code":"AR","latitude":"-26.83607000","longitude":"-59.06211000"},{"id":"1187","name":"La Escondida","state_id":3640,"state_code":"H","country_id":11,"country_code":"AR","latitude":"-27.10724000","longitude":"-59.44784000"},{"id":"1191","name":"La Leonesa","state_id":3640,"state_code":"H","country_id":11,"country_code":"AR","latitude":"-27.03786000","longitude":"-58.70347000"},{"id":"1201","name":"La Tigra","state_id":3640,"state_code":"H","country_id":11,"country_code":"AR","latitude":"-27.10996000","longitude":"-60.58719000"},{"id":"1203","name":"La Verde","state_id":3640,"state_code":"H","country_id":11,"country_code":"AR","latitude":"-27.12634000","longitude":"-59.37352000"},{"id":"1208","name":"Laguna Limpia","state_id":3640,"state_code":"H","country_id":11,"country_code":"AR","latitude":"-26.49565000","longitude":"-59.68083000"},{"id":"1213","name":"Lapachito","state_id":3640,"state_code":"H","country_id":11,"country_code":"AR","latitude":"-27.15997000","longitude":"-59.38605000"},{"id":"1216","name":"Las Bre\u00f1as","state_id":3640,"state_code":"H","country_id":11,"country_code":"AR","latitude":"-27.08966000","longitude":"-61.08161000"},{"id":"1218","name":"Las Garcitas","state_id":3640,"state_code":"H","country_id":11,"country_code":"AR","latitude":"-26.61802000","longitude":"-59.80135000"},{"id":"1249","name":"Los Frentones","state_id":3640,"state_code":"H","country_id":11,"country_code":"AR","latitude":"-26.40770000","longitude":"-61.41367000"},{"id":"1260","name":"Machagai","state_id":3640,"state_code":"H","country_id":11,"country_code":"AR","latitude":"-26.92614000","longitude":"-60.04955000"},{"id":"1264","name":"Makall\u00e9","state_id":3640,"state_code":"H","country_id":11,"country_code":"AR","latitude":"-27.20687000","longitude":"-59.28696000"},{"id":"1270","name":"Margarita Bel\u00e9n","state_id":3640,"state_code":"H","country_id":11,"country_code":"AR","latitude":"-27.26160000","longitude":"-58.97219000"},{"id":"1296","name":"Napenay","state_id":3640,"state_code":"H","country_id":11,"country_code":"AR","latitude":"-26.73333000","longitude":"-60.61667000"},{"id":"1314","name":"Pampa Almir\u00f3n","state_id":3640,"state_code":"H","country_id":11,"country_code":"AR","latitude":"-26.70039000","longitude":"-59.12331000"},{"id":"1316","name":"Pampa del Indio","state_id":3640,"state_code":"H","country_id":11,"country_code":"AR","latitude":"-26.04982000","longitude":"-59.93728000"},{"id":"1317","name":"Pampa del Infierno","state_id":3640,"state_code":"H","country_id":11,"country_code":"AR","latitude":"-26.50517000","longitude":"-61.17436000"},{"id":"1347","name":"Presidencia de la Plaza","state_id":3640,"state_code":"H","country_id":11,"country_code":"AR","latitude":"-27.00147000","longitude":"-59.84243000"},{"id":"1345","name":"Presidencia Roca","state_id":3640,"state_code":"H","country_id":11,"country_code":"AR","latitude":"-26.14090000","longitude":"-59.59541000"},{"id":"1346","name":"Presidencia Roque S\u00e1enz Pe\u00f1a","state_id":3640,"state_code":"H","country_id":11,"country_code":"AR","latitude":"-26.78522000","longitude":"-60.43876000"},{"id":"1351","name":"Puerto Bermejo","state_id":3640,"state_code":"H","country_id":11,"country_code":"AR","latitude":"-26.92739000","longitude":"-58.50917000"},{"id":"1363","name":"Puerto Tirol","state_id":3640,"state_code":"H","country_id":11,"country_code":"AR","latitude":"-27.37218000","longitude":"-59.08206000"},{"id":"1364","name":"Puerto Vilelas","state_id":3640,"state_code":"H","country_id":11,"country_code":"AR","latitude":"-27.51414000","longitude":"-58.93906000"},{"id":"1370","name":"Quitilipi","state_id":3640,"state_code":"H","country_id":11,"country_code":"AR","latitude":"-26.86913000","longitude":"-60.21683000"},{"id":"1379","name":"Resistencia","state_id":3640,"state_code":"H","country_id":11,"country_code":"AR","latitude":"-27.46056000","longitude":"-58.98389000"},{"id":"1405","name":"Samuh\u00fa","state_id":3640,"state_code":"H","country_id":11,"country_code":"AR","latitude":"-27.52116000","longitude":"-60.39167000"},{"id":"1414","name":"San Bernardo","state_id":3640,"state_code":"H","country_id":11,"country_code":"AR","latitude":"-27.28782000","longitude":"-60.71252000"},{"id":"1471","name":"Santa Sylvina","state_id":3640,"state_code":"H","country_id":11,"country_code":"AR","latitude":"-27.83261000","longitude":"-61.13747000"},{"id":"1493","name":"Taco Pozo","state_id":3640,"state_code":"H","country_id":11,"country_code":"AR","latitude":"-25.61557000","longitude":"-63.26708000"},{"id":"1515","name":"Tres Isletas","state_id":3640,"state_code":"H","country_id":11,"country_code":"AR","latitude":"-26.34067000","longitude":"-60.43207000"},{"id":"1586","name":"Villa \u00c1ngela","state_id":3640,"state_code":"H","country_id":11,"country_code":"AR","latitude":"-27.57383000","longitude":"-60.71526000"},{"id":"1542","name":"Villa Berthet","state_id":3640,"state_code":"H","country_id":11,"country_code":"AR","latitude":"-27.29174000","longitude":"-60.41263000"},{"id":"670","name":"Armstrong","state_id":3641,"state_code":"S","country_id":11,"country_code":"AR","latitude":"-32.78215000","longitude":"-61.60222000"},{"id":"673","name":"Arroyo Seco","state_id":3641,"state_code":"S","country_id":11,"country_code":"AR","latitude":"-33.15489000","longitude":"-60.50863000"},{"id":"675","name":"Arruf\u00f3","state_id":3641,"state_code":"S","country_id":11,"country_code":"AR","latitude":"-30.23281000","longitude":"-61.72862000"},{"id":"676","name":"Avellaneda","state_id":3641,"state_code":"S","country_id":11,"country_code":"AR","latitude":"-29.11761000","longitude":"-59.65834000"},{"id":"689","name":"Bella Italia","state_id":3641,"state_code":"S","country_id":11,"country_code":"AR","latitude":"-31.28182000","longitude":"-61.41092000"},{"id":"743","name":"Ca\u00f1ada de G\u00f3mez","state_id":3641,"state_code":"S","country_id":11,"country_code":"AR","latitude":"-32.81636000","longitude":"-61.39493000"},{"id":"710","name":"Calchaqu\u00ed","state_id":3641,"state_code":"S","country_id":11,"country_code":"AR","latitude":"-29.88767000","longitude":"-60.28697000"},{"id":"729","name":"Capit\u00e1n Berm\u00fadez","state_id":3641,"state_code":"S","country_id":11,"country_code":"AR","latitude":"-32.82262000","longitude":"-60.71852000"},{"id":"732","name":"Carcara\u00f1\u00e1","state_id":3641,"state_code":"S","country_id":11,"country_code":"AR","latitude":"-32.85679000","longitude":"-61.15331000"},{"id":"736","name":"Casilda","state_id":3641,"state_code":"S","country_id":11,"country_code":"AR","latitude":"-33.04417000","longitude":"-61.16806000"},{"id":"747","name":"Ceres","state_id":3641,"state_code":"S","country_id":11,"country_code":"AR","latitude":"-29.88100000","longitude":"-61.94504000"},{"id":"758","name":"Cha\u00f1ar Ladeado","state_id":3641,"state_code":"S","country_id":11,"country_code":"AR","latitude":"-33.32524000","longitude":"-62.03831000"},{"id":"796","name":"Coronda","state_id":3641,"state_code":"S","country_id":11,"country_code":"AR","latitude":"-31.97263000","longitude":"-60.91983000"},{"id":"835","name":"Departamento de Belgrano","state_id":3641,"state_code":"S","country_id":11,"country_code":"AR","latitude":"-32.50000000","longitude":"-61.75000000"},{"id":"853","name":"Departamento de Caseros","state_id":3641,"state_code":"S","country_id":11,"country_code":"AR","latitude":"-33.25000000","longitude":"-61.66667000"},{"id":"854","name":"Departamento de Castellanos","state_id":3641,"state_code":"S","country_id":11,"country_code":"AR","latitude":"-31.16667000","longitude":"-61.66667000"},{"id":"869","name":"Departamento de Constituci\u00f3n","state_id":3641,"state_code":"S","country_id":11,"country_code":"AR","latitude":"-33.50000000","longitude":"-60.91667000"},{"id":"916","name":"Departamento de La Capital","state_id":3641,"state_code":"S","country_id":11,"country_code":"AR","latitude":"-31.50000000","longitude":"-60.66667000"},{"id":"951","name":"Departamento de Nueve de Julio","state_id":3641,"state_code":"S","country_id":11,"country_code":"AR","latitude":"-28.83333000","longitude":"-61.33333000"},{"id":"985","name":"Departamento de San Crist\u00f3bal","state_id":3641,"state_code":"S","country_id":11,"country_code":"AR","latitude":"-30.33333000","longitude":"-61.33333000"},{"id":"988","name":"Departamento de San Javier","state_id":3641,"state_code":"S","country_id":11,"country_code":"AR","latitude":"-30.33333000","longitude":"-59.91667000"},{"id":"992","name":"Departamento de San Justo","state_id":3641,"state_code":"S","country_id":11,"country_code":"AR","latitude":"-30.66667000","longitude":"-60.50000000"},{"id":"993","name":"Departamento de San Lorenzo","state_id":3641,"state_code":"S","country_id":11,"country_code":"AR","latitude":"-33.00000000","longitude":"-61.00000000"},{"id":"1000","name":"Departamento de San Mart\u00edn","state_id":3641,"state_code":"S","country_id":11,"country_code":"AR","latitude":"-32.00000000","longitude":"-61.83333000"},{"id":"1033","name":"Departamento de Vera","state_id":3641,"state_code":"S","country_id":11,"country_code":"AR","latitude":"-29.00000000","longitude":"-60.50000000"},{"id":"1062","name":"El Tr\u00e9bol","state_id":3641,"state_code":"S","country_id":11,"country_code":"AR","latitude":"-32.20080000","longitude":"-61.70140000"},{"id":"1069","name":"Esperanza","state_id":3641,"state_code":"S","country_id":11,"country_code":"AR","latitude":"-31.44880000","longitude":"-60.93173000"},{"id":"1079","name":"Firmat","state_id":3641,"state_code":"S","country_id":11,"country_code":"AR","latitude":"-33.45937000","longitude":"-61.48320000"},{"id":"1084","name":"Fray Luis A. Beltr\u00e1n","state_id":3641,"state_code":"S","country_id":11,"country_code":"AR","latitude":"-32.79122000","longitude":"-60.72819000"},{"id":"1086","name":"Funes","state_id":3641,"state_code":"S","country_id":11,"country_code":"AR","latitude":"-32.91568000","longitude":"-60.80995000"},{"id":"1093","name":"Gato Colorado","state_id":3641,"state_code":"S","country_id":11,"country_code":"AR","latitude":"-28.02219000","longitude":"-61.18663000"},{"id":"1131","name":"G\u00e1lvez","state_id":3641,"state_code":"S","country_id":11,"country_code":"AR","latitude":"-32.02927000","longitude":"-61.22103000"},{"id":"1117","name":"Gobernador G\u00e1lvez","state_id":3641,"state_code":"S","country_id":11,"country_code":"AR","latitude":"-33.03016000","longitude":"-60.64045000"},{"id":"1124","name":"Granadero Baigorria","state_id":3641,"state_code":"S","country_id":11,"country_code":"AR","latitude":"-32.85683000","longitude":"-60.71754000"},{"id":"1133","name":"Helvecia","state_id":3641,"state_code":"S","country_id":11,"country_code":"AR","latitude":"-31.09834000","longitude":"-60.08830000"},{"id":"1140","name":"Hersilia","state_id":3641,"state_code":"S","country_id":11,"country_code":"AR","latitude":"-30.00447000","longitude":"-61.84080000"},{"id":"1158","name":"Iriondo Department","state_id":3641,"state_code":"S","country_id":11,"country_code":"AR","latitude":"-32.63333000","longitude":"-61.33333000"},{"id":"1210","name":"Laguna Paiva","state_id":3641,"state_code":"S","country_id":11,"country_code":"AR","latitude":"-31.30391000","longitude":"-60.65894000"},{"id":"1227","name":"Las Parejas","state_id":3641,"state_code":"S","country_id":11,"country_code":"AR","latitude":"-32.68478000","longitude":"-61.51637000"},{"id":"1230","name":"Las Rosas","state_id":3641,"state_code":"S","country_id":11,"country_code":"AR","latitude":"-32.47661000","longitude":"-61.58041000"},{"id":"1231","name":"Las Toscas","state_id":3641,"state_code":"S","country_id":11,"country_code":"AR","latitude":"-28.35290000","longitude":"-59.25795000"},{"id":"1252","name":"Los Laureles","state_id":3641,"state_code":"S","country_id":11,"country_code":"AR","latitude":"-29.36847000","longitude":"-59.73634000"},{"id":"1265","name":"Malabrigo","state_id":3641,"state_code":"S","country_id":11,"country_code":"AR","latitude":"-29.34636000","longitude":"-59.96957000"},{"id":"1276","name":"Melincu\u00e9","state_id":3641,"state_code":"S","country_id":11,"country_code":"AR","latitude":"-33.65847000","longitude":"-61.45459000"},{"id":"1366","name":"P\u00e9rez","state_id":3641,"state_code":"S","country_id":11,"country_code":"AR","latitude":"-32.99835000","longitude":"-60.76791000"},{"id":"1372","name":"Rafaela","state_id":3641,"state_code":"S","country_id":11,"country_code":"AR","latitude":"-31.25033000","longitude":"-61.48670000"},{"id":"1376","name":"Reconquista","state_id":3641,"state_code":"S","country_id":11,"country_code":"AR","latitude":"-29.15000000","longitude":"-59.65000000"},{"id":"1377","name":"Recreo","state_id":3641,"state_code":"S","country_id":11,"country_code":"AR","latitude":"-31.49076000","longitude":"-60.73299000"},{"id":"1383","name":"Rold\u00e1n","state_id":3641,"state_code":"S","country_id":11,"country_code":"AR","latitude":"-32.89846000","longitude":"-60.90681000"},{"id":"1384","name":"Rosario","state_id":3641,"state_code":"S","country_id":11,"country_code":"AR","latitude":"-32.94682000","longitude":"-60.63932000"},{"id":"1386","name":"Rufino","state_id":3641,"state_code":"S","country_id":11,"country_code":"AR","latitude":"-34.26827000","longitude":"-62.71262000"},{"id":"1417","name":"San Carlos Centro","state_id":3641,"state_code":"S","country_id":11,"country_code":"AR","latitude":"-31.72864000","longitude":"-61.09192000"},{"id":"1420","name":"San Crist\u00f3bal","state_id":3641,"state_code":"S","country_id":11,"country_code":"AR","latitude":"-30.31053000","longitude":"-61.23724000"},{"id":"1427","name":"San Javier","state_id":3641,"state_code":"S","country_id":11,"country_code":"AR","latitude":"-30.57781000","longitude":"-59.93170000"},{"id":"1428","name":"San Jorge","state_id":3641,"state_code":"S","country_id":11,"country_code":"AR","latitude":"-31.89618000","longitude":"-61.85984000"},{"id":"1436","name":"San Justo","state_id":3641,"state_code":"S","country_id":11,"country_code":"AR","latitude":"-30.78913000","longitude":"-60.59189000"},{"id":"1458","name":"Santa Fe","state_id":3641,"state_code":"S","country_id":11,"country_code":"AR","latitude":"-31.64881000","longitude":"-60.70868000"},{"id":"1475","name":"Santo Tom\u00e9","state_id":3641,"state_code":"S","country_id":11,"country_code":"AR","latitude":"-31.66274000","longitude":"-60.76530000"},{"id":"1478","name":"Sastre","state_id":3641,"state_code":"S","country_id":11,"country_code":"AR","latitude":"-31.76762000","longitude":"-61.82887000"},{"id":"1490","name":"Sunchales","state_id":3641,"state_code":"S","country_id":11,"country_code":"AR","latitude":"-30.94404000","longitude":"-61.56148000"},{"id":"1494","name":"Tacuarend\u00ed","state_id":3641,"state_code":"S","country_id":11,"country_code":"AR","latitude":"-28.41265000","longitude":"-59.26000000"},{"id":"1509","name":"Tostado","state_id":3641,"state_code":"S","country_id":11,"country_code":"AR","latitude":"-29.23202000","longitude":"-61.76917000"},{"id":"1510","name":"Totoras","state_id":3641,"state_code":"S","country_id":11,"country_code":"AR","latitude":"-32.58440000","longitude":"-61.16852000"},{"id":"1529","name":"Venado Tuerto","state_id":3641,"state_code":"S","country_id":11,"country_code":"AR","latitude":"-33.74556000","longitude":"-61.96885000"},{"id":"1530","name":"Vera","state_id":3641,"state_code":"S","country_id":11,"country_code":"AR","latitude":"-29.45930000","longitude":"-60.21261000"},{"id":"1545","name":"Villa Ca\u00f1\u00e1s","state_id":3641,"state_code":"S","country_id":11,"country_code":"AR","latitude":"-34.00565000","longitude":"-61.60757000"},{"id":"1547","name":"Villa Constituci\u00f3n","state_id":3641,"state_code":"S","country_id":11,"country_code":"AR","latitude":"-33.22778000","longitude":"-60.32970000"},{"id":"1566","name":"Villa Mugueta","state_id":3641,"state_code":"S","country_id":11,"country_code":"AR","latitude":"-33.31129000","longitude":"-61.05515000"},{"id":"1568","name":"Villa Ocampo","state_id":3641,"state_code":"S","country_id":11,"country_code":"AR","latitude":"-28.48752000","longitude":"-59.35515000"},{"id":"1577","name":"Villa Trinidad","state_id":3641,"state_code":"S","country_id":11,"country_code":"AR","latitude":"-30.21329000","longitude":"-61.87597000"},{"id":"639","name":"Achiras","state_id":3642,"state_code":"X","country_id":11,"country_code":"AR","latitude":"-33.17538000","longitude":"-64.99331000"},{"id":"640","name":"Adelia Mar\u00eda","state_id":3642,"state_code":"X","country_id":11,"country_code":"AR","latitude":"-33.63152000","longitude":"-64.02097000"},{"id":"641","name":"Agua de Oro","state_id":3642,"state_code":"X","country_id":11,"country_code":"AR","latitude":"-31.06661000","longitude":"-64.30017000"},{"id":"647","name":"Alejandro Roca","state_id":3642,"state_code":"X","country_id":11,"country_code":"AR","latitude":"-33.35369000","longitude":"-63.71849000"},{"id":"648","name":"Alejo Ledesma","state_id":3642,"state_code":"X","country_id":11,"country_code":"AR","latitude":"-33.60643000","longitude":"-62.62304000"},{"id":"651","name":"Almafuerte","state_id":3642,"state_code":"X","country_id":11,"country_code":"AR","latitude":"-32.19296000","longitude":"-64.25559000"},{"id":"653","name":"Alta Gracia","state_id":3642,"state_code":"X","country_id":11,"country_code":"AR","latitude":"-31.65292000","longitude":"-64.42826000"},{"id":"656","name":"Altos de Chipi\u00f3n","state_id":3642,"state_code":"X","country_id":11,"country_code":"AR","latitude":"-30.95590000","longitude":"-62.33727000"},{"id":"668","name":"Arias","state_id":3642,"state_code":"X","country_id":11,"country_code":"AR","latitude":"-33.64411000","longitude":"-62.40272000"},{"id":"671","name":"Arroyito","state_id":3642,"state_code":"X","country_id":11,"country_code":"AR","latitude":"-31.42022000","longitude":"-63.05002000"},{"id":"672","name":"Arroyo Cabral","state_id":3642,"state_code":"X","country_id":11,"country_code":"AR","latitude":"-32.49119000","longitude":"-63.40126000"},{"id":"681","name":"Balnearia","state_id":3642,"state_code":"X","country_id":11,"country_code":"AR","latitude":"-31.00880000","longitude":"-62.66733000"},{"id":"688","name":"Bell Ville","state_id":3642,"state_code":"X","country_id":11,"country_code":"AR","latitude":"-32.62591000","longitude":"-62.68873000"},{"id":"695","name":"Berrotar\u00e1n","state_id":3642,"state_code":"X","country_id":11,"country_code":"AR","latitude":"-32.45100000","longitude":"-64.38867000"},{"id":"701","name":"Brinkmann","state_id":3642,"state_code":"X","country_id":11,"country_code":"AR","latitude":"-30.86589000","longitude":"-62.03742000"},{"id":"702","name":"Buchardo","state_id":3642,"state_code":"X","country_id":11,"country_code":"AR","latitude":"-34.72263000","longitude":"-63.50920000"},{"id":"744","name":"Ca\u00f1ada de Luque","state_id":3642,"state_code":"X","country_id":11,"country_code":"AR","latitude":"-30.73341000","longitude":"-63.72375000"},{"id":"716","name":"Camilo Aldao","state_id":3642,"state_code":"X","country_id":11,"country_code":"AR","latitude":"-33.12745000","longitude":"-62.09453000"},{"id":"723","name":"Canals","state_id":3642,"state_code":"X","country_id":11,"country_code":"AR","latitude":"-33.56542000","longitude":"-62.88927000"},{"id":"727","name":"Capilla del Monte","state_id":3642,"state_code":"X","country_id":11,"country_code":"AR","latitude":"-30.86088000","longitude":"-64.52515000"},{"id":"733","name":"Carnerillo","state_id":3642,"state_code":"X","country_id":11,"country_code":"AR","latitude":"-32.91371000","longitude":"-64.02175000"},{"id":"734","name":"Carrilobo","state_id":3642,"state_code":"X","country_id":11,"country_code":"AR","latitude":"-31.87296000","longitude":"-63.11715000"},{"id":"742","name":"Cavanagh","state_id":3642,"state_code":"X","country_id":11,"country_code":"AR","latitude":"-33.47606000","longitude":"-62.33888000"},{"id":"815","name":"C\u00f3rdoba","state_id":3642,"state_code":"X","country_id":11,"country_code":"AR","latitude":"-31.41350000","longitude":"-64.18105000"},{"id":"755","name":"Charras","state_id":3642,"state_code":"X","country_id":11,"country_code":"AR","latitude":"-33.02400000","longitude":"-64.04719000"},{"id":"757","name":"Chaz\u00f3n","state_id":3642,"state_code":"X","country_id":11,"country_code":"AR","latitude":"-33.07872000","longitude":"-63.27657000"},{"id":"769","name":"Cintra","state_id":3642,"state_code":"X","country_id":11,"country_code":"AR","latitude":"-32.30673000","longitude":"-62.65214000"},{"id":"780","name":"Colonia La Tordilla","state_id":3642,"state_code":"X","country_id":11,"country_code":"AR","latitude":"-31.23746000","longitude":"-63.06134000"},{"id":"781","name":"Colonia San Bartolom\u00e9","state_id":3642,"state_code":"X","country_id":11,"country_code":"AR","latitude":"-31.52780000","longitude":"-62.72436000"},{"id":"797","name":"Coronel Baigorria","state_id":3642,"state_code":"X","country_id":11,"country_code":"AR","latitude":"-32.84770000","longitude":"-64.36107000"},{"id":"800","name":"Coronel Moldes","state_id":3642,"state_code":"X","country_id":11,"country_code":"AR","latitude":"-33.62270000","longitude":"-64.59711000"},{"id":"801","name":"Corral de Bustos","state_id":3642,"state_code":"X","country_id":11,"country_code":"AR","latitude":"-33.28205000","longitude":"-62.18463000"},{"id":"802","name":"Corralito","state_id":3642,"state_code":"X","country_id":11,"country_code":"AR","latitude":"-32.02462000","longitude":"-64.19216000"},{"id":"805","name":"Cosqu\u00edn","state_id":3642,"state_code":"X","country_id":11,"country_code":"AR","latitude":"-31.24508000","longitude":"-64.46563000"},{"id":"806","name":"Costa Sacate","state_id":3642,"state_code":"X","country_id":11,"country_code":"AR","latitude":"-31.64770000","longitude":"-63.75935000"},{"id":"809","name":"Cruz Alta","state_id":3642,"state_code":"X","country_id":11,"country_code":"AR","latitude":"-33.00887000","longitude":"-61.80746000"},{"id":"811","name":"Cruz del Eje","state_id":3642,"state_code":"X","country_id":11,"country_code":"AR","latitude":"-30.72644000","longitude":"-64.80387000"},{"id":"812","name":"Cuesta Blanca","state_id":3642,"state_code":"X","country_id":11,"country_code":"AR","latitude":"-31.48658000","longitude":"-64.57150000"},{"id":"816","name":"Dalmacio V\u00e9lez S\u00e1rsfield","state_id":3642,"state_code":"X","country_id":11,"country_code":"AR","latitude":"-32.61072000","longitude":"-63.58038000"},{"id":"1039","name":"De\u00e1n Funes","state_id":3642,"state_code":"X","country_id":11,"country_code":"AR","latitude":"-30.42036000","longitude":"-64.34984000"},{"id":"818","name":"Del Campillo","state_id":3642,"state_code":"X","country_id":11,"country_code":"AR","latitude":"-34.37659000","longitude":"-64.49504000"},{"id":"842","name":"Departamento de Calamuchita","state_id":3642,"state_code":"X","country_id":11,"country_code":"AR","latitude":"-32.25000000","longitude":"-64.58333000"},{"id":"864","name":"Departamento de Col\u00f3n","state_id":3642,"state_code":"X","country_id":11,"country_code":"AR","latitude":"-31.16667000","longitude":"-64.16667000"},{"id":"871","name":"Departamento de Cruz del Eje","state_id":3642,"state_code":"X","country_id":11,"country_code":"AR","latitude":"-30.75000000","longitude":"-65.00000000"},{"id":"896","name":"Departamento de General Roca","state_id":3642,"state_code":"X","country_id":11,"country_code":"AR","latitude":"-34.66667000","longitude":"-64.25000000"},{"id":"897","name":"Departamento de General San Mart\u00edn","state_id":3642,"state_code":"X","country_id":11,"country_code":"AR","latitude":"-32.50000000","longitude":"-63.33333000"},{"id":"914","name":"Departamento de Ju\u00e1rez Celman","state_id":3642,"state_code":"X","country_id":11,"country_code":"AR","latitude":"-33.33333000","longitude":"-63.66667000"},{"id":"939","name":"Departamento de Marcos Ju\u00e1rez","state_id":3642,"state_code":"X","country_id":11,"country_code":"AR","latitude":"-33.00000000","longitude":"-62.25000000"},{"id":"943","name":"Departamento de Minas","state_id":3642,"state_code":"X","country_id":11,"country_code":"AR","latitude":"-31.00000000","longitude":"-65.33333000"},{"id":"961","name":"Departamento de Presidente Roque S\u00e1enz Pe\u00f1a","state_id":3642,"state_code":"X","country_id":11,"country_code":"AR","latitude":"-34.25000000","longitude":"-63.50000000"},{"id":"974","name":"Departamento de R\u00edo Cuarto","state_id":3642,"state_code":"X","country_id":11,"country_code":"AR","latitude":"-33.33333000","longitude":"-64.50000000"},{"id":"976","name":"Departamento de R\u00edo Primero","state_id":3642,"state_code":"X","country_id":11,"country_code":"AR","latitude":"-31.08333000","longitude":"-63.50000000"},{"id":"977","name":"Departamento de R\u00edo Seco","state_id":3642,"state_code":"X","country_id":11,"country_code":"AR","latitude":"-30.08333000","longitude":"-63.00000000"},{"id":"978","name":"Departamento de R\u00edo Segundo","state_id":3642,"state_code":"X","country_id":11,"country_code":"AR","latitude":"-31.75000000","longitude":"-63.50000000"},{"id":"981","name":"Departamento de San Alberto","state_id":3642,"state_code":"X","country_id":11,"country_code":"AR","latitude":"-31.75000000","longitude":"-65.25000000"},{"id":"990","name":"Departamento de San Javier","state_id":3642,"state_code":"X","country_id":11,"country_code":"AR","latitude":"-32.08333000","longitude":"-65.16667000"},{"id":"991","name":"Departamento de San Justo","state_id":3642,"state_code":"X","country_id":11,"country_code":"AR","latitude":"-31.33333000","longitude":"-62.66667000"},{"id":"1016","name":"Departamento de Sobremonte","state_id":3642,"state_code":"X","country_id":11,"country_code":"AR","latitude":"-29.66667000","longitude":"-64.08333000"},{"id":"1022","name":"Departamento de Totoral","state_id":3642,"state_code":"X","country_id":11,"country_code":"AR","latitude":"-30.83333000","longitude":"-63.91667000"},{"id":"1024","name":"Departamento de Tulumba","state_id":3642,"state_code":"X","country_id":11,"country_code":"AR","latitude":"-30.25000000","longitude":"-63.91667000"},{"id":"1029","name":"Departamento de Uni\u00f3n","state_id":3642,"state_code":"X","country_id":11,"country_code":"AR","latitude":"-32.83333000","longitude":"-62.75000000"},{"id":"1037","name":"Despe\u00f1aderos","state_id":3642,"state_code":"X","country_id":11,"country_code":"AR","latitude":"-31.81626000","longitude":"-64.28989000"},{"id":"1038","name":"Devoto","state_id":3642,"state_code":"X","country_id":11,"country_code":"AR","latitude":"-31.40431000","longitude":"-62.30634000"},{"id":"1049","name":"El Ara\u00f1ado","state_id":3642,"state_code":"X","country_id":11,"country_code":"AR","latitude":"-31.74120000","longitude":"-62.89322000"},{"id":"1063","name":"El T\u00edo","state_id":3642,"state_code":"X","country_id":11,"country_code":"AR","latitude":"-31.38357000","longitude":"-62.82938000"},{"id":"1064","name":"Elena","state_id":3642,"state_code":"X","country_id":11,"country_code":"AR","latitude":"-32.57205000","longitude":"-64.39481000"},{"id":"1066","name":"Embalse","state_id":3642,"state_code":"X","country_id":11,"country_code":"AR","latitude":"-32.18000000","longitude":"-64.41809000"},{"id":"1073","name":"Etruria","state_id":3642,"state_code":"X","country_id":11,"country_code":"AR","latitude":"-32.94008000","longitude":"-63.24660000"},{"id":"1096","name":"General Baldissera","state_id":3642,"state_code":"X","country_id":11,"country_code":"AR","latitude":"-33.12246000","longitude":"-62.30630000"},{"id":"1097","name":"General Cabrera","state_id":3642,"state_code":"X","country_id":11,"country_code":"AR","latitude":"-32.81313000","longitude":"-63.87243000"},{"id":"1106","name":"General Levalle","state_id":3642,"state_code":"X","country_id":11,"country_code":"AR","latitude":"-34.01472000","longitude":"-63.92413000"},{"id":"1111","name":"General Roca","state_id":3642,"state_code":"X","country_id":11,"country_code":"AR","latitude":"-32.73196000","longitude":"-61.91599000"},{"id":"1129","name":"Guatimoz\u00edn","state_id":3642,"state_code":"X","country_id":11,"country_code":"AR","latitude":"-33.46149000","longitude":"-62.43844000"},{"id":"1136","name":"Hernando","state_id":3642,"state_code":"X","country_id":11,"country_code":"AR","latitude":"-32.42657000","longitude":"-63.73333000"},{"id":"1143","name":"Huanchillas","state_id":3642,"state_code":"X","country_id":11,"country_code":"AR","latitude":"-33.66653000","longitude":"-63.63701000"},{"id":"1144","name":"Huerta Grande","state_id":3642,"state_code":"X","country_id":11,"country_code":"AR","latitude":"-31.07524000","longitude":"-64.49063000"},{"id":"1146","name":"Huinca Renanc\u00f3","state_id":3642,"state_code":"X","country_id":11,"country_code":"AR","latitude":"-34.84038000","longitude":"-64.37580000"},{"id":"1150","name":"Idiaz\u00e1bal","state_id":3642,"state_code":"X","country_id":11,"country_code":"AR","latitude":"-32.81411000","longitude":"-63.03252000"},{"id":"1156","name":"Inriville","state_id":3642,"state_code":"X","country_id":11,"country_code":"AR","latitude":"-32.94424000","longitude":"-62.23028000"},{"id":"1159","name":"Isla Verde","state_id":3642,"state_code":"X","country_id":11,"country_code":"AR","latitude":"-33.24104000","longitude":"-62.40297000"},{"id":"1160","name":"Ital\u00f3","state_id":3642,"state_code":"X","country_id":11,"country_code":"AR","latitude":"-34.79237000","longitude":"-63.78199000"},{"id":"1165","name":"James Craik","state_id":3642,"state_code":"X","country_id":11,"country_code":"AR","latitude":"-32.16120000","longitude":"-63.46688000"},{"id":"1167","name":"Jes\u00fas Mar\u00eda","state_id":3642,"state_code":"X","country_id":11,"country_code":"AR","latitude":"-30.98153000","longitude":"-64.09424000"},{"id":"1173","name":"Justiniano Posse","state_id":3642,"state_code":"X","country_id":11,"country_code":"AR","latitude":"-32.88411000","longitude":"-62.67788000"},{"id":"1178","name":"La Calera","state_id":3642,"state_code":"X","country_id":11,"country_code":"AR","latitude":"-31.34377000","longitude":"-64.33529000"},{"id":"1179","name":"La Carlota","state_id":3642,"state_code":"X","country_id":11,"country_code":"AR","latitude":"-33.41993000","longitude":"-63.29769000"},{"id":"1180","name":"La Cesira","state_id":3642,"state_code":"X","country_id":11,"country_code":"AR","latitude":"-33.95115000","longitude":"-62.97238000"},{"id":"1185","name":"La Cumbre","state_id":3642,"state_code":"X","country_id":11,"country_code":"AR","latitude":"-30.98201000","longitude":"-64.49139000"},{"id":"1188","name":"La Falda","state_id":3642,"state_code":"X","country_id":11,"country_code":"AR","latitude":"-31.08841000","longitude":"-64.48987000"},{"id":"1189","name":"La Francia","state_id":3642,"state_code":"X","country_id":11,"country_code":"AR","latitude":"-31.40675000","longitude":"-62.63396000"},{"id":"1190","name":"La Granja","state_id":3642,"state_code":"X","country_id":11,"country_code":"AR","latitude":"-31.00919000","longitude":"-64.26869000"},{"id":"1194","name":"La Para","state_id":3642,"state_code":"X","country_id":11,"country_code":"AR","latitude":"-30.89416000","longitude":"-63.00107000"},{"id":"1196","name":"La Playosa","state_id":3642,"state_code":"X","country_id":11,"country_code":"AR","latitude":"-32.10002000","longitude":"-63.03088000"},{"id":"1204","name":"Laborde","state_id":3642,"state_code":"X","country_id":11,"country_code":"AR","latitude":"-33.15319000","longitude":"-62.85661000"},{"id":"1205","name":"Laboulaye","state_id":3642,"state_code":"X","country_id":11,"country_code":"AR","latitude":"-34.12662000","longitude":"-63.39119000"},{"id":"1207","name":"Laguna Larga","state_id":3642,"state_code":"X","country_id":11,"country_code":"AR","latitude":"-31.77652000","longitude":"-63.80104000"},{"id":"1215","name":"Las Acequias","state_id":3642,"state_code":"X","country_id":11,"country_code":"AR","latitude":"-33.28155000","longitude":"-63.97610000"},{"id":"1221","name":"Las Higueras","state_id":3642,"state_code":"X","country_id":11,"country_code":"AR","latitude":"-33.09231000","longitude":"-64.28899000"},{"id":"1222","name":"Las Junturas","state_id":3642,"state_code":"X","country_id":11,"country_code":"AR","latitude":"-31.83125000","longitude":"-63.45016000"},{"id":"1228","name":"Las Perdices","state_id":3642,"state_code":"X","country_id":11,"country_code":"AR","latitude":"-32.69794000","longitude":"-63.70634000"},{"id":"1232","name":"Las Varas","state_id":3642,"state_code":"X","country_id":11,"country_code":"AR","latitude":"-31.80260000","longitude":"-62.61655000"},{"id":"1233","name":"Las Varillas","state_id":3642,"state_code":"X","country_id":11,"country_code":"AR","latitude":"-31.87208000","longitude":"-62.71946000"},{"id":"1234","name":"Leones","state_id":3642,"state_code":"X","country_id":11,"country_code":"AR","latitude":"-32.66174000","longitude":"-62.29678000"},{"id":"1248","name":"Los C\u00f3ndores","state_id":3642,"state_code":"X","country_id":11,"country_code":"AR","latitude":"-32.31983000","longitude":"-64.27751000"},{"id":"1246","name":"Los Cocos","state_id":3642,"state_code":"X","country_id":11,"country_code":"AR","latitude":"-30.92497000","longitude":"-64.50207000"},{"id":"1254","name":"Los Surgentes","state_id":3642,"state_code":"X","country_id":11,"country_code":"AR","latitude":"-32.98454000","longitude":"-62.02191000"},{"id":"1266","name":"Malague\u00f1o","state_id":3642,"state_code":"X","country_id":11,"country_code":"AR","latitude":"-31.46467000","longitude":"-64.35840000"},{"id":"1267","name":"Malvinas Argentinas","state_id":3642,"state_code":"X","country_id":11,"country_code":"AR","latitude":"-31.38194000","longitude":"-64.05545000"},{"id":"1269","name":"Marcos Ju\u00e1rez","state_id":3642,"state_code":"X","country_id":11,"country_code":"AR","latitude":"-32.69780000","longitude":"-62.10672000"},{"id":"1273","name":"Marull","state_id":3642,"state_code":"X","country_id":11,"country_code":"AR","latitude":"-30.99471000","longitude":"-62.82576000"},{"id":"1274","name":"Mattaldi","state_id":3642,"state_code":"X","country_id":11,"country_code":"AR","latitude":"-34.48194000","longitude":"-64.17255000"},{"id":"1277","name":"Mendiolaza","state_id":3642,"state_code":"X","country_id":11,"country_code":"AR","latitude":"-31.26738000","longitude":"-64.30087000"},{"id":"1282","name":"Mina Clavero","state_id":3642,"state_code":"X","country_id":11,"country_code":"AR","latitude":"-31.72101000","longitude":"-65.00619000"},{"id":"1283","name":"Miramar","state_id":3642,"state_code":"X","country_id":11,"country_code":"AR","latitude":"-30.91859000","longitude":"-62.67814000"},{"id":"1286","name":"Monte Buey","state_id":3642,"state_code":"X","country_id":11,"country_code":"AR","latitude":"-32.91642000","longitude":"-62.45669000"},{"id":"1288","name":"Monte Cristo","state_id":3642,"state_code":"X","country_id":11,"country_code":"AR","latitude":"-31.34312000","longitude":"-63.94437000"},{"id":"1289","name":"Monte Ma\u00edz","state_id":3642,"state_code":"X","country_id":11,"country_code":"AR","latitude":"-33.20462000","longitude":"-62.60085000"},{"id":"1292","name":"Morrison","state_id":3642,"state_code":"X","country_id":11,"country_code":"AR","latitude":"-32.59480000","longitude":"-62.83455000"},{"id":"1293","name":"Morteros","state_id":3642,"state_code":"X","country_id":11,"country_code":"AR","latitude":"-30.71164000","longitude":"-61.99862000"},{"id":"1299","name":"Noetinger","state_id":3642,"state_code":"X","country_id":11,"country_code":"AR","latitude":"-32.36597000","longitude":"-62.31126000"},{"id":"1305","name":"Obispo Trejo","state_id":3642,"state_code":"X","country_id":11,"country_code":"AR","latitude":"-30.78128000","longitude":"-63.41349000"},{"id":"1306","name":"Oliva","state_id":3642,"state_code":"X","country_id":11,"country_code":"AR","latitude":"-32.04158000","longitude":"-63.56978000"},{"id":"1307","name":"Oncativo","state_id":3642,"state_code":"X","country_id":11,"country_code":"AR","latitude":"-31.91353000","longitude":"-63.68201000"},{"id":"1308","name":"Ord\u00f3\u00f1ez","state_id":3642,"state_code":"X","country_id":11,"country_code":"AR","latitude":"-32.84057000","longitude":"-62.86552000"},{"id":"1321","name":"Pascanas","state_id":3642,"state_code":"X","country_id":11,"country_code":"AR","latitude":"-33.12550000","longitude":"-63.04084000"},{"id":"1322","name":"Pasco","state_id":3642,"state_code":"X","country_id":11,"country_code":"AR","latitude":"-32.74733000","longitude":"-63.34232000"},{"id":"1333","name":"Pilar","state_id":3642,"state_code":"X","country_id":11,"country_code":"AR","latitude":"-31.67890000","longitude":"-63.87964000"},{"id":"1335","name":"Piquill\u00edn","state_id":3642,"state_code":"X","country_id":11,"country_code":"AR","latitude":"-31.30158000","longitude":"-63.75788000"},{"id":"1341","name":"Porte\u00f1a","state_id":3642,"state_code":"X","country_id":11,"country_code":"AR","latitude":"-31.01391000","longitude":"-62.06650000"},{"id":"1343","name":"Pozo del Molle","state_id":3642,"state_code":"X","country_id":11,"country_code":"AR","latitude":"-32.01860000","longitude":"-62.91984000"},{"id":"1368","name":"Quilino","state_id":3642,"state_code":"X","country_id":11,"country_code":"AR","latitude":"-30.21397000","longitude":"-64.50063000"},{"id":"1388","name":"R\u00edo Ceballos","state_id":3642,"state_code":"X","country_id":11,"country_code":"AR","latitude":"-31.16486000","longitude":"-64.32241000"},{"id":"1390","name":"R\u00edo Cuarto","state_id":3642,"state_code":"X","country_id":11,"country_code":"AR","latitude":"-33.13067000","longitude":"-64.34992000"},{"id":"1395","name":"R\u00edo Segundo","state_id":3642,"state_code":"X","country_id":11,"country_code":"AR","latitude":"-31.65260000","longitude":"-63.90990000"},{"id":"1396","name":"R\u00edo Tercero","state_id":3642,"state_code":"X","country_id":11,"country_code":"AR","latitude":"-32.17301000","longitude":"-64.11405000"},{"id":"1398","name":"Sacanta","state_id":3642,"state_code":"X","country_id":11,"country_code":"AR","latitude":"-31.66300000","longitude":"-63.04505000"},{"id":"1400","name":"Sald\u00e1n","state_id":3642,"state_code":"X","country_id":11,"country_code":"AR","latitude":"-31.30262000","longitude":"-64.30700000"},{"id":"1401","name":"Salsacate","state_id":3642,"state_code":"X","country_id":11,"country_code":"AR","latitude":"-31.31842000","longitude":"-65.09003000"},{"id":"1402","name":"Salsipuedes","state_id":3642,"state_code":"X","country_id":11,"country_code":"AR","latitude":"-31.13725000","longitude":"-64.29589000"},{"id":"1404","name":"Sampacho","state_id":3642,"state_code":"X","country_id":11,"country_code":"AR","latitude":"-33.38390000","longitude":"-64.72211000"},{"id":"1406","name":"San Agust\u00edn","state_id":3642,"state_code":"X","country_id":11,"country_code":"AR","latitude":"-31.97681000","longitude":"-64.37400000"},{"id":"1410","name":"San Antonio de Lit\u00edn","state_id":3642,"state_code":"X","country_id":11,"country_code":"AR","latitude":"-32.21377000","longitude":"-62.63237000"},{"id":"1412","name":"San Basilio","state_id":3642,"state_code":"X","country_id":11,"country_code":"AR","latitude":"-33.49763000","longitude":"-64.31495000"},{"id":"1415","name":"San Carlos","state_id":3642,"state_code":"X","country_id":11,"country_code":"AR","latitude":"-31.17761000","longitude":"-65.10245000"},{"id":"1422","name":"San Francisco","state_id":3642,"state_code":"X","country_id":11,"country_code":"AR","latitude":"-31.42797000","longitude":"-62.08266000"},{"id":"1424","name":"San Francisco del Cha\u00f1ar","state_id":3642,"state_code":"X","country_id":11,"country_code":"AR","latitude":"-29.78830000","longitude":"-63.94411000"},{"id":"1432","name":"San Jos\u00e9 de la Dormida","state_id":3642,"state_code":"X","country_id":11,"country_code":"AR","latitude":"-30.35440000","longitude":"-63.94871000"},{"id":"1457","name":"Santa Eufemia","state_id":3642,"state_code":"X","country_id":11,"country_code":"AR","latitude":"-33.17659000","longitude":"-63.28281000"},{"id":"1462","name":"Santa Magdalena","state_id":3642,"state_code":"X","country_id":11,"country_code":"AR","latitude":"-34.51776000","longitude":"-63.94409000"},{"id":"1467","name":"Santa Rosa de Calamuchita","state_id":3642,"state_code":"X","country_id":11,"country_code":"AR","latitude":"-32.06905000","longitude":"-64.53631000"},{"id":"1468","name":"Santa Rosa de R\u00edo Primero","state_id":3642,"state_code":"X","country_id":11,"country_code":"AR","latitude":"-31.15231000","longitude":"-63.40191000"},{"id":"1472","name":"Santiago Temple","state_id":3642,"state_code":"X","country_id":11,"country_code":"AR","latitude":"-31.38731000","longitude":"-63.41821000"},{"id":"1479","name":"Saturnino M. Laspiur","state_id":3642,"state_code":"X","country_id":11,"country_code":"AR","latitude":"-31.70287000","longitude":"-62.48202000"},{"id":"1481","name":"Sebasti\u00e1n Elcano","state_id":3642,"state_code":"X","country_id":11,"country_code":"AR","latitude":"-30.16105000","longitude":"-63.59360000"},{"id":"1484","name":"Serrano","state_id":3642,"state_code":"X","country_id":11,"country_code":"AR","latitude":"-34.46971000","longitude":"-63.53842000"},{"id":"1485","name":"Serrezuela","state_id":3642,"state_code":"X","country_id":11,"country_code":"AR","latitude":"-30.63761000","longitude":"-65.38692000"},{"id":"1497","name":"Tancacha","state_id":3642,"state_code":"X","country_id":11,"country_code":"AR","latitude":"-32.24309000","longitude":"-63.98070000"},{"id":"1517","name":"T\u00edo Pujio","state_id":3642,"state_code":"X","country_id":11,"country_code":"AR","latitude":"-32.28790000","longitude":"-63.35598000"},{"id":"1502","name":"Ticino","state_id":3642,"state_code":"X","country_id":11,"country_code":"AR","latitude":"-32.69350000","longitude":"-63.43606000"},{"id":"1507","name":"Toledo","state_id":3642,"state_code":"X","country_id":11,"country_code":"AR","latitude":"-31.55574000","longitude":"-64.00947000"},{"id":"1519","name":"Ucacha","state_id":3642,"state_code":"X","country_id":11,"country_code":"AR","latitude":"-33.03203000","longitude":"-63.50666000"},{"id":"1521","name":"Unquillo","state_id":3642,"state_code":"X","country_id":11,"country_code":"AR","latitude":"-31.23073000","longitude":"-64.31615000"},{"id":"1526","name":"Valle Hermoso","state_id":3642,"state_code":"X","country_id":11,"country_code":"AR","latitude":"-31.11732000","longitude":"-64.48084000"},{"id":"1532","name":"Viamonte","state_id":3642,"state_code":"X","country_id":11,"country_code":"AR","latitude":"-33.74647000","longitude":"-63.09764000"},{"id":"1535","name":"Vicu\u00f1a Mackenna","state_id":3642,"state_code":"X","country_id":11,"country_code":"AR","latitude":"-33.91965000","longitude":"-64.39215000"},{"id":"1537","name":"Villa Allende","state_id":3642,"state_code":"X","country_id":11,"country_code":"AR","latitude":"-31.29458000","longitude":"-64.29538000"},{"id":"1538","name":"Villa Ascasubi","state_id":3642,"state_code":"X","country_id":11,"country_code":"AR","latitude":"-32.16351000","longitude":"-63.89157000"},{"id":"1541","name":"Villa Berna","state_id":3642,"state_code":"X","country_id":11,"country_code":"AR","latitude":"-31.91419000","longitude":"-64.73249000"},{"id":"1544","name":"Villa Carlos Paz","state_id":3642,"state_code":"X","country_id":11,"country_code":"AR","latitude":"-31.42414000","longitude":"-64.49778000"},{"id":"1546","name":"Villa Concepci\u00f3n del T\u00edo","state_id":3642,"state_code":"X","country_id":11,"country_code":"AR","latitude":"-31.32259000","longitude":"-62.81354000"},{"id":"1548","name":"Villa Cura Brochero","state_id":3642,"state_code":"X","country_id":11,"country_code":"AR","latitude":"-31.70578000","longitude":"-65.01796000"},{"id":"1581","name":"Villa de Soto","state_id":3642,"state_code":"X","country_id":11,"country_code":"AR","latitude":"-30.85523000","longitude":"-64.99947000"},{"id":"1582","name":"Villa del Dique","state_id":3642,"state_code":"X","country_id":11,"country_code":"AR","latitude":"-32.17667000","longitude":"-64.45543000"},{"id":"1583","name":"Villa del Rosario","state_id":3642,"state_code":"X","country_id":11,"country_code":"AR","latitude":"-31.55660000","longitude":"-63.53452000"},{"id":"1585","name":"Villa del Totoral","state_id":3642,"state_code":"X","country_id":11,"country_code":"AR","latitude":"-30.81667000","longitude":"-63.71667000"},{"id":"1549","name":"Villa Dolores","state_id":3642,"state_code":"X","country_id":11,"country_code":"AR","latitude":"-31.94585000","longitude":"-65.18958000"},{"id":"1552","name":"Villa General Belgrano","state_id":3642,"state_code":"X","country_id":11,"country_code":"AR","latitude":"-31.97828000","longitude":"-64.55627000"},{"id":"1556","name":"Villa Giardino","state_id":3642,"state_code":"X","country_id":11,"country_code":"AR","latitude":"-31.03333000","longitude":"-64.48333000"},{"id":"1558","name":"Villa Huidobro","state_id":3642,"state_code":"X","country_id":11,"country_code":"AR","latitude":"-34.83826000","longitude":"-64.58686000"},{"id":"1560","name":"Villa Las Rosas","state_id":3642,"state_code":"X","country_id":11,"country_code":"AR","latitude":"-31.95021000","longitude":"-65.05354000"},{"id":"1563","name":"Villa Mar\u00eda","state_id":3642,"state_code":"X","country_id":11,"country_code":"AR","latitude":"-32.40751000","longitude":"-63.24016000"},{"id":"1567","name":"Villa Nueva","state_id":3642,"state_code":"X","country_id":11,"country_code":"AR","latitude":"-32.43293000","longitude":"-63.24763000"},{"id":"1573","name":"Villa Reducci\u00f3n","state_id":3642,"state_code":"X","country_id":11,"country_code":"AR","latitude":"-33.20105000","longitude":"-63.86234000"},{"id":"1575","name":"Villa Rumipal","state_id":3642,"state_code":"X","country_id":11,"country_code":"AR","latitude":"-32.18790000","longitude":"-64.48027000"},{"id":"1578","name":"Villa Tulumba","state_id":3642,"state_code":"X","country_id":11,"country_code":"AR","latitude":"-30.39552000","longitude":"-64.12241000"},{"id":"1580","name":"Villa Valeria","state_id":3642,"state_code":"X","country_id":11,"country_code":"AR","latitude":"-34.34093000","longitude":"-64.92030000"},{"id":"1591","name":"Wenceslao Escalante","state_id":3642,"state_code":"X","country_id":11,"country_code":"AR","latitude":"-33.17303000","longitude":"-62.77078000"},{"id":"664","name":"Apolinario Saravia","state_id":3643,"state_code":"A","country_id":11,"country_code":"AR","latitude":"-24.43276000","longitude":"-63.99535000"},{"id":"707","name":"Cach\u00ed","state_id":3643,"state_code":"A","country_id":11,"country_code":"AR","latitude":"-25.12033000","longitude":"-66.16519000"},{"id":"708","name":"Cafayate","state_id":3643,"state_code":"A","country_id":11,"country_code":"AR","latitude":"-26.08333000","longitude":"-65.83333000"},{"id":"720","name":"Campo Quijano","state_id":3643,"state_code":"A","country_id":11,"country_code":"AR","latitude":"-24.90982000","longitude":"-65.63656000"},{"id":"760","name":"Chicoana","state_id":3643,"state_code":"A","country_id":11,"country_code":"AR","latitude":"-25.10502000","longitude":"-65.53473000"},{"id":"819","name":"Departamento Capital","state_id":3643,"state_code":"A","country_id":11,"country_code":"AR","latitude":"-24.83333000","longitude":"-65.33333000"},{"id":"828","name":"Departamento de Anta","state_id":3643,"state_code":"A","country_id":11,"country_code":"AR","latitude":"-24.91667000","longitude":"-64.00000000"},{"id":"857","name":"Departamento de Cerrillos","state_id":3643,"state_code":"A","country_id":11,"country_code":"AR","latitude":"-25.00000000","longitude":"-65.41667000"},{"id":"858","name":"Departamento de Chicoana","state_id":3643,"state_code":"A","country_id":11,"country_code":"AR","latitude":"-25.11583000","longitude":"-65.59466000"},{"id":"891","name":"Departamento de General G\u00fcemes","state_id":3643,"state_code":"A","country_id":11,"country_code":"AR","latitude":"-24.79464000","longitude":"-64.94393000"},{"id":"901","name":"Departamento de Guachipas","state_id":3643,"state_code":"A","country_id":11,"country_code":"AR","latitude":"-25.66667000","longitude":"-65.50000000"},{"id":"911","name":"Departamento de Iruya","state_id":3643,"state_code":"A","country_id":11,"country_code":"AR","latitude":"-22.80000000","longitude":"-64.91667000"},{"id":"920","name":"Departamento de La Poma","state_id":3643,"state_code":"A","country_id":11,"country_code":"AR","latitude":"-24.16667000","longitude":"-66.16667000"},{"id":"921","name":"Departamento de La Vi\u00f1a","state_id":3643,"state_code":"A","country_id":11,"country_code":"AR","latitude":"-25.50000000","longitude":"-65.66667000"},{"id":"931","name":"Departamento de Los Andes","state_id":3643,"state_code":"A","country_id":11,"country_code":"AR","latitude":"-24.50000000","longitude":"-67.33333000"},{"id":"942","name":"Departamento de Met\u00e1n","state_id":3643,"state_code":"A","country_id":11,"country_code":"AR","latitude":"-25.50000000","longitude":"-64.66667000"},{"id":"968","name":"Departamento de Rivadavia","state_id":3643,"state_code":"A","country_id":11,"country_code":"AR","latitude":"-23.66667000","longitude":"-62.91667000"},{"id":"971","name":"Departamento de Rosario de la Frontera","state_id":3643,"state_code":"A","country_id":11,"country_code":"AR","latitude":"-25.91667000","longitude":"-64.83333000"},{"id":"970","name":"Departamento de Rosario de Lerma","state_id":3643,"state_code":"A","country_id":11,"country_code":"AR","latitude":"-24.58333000","longitude":"-65.83333000"},{"id":"982","name":"Departamento de San Carlos","state_id":3643,"state_code":"A","country_id":11,"country_code":"AR","latitude":"-25.75000000","longitude":"-66.08333000"},{"id":"1052","name":"El Carril","state_id":3643,"state_code":"A","country_id":11,"country_code":"AR","latitude":"-25.07410000","longitude":"-65.49174000"},{"id":"1055","name":"El Galp\u00f3n","state_id":3643,"state_code":"A","country_id":11,"country_code":"AR","latitude":"-25.38069000","longitude":"-64.65259000"},{"id":"1059","name":"El Quebrachal","state_id":3643,"state_code":"A","country_id":11,"country_code":"AR","latitude":"-25.28333000","longitude":"-64.06667000"},{"id":"1067","name":"Embarcaci\u00f3n","state_id":3643,"state_code":"A","country_id":11,"country_code":"AR","latitude":"-23.21003000","longitude":"-64.09965000"},{"id":"1101","name":"General Enrique Mosconi","state_id":3643,"state_code":"A","country_id":11,"country_code":"AR","latitude":"-22.59588000","longitude":"-63.81255000"},{"id":"1168","name":"Joaqu\u00edn V. Gonz\u00e1lez","state_id":3643,"state_code":"A","country_id":11,"country_code":"AR","latitude":"-25.11364000","longitude":"-64.12628000"},{"id":"1177","name":"La Caldera","state_id":3643,"state_code":"A","country_id":11,"country_code":"AR","latitude":"-24.58333000","longitude":"-65.41667000"},{"id":"1224","name":"Las Lajitas","state_id":3643,"state_code":"A","country_id":11,"country_code":"AR","latitude":"-24.72762000","longitude":"-64.19335000"},{"id":"1403","name":"Salta","state_id":3643,"state_code":"A","country_id":11,"country_code":"AR","latitude":"-24.78590000","longitude":"-65.41166000"},{"id":"1411","name":"San Antonio de los Cobres","state_id":3643,"state_code":"A","country_id":11,"country_code":"AR","latitude":"-24.21804000","longitude":"-66.31877000"},{"id":"1449","name":"San Ram\u00f3n de la Nueva Or\u00e1n","state_id":3643,"state_code":"A","country_id":11,"country_code":"AR","latitude":"-23.13705000","longitude":"-64.32426000"},{"id":"1469","name":"Santa Rosa de Tastil","state_id":3643,"state_code":"A","country_id":11,"country_code":"AR","latitude":"-24.45166000","longitude":"-65.97452000"},{"id":"1498","name":"Tartagal","state_id":3643,"state_code":"A","country_id":11,"country_code":"AR","latitude":"-22.51637000","longitude":"-63.80131000"},{"id":"643","name":"Alba Posse","state_id":3644,"state_code":"N","country_id":11,"country_code":"AR","latitude":"-27.56978000","longitude":"-54.68262000"},{"id":"650","name":"Almafuerte","state_id":3644,"state_code":"N","country_id":11,"country_code":"AR","latitude":"-27.50825000","longitude":"-55.40258000"},{"id":"669","name":"Arist\u00f3bulo del Valle","state_id":3644,"state_code":"N","country_id":11,"country_code":"AR","latitude":"-27.09625000","longitude":"-54.89626000"},{"id":"674","name":"Arroyo del Medio","state_id":3644,"state_code":"N","country_id":11,"country_code":"AR","latitude":"-27.69748000","longitude":"-55.40376000"},{"id":"678","name":"Azara","state_id":3644,"state_code":"N","country_id":11,"country_code":"AR","latitude":"-28.06160000","longitude":"-55.67797000"},{"id":"693","name":"Bernardo de Irigoyen","state_id":3644,"state_code":"N","country_id":11,"country_code":"AR","latitude":"-26.25520000","longitude":"-53.64581000"},{"id":"699","name":"Bonpland","state_id":3644,"state_code":"N","country_id":11,"country_code":"AR","latitude":"-27.48218000","longitude":"-55.47756000"},{"id":"718","name":"Campo Grande","state_id":3644,"state_code":"N","country_id":11,"country_code":"AR","latitude":"-27.20770000","longitude":"-54.97977000"},{"id":"721","name":"Campo Ram\u00f3n","state_id":3644,"state_code":"N","country_id":11,"country_code":"AR","latitude":"-27.45490000","longitude":"-55.02122000"},{"id":"722","name":"Campo Viera","state_id":3644,"state_code":"N","country_id":11,"country_code":"AR","latitude":"-27.33271000","longitude":"-55.05651000"},{"id":"724","name":"Candelaria","state_id":3644,"state_code":"N","country_id":11,"country_code":"AR","latitude":"-27.45950000","longitude":"-55.74536000"},{"id":"728","name":"Capiov\u00ed","state_id":3644,"state_code":"N","country_id":11,"country_code":"AR","latitude":"-26.92998000","longitude":"-55.06084000"},{"id":"731","name":"Caraguatay","state_id":3644,"state_code":"N","country_id":11,"country_code":"AR","latitude":"-26.60587000","longitude":"-54.78093000"},{"id":"748","name":"Cerro Azul","state_id":3644,"state_code":"N","country_id":11,"country_code":"AR","latitude":"-27.63310000","longitude":"-55.49620000"},{"id":"749","name":"Cerro Cor\u00e1","state_id":3644,"state_code":"N","country_id":11,"country_code":"AR","latitude":"-27.51310000","longitude":"-55.60896000"},{"id":"774","name":"Colonia Aurora","state_id":3644,"state_code":"N","country_id":11,"country_code":"AR","latitude":"-27.47428000","longitude":"-54.52498000"},{"id":"790","name":"Concepci\u00f3n de la Sierra","state_id":3644,"state_code":"N","country_id":11,"country_code":"AR","latitude":"-27.98311000","longitude":"-55.52031000"},{"id":"830","name":"Departamento de Ap\u00f3stoles","state_id":3644,"state_code":"N","country_id":11,"country_code":"AR","latitude":"-27.91667000","longitude":"-55.75000000"},{"id":"841","name":"Departamento de Caingu\u00e1s","state_id":3644,"state_code":"N","country_id":11,"country_code":"AR","latitude":"-27.16667000","longitude":"-54.83333000"},{"id":"845","name":"Departamento de Candelaria","state_id":3644,"state_code":"N","country_id":11,"country_code":"AR","latitude":"-27.50000000","longitude":"-55.50000000"},{"id":"848","name":"Departamento de Capital","state_id":3644,"state_code":"N","country_id":11,"country_code":"AR","latitude":"-27.50000000","longitude":"-55.83333000"},{"id":"867","name":"Departamento de Concepci\u00f3n de la Sierra","state_id":3644,"state_code":"N","country_id":11,"country_code":"AR","latitude":"-27.83333000","longitude":"-55.41667000"},{"id":"878","name":"Departamento de Eldorado","state_id":3644,"state_code":"N","country_id":11,"country_code":"AR","latitude":"-26.25000000","longitude":"-54.41667000"},{"id":"894","name":"Departamento de General Manuel Belgrano","state_id":3644,"state_code":"N","country_id":11,"country_code":"AR","latitude":"-26.16667000","longitude":"-53.91667000"},{"id":"903","name":"Departamento de Guaran\u00ed","state_id":3644,"state_code":"N","country_id":11,"country_code":"AR","latitude":"-27.16667000","longitude":"-54.16667000"},{"id":"908","name":"Departamento de Iguaz\u00fa","state_id":3644,"state_code":"N","country_id":11,"country_code":"AR","latitude":"-25.86667000","longitude":"-54.36667000"},{"id":"927","name":"Departamento de Leandro N. Alem","state_id":3644,"state_code":"N","country_id":11,"country_code":"AR","latitude":"-27.56667000","longitude":"-55.33333000"},{"id":"929","name":"Departamento de Libertador General San Mart\u00edn","state_id":3644,"state_code":"N","country_id":11,"country_code":"AR","latitude":"-26.91667000","longitude":"-54.91667000"},{"id":"946","name":"Departamento de Montecarlo","state_id":3644,"state_code":"N","country_id":11,"country_code":"AR","latitude":"-26.71667000","longitude":"-54.58333000"},{"id":"953","name":"Departamento de Ober\u00e1","state_id":3644,"state_code":"N","country_id":11,"country_code":"AR","latitude":"-27.55000000","longitude":"-55.08333000"},{"id":"987","name":"Departamento de San Ignacio","state_id":3644,"state_code":"N","country_id":11,"country_code":"AR","latitude":"-27.25000000","longitude":"-55.33333000"},{"id":"989","name":"Departamento de San Javier","state_id":3644,"state_code":"N","country_id":11,"country_code":"AR","latitude":"-27.77806000","longitude":"-55.13004000"},{"id":"1002","name":"Departamento de San Pedro","state_id":3644,"state_code":"N","country_id":11,"country_code":"AR","latitude":"-26.66667000","longitude":"-54.00000000"},{"id":"1031","name":"Departamento de Veinticinco de Mayo","state_id":3644,"state_code":"N","country_id":11,"country_code":"AR","latitude":"-27.41667000","longitude":"-54.66667000"},{"id":"1044","name":"Dos Arroyos","state_id":3644,"state_code":"N","country_id":11,"country_code":"AR","latitude":"-27.69946000","longitude":"-55.25207000"},{"id":"1045","name":"Dos de Mayo","state_id":3644,"state_code":"N","country_id":11,"country_code":"AR","latitude":"-27.02277000","longitude":"-54.68669000"},{"id":"1048","name":"El Alc\u00e1zar","state_id":3644,"state_code":"N","country_id":11,"country_code":"AR","latitude":"-26.71459000","longitude":"-54.81523000"},{"id":"1061","name":"El Soberbio","state_id":3644,"state_code":"N","country_id":11,"country_code":"AR","latitude":"-27.29847000","longitude":"-54.19877000"},{"id":"1080","name":"Florentino Ameghino","state_id":3644,"state_code":"N","country_id":11,"country_code":"AR","latitude":"-27.56667000","longitude":"-55.13333000"},