[{"id":"134571","name":"Arak","state_id":3916,"state_code":"22","country_id":103,"country_code":"IR","latitude":"34.09493000","longitude":"49.69809000"},{"id":"135150","name":"Abyek","state_id":3916,"state_code":"22","country_id":103,"country_code":"IR","latitude":"36.06667000","longitude":"50.55000000"},{"id":"134620","name":"Delijan","state_id":3916,"state_code":"22","country_id":103,"country_code":"IR","latitude":"33.99050000","longitude":"50.68380000"},{"id":"134671","name":"Khomeyn","state_id":3916,"state_code":"22","country_id":103,"country_code":"IR","latitude":"33.63889000","longitude":"50.08003000"},{"id":"134681","name":"Komijan","state_id":3916,"state_code":"22","country_id":103,"country_code":"IR","latitude":"34.72142000","longitude":"49.32653000"},{"id":"135121","name":"Saveh","state_id":3916,"state_code":"22","country_id":103,"country_code":"IR","latitude":"35.02130000","longitude":"50.35660000"},{"id":"134796","name":"Shahrestan-e Arak","state_id":3916,"state_code":"22","country_id":103,"country_code":"IR","latitude":"34.13333000","longitude":"49.80000000"},{"id":"135085","name":"Shahrestan-e Ashtian","state_id":3916,"state_code":"22","country_id":103,"country_code":"IR","latitude":"34.45000000","longitude":"50.05000000"},{"id":"134849","name":"Shahrestan-e Delijan","state_id":3916,"state_code":"22","country_id":103,"country_code":"IR","latitude":"34.03333000","longitude":"50.76667000"},{"id":"134865","name":"Shahrestan-e Farahan","state_id":3916,"state_code":"22","country_id":103,"country_code":"IR","latitude":"34.60000000","longitude":"49.63333000"},{"id":"134918","name":"Shahrestan-e Khondab","state_id":3916,"state_code":"22","country_id":103,"country_code":"IR","latitude":"34.36667000","longitude":"49.18333000"},{"id":"134929","name":"Shahrestan-e Komijan","state_id":3916,"state_code":"22","country_id":103,"country_code":"IR","latitude":"34.76667000","longitude":"49.33333000"},{"id":"134959","name":"Shahrestan-e Ma\u1e29allat","state_id":3916,"state_code":"22","country_id":103,"country_code":"IR","latitude":"33.91667000","longitude":"50.41667000"},{"id":"135050","name":"Shahrestan-e Saveh","state_id":3916,"state_code":"22","country_id":103,"country_code":"IR","latitude":"35.10000000","longitude":"49.98333000"},{"id":"135044","name":"Shahrestan-e Shazand","state_id":3916,"state_code":"22","country_id":103,"country_code":"IR","latitude":"33.90000000","longitude":"49.30000000"},{"id":"135072","name":"Shahrestan-e Zarandiyeh","state_id":3916,"state_code":"22","country_id":103,"country_code":"IR","latitude":"35.36667000","longitude":"50.33333000"},{"id":"135126","name":"Tafresh","state_id":3916,"state_code":"22","country_id":103,"country_code":"IR","latitude":"34.69307000","longitude":"50.01601000"}]