[{"id":"134652","name":"Harsin","state_id":3919,"state_code":"17","country_id":103,"country_code":"IR","latitude":"34.27210000","longitude":"47.58610000"},{"id":"134657","name":"Javanrud","state_id":3919,"state_code":"17","country_id":103,"country_code":"IR","latitude":"34.79611000","longitude":"46.51722000"},{"id":"134661","name":"Kahriz","state_id":3919,"state_code":"17","country_id":103,"country_code":"IR","latitude":"34.38380000","longitude":"47.05530000"},{"id":"134663","name":"Kangavar","state_id":3919,"state_code":"17","country_id":103,"country_code":"IR","latitude":"34.50430000","longitude":"47.96530000"},{"id":"134668","name":"Kermanshah","state_id":3919,"state_code":"17","country_id":103,"country_code":"IR","latitude":"34.31417000","longitude":"47.06500000"},{"id":"134733","name":"Paveh","state_id":3919,"state_code":"17","country_id":103,"country_code":"IR","latitude":"35.04340000","longitude":"46.35650000"},{"id":"134770","name":"Sarpol-e Z\u0304ahab","state_id":3919,"state_code":"17","country_id":103,"country_code":"IR","latitude":"34.46109000","longitude":"45.86264000"},{"id":"135094","name":"Shahrestan-e Sa\u1e29neh","state_id":3919,"state_code":"17","country_id":103,"country_code":"IR","latitude":"34.58333000","longitude":"47.51667000"},{"id":"134851","name":"Shahrestan-e Dalahu","state_id":3919,"state_code":"17","country_id":103,"country_code":"IR","latitude":"34.41667000","longitude":"46.25000000"},{"id":"134860","name":"Shahrestan-e Eslamabad-e Gharb","state_id":3919,"state_code":"17","country_id":103,"country_code":"IR","latitude":"34.05000000","longitude":"46.66667000"},{"id":"134890","name":"Shahrestan-e Gilan-e Gharb","state_id":3919,"state_code":"17","country_id":103,"country_code":"IR","latitude":"34.13333000","longitude":"46.00000000"},{"id":"134891","name":"Shahrestan-e Harsin","state_id":3919,"state_code":"17","country_id":103,"country_code":"IR","latitude":"34.35000000","longitude":"47.48333000"},{"id":"134896","name":"Shahrestan-e Javanrud","state_id":3919,"state_code":"17","country_id":103,"country_code":"IR","latitude":"34.86667000","longitude":"46.30000000"},{"id":"134907","name":"Shahrestan-e Kangavar","state_id":3919,"state_code":"17","country_id":103,"country_code":"IR","latitude":"34.48333000","longitude":"47.93333000"},{"id":"134910","name":"Shahrestan-e Kermanshah","state_id":3919,"state_code":"17","country_id":103,"country_code":"IR","latitude":"34.33333000","longitude":"47.00000000"},{"id":"134997","name":"Shahrestan-e Paveh","state_id":3919,"state_code":"17","country_id":103,"country_code":"IR","latitude":"35.05000000","longitude":"46.26667000"},{"id":"135002","name":"Shahrestan-e Qasr-e Shirin","state_id":3919,"state_code":"17","country_id":103,"country_code":"IR","latitude":"34.20000000","longitude":"45.63333000"},{"id":"135008","name":"Shahrestan-e Ravansar","state_id":3919,"state_code":"17","country_id":103,"country_code":"IR","latitude":"34.75000000","longitude":"46.65000000"},{"id":"135025","name":"Shahrestan-e Sarpol-e Z\u0304ahab","state_id":3919,"state_code":"17","country_id":103,"country_code":"IR","latitude":"34.50000000","longitude":"45.85000000"},{"id":"135056","name":"Shahrestan-e S\u0304alas\u0304-e Baba Jani","state_id":3919,"state_code":"17","country_id":103,"country_code":"IR","latitude":"34.81667000","longitude":"45.98333000"},{"id":"135120","name":"Sonqor","state_id":3919,"state_code":"17","country_id":103,"country_code":"IR","latitude":"34.78187000","longitude":"47.59945000"}]