[{"id":"135154","name":"Astaneh-ye Ashrafiyeh","state_id":3920,"state_code":"19","country_id":103,"country_code":"IR","latitude":"37.26318000","longitude":"49.94325000"},{"id":"135155","name":"Astara","state_id":3920,"state_code":"19","country_id":103,"country_code":"IR","latitude":"38.42910000","longitude":"48.87200000"},{"id":"134578","name":"Bandar-e Anzali","state_id":3920,"state_code":"19","country_id":103,"country_code":"IR","latitude":"37.47318000","longitude":"49.45785000"},{"id":"134643","name":"Fuman","state_id":3920,"state_code":"19","country_id":103,"country_code":"IR","latitude":"37.22400000","longitude":"49.31250000"},{"id":"134653","name":"Hashtpar","state_id":3920,"state_code":"19","country_id":103,"country_code":"IR","latitude":"37.79658000","longitude":"48.90521000"},{"id":"134689","name":"Langarud","state_id":3920,"state_code":"19","country_id":103,"country_code":"IR","latitude":"37.19548000","longitude":"50.15263000"},{"id":"134730","name":"Padegan-e Manjil","state_id":3920,"state_code":"19","country_id":103,"country_code":"IR","latitude":"36.74150000","longitude":"49.41610000"},{"id":"134749","name":"Rasht","state_id":3920,"state_code":"19","country_id":103,"country_code":"IR","latitude":"37.27611000","longitude":"49.58862000"},{"id":"134761","name":"Rudsar","state_id":3920,"state_code":"19","country_id":103,"country_code":"IR","latitude":"37.13696000","longitude":"50.29174000"},{"id":"134753","name":"Re\u1e95vanshahr","state_id":3920,"state_code":"19","country_id":103,"country_code":"IR","latitude":"37.54976000","longitude":"49.13703000"},{"id":"135095","name":"Shahrestan-e Sowme\u2018eh Sara","state_id":3920,"state_code":"19","country_id":103,"country_code":"IR","latitude":"37.33333000","longitude":"49.30000000"},{"id":"135086","name":"Shahrestan-e Astaneh-ye Ashrafiyeh","state_id":3920,"state_code":"19","country_id":103,"country_code":"IR","latitude":"37.31667000","longitude":"49.96667000"},{"id":"135087","name":"Shahrestan-e Astara","state_id":3920,"state_code":"19","country_id":103,"country_code":"IR","latitude":"38.33333000","longitude":"48.76667000"},{"id":"134803","name":"Shahrestan-e Bandar-e Anzali","state_id":3920,"state_code":"19","country_id":103,"country_code":"IR","latitude":"37.45000000","longitude":"49.36667000"},{"id":"134877","name":"Shahrestan-e Fuman","state_id":3920,"state_code":"19","country_id":103,"country_code":"IR","latitude":"37.16667000","longitude":"49.18333000"},{"id":"134941","name":"Shahrestan-e Langarud","state_id":3920,"state_code":"19","country_id":103,"country_code":"IR","latitude":"37.15000000","longitude":"50.11667000"},{"id":"134944","name":"Shahrestan-e Lahijan","state_id":3920,"state_code":"19","country_id":103,"country_code":"IR","latitude":"37.21667000","longitude":"50.01667000"},{"id":"134969","name":"Shahrestan-e Masal","state_id":3920,"state_code":"19","country_id":103,"country_code":"IR","latitude":"37.35000000","longitude":"48.98333000"},{"id":"135017","name":"Shahrestan-e Rudbar","state_id":3920,"state_code":"19","country_id":103,"country_code":"IR","latitude":"36.80000000","longitude":"49.60000000"},{"id":"135019","name":"Shahrestan-e Rudsar","state_id":3920,"state_code":"19","country_id":103,"country_code":"IR","latitude":"36.86667000","longitude":"50.30000000"},{"id":"135009","name":"Shahrestan-e Re\u1e95vanshahr","state_id":3920,"state_code":"19","country_id":103,"country_code":"IR","latitude":"37.53333000","longitude":"48.95000000"},{"id":"135055","name":"Shahrestan-e Siahkal","state_id":3920,"state_code":"19","country_id":103,"country_code":"IR","latitude":"36.93333000","longitude":"49.90000000"},{"id":"135065","name":"Shahrestan-e Talesh","state_id":3920,"state_code":"19","country_id":103,"country_code":"IR","latitude":"37.90000000","longitude":"48.78333000"},{"id":"135146","name":"Ziabar (Gaskar)","state_id":3920,"state_code":"19","country_id":103,"country_code":"IR","latitude":"37.42610000","longitude":"49.24590000"}]