[{"id":"134556","name":"Abhar","state_id":3925,"state_code":"11","country_id":103,"country_code":"IR","latitude":"36.14680000","longitude":"49.21800000"},{"id":"134566","name":"Alvand","state_id":3925,"state_code":"11","country_id":103,"country_code":"IR","latitude":"36.31885000","longitude":"49.16773000"},{"id":"134674","name":"Khorramdarreh","state_id":3925,"state_code":"11","country_id":103,"country_code":"IR","latitude":"36.23333000","longitude":"49.20000000"},{"id":"135097","name":"Shahrestan-e Tarom","state_id":3925,"state_code":"11","country_id":103,"country_code":"IR","latitude":"36.95000000","longitude":"48.90000000"},{"id":"135090","name":"Shahrestan-e Ijrud","state_id":3925,"state_code":"11","country_id":103,"country_code":"IR","latitude":"36.33333000","longitude":"48.25000000"},{"id":"134916","name":"Shahrestan-e Khodabandeh","state_id":3925,"state_code":"11","country_id":103,"country_code":"IR","latitude":"36.00000000","longitude":"48.50000000"},{"id":"134966","name":"Shahrestan-e Mahneshan","state_id":3925,"state_code":"11","country_id":103,"country_code":"IR","latitude":"36.66667000","longitude":"47.56667000"},{"id":"135071","name":"Shahrestan-e Zanjan","state_id":3925,"state_code":"11","country_id":103,"country_code":"IR","latitude":"36.58333000","longitude":"48.25000000"},{"id":"135119","name":"Soltaniyeh","state_id":3925,"state_code":"11","country_id":103,"country_code":"IR","latitude":"36.43235000","longitude":"48.79393000"},{"id":"135142","name":"Zanjan","state_id":3925,"state_code":"11","country_id":103,"country_code":"IR","latitude":"36.67642000","longitude":"48.49628000"}]