[{"id":"134569","name":"Ardakan","state_id":3936,"state_code":"25","country_id":103,"country_code":"IR","latitude":"32.31001000","longitude":"54.01747000"},{"id":"134597","name":"Bafq","state_id":3936,"state_code":"25","country_id":103,"country_code":"IR","latitude":"31.60350000","longitude":"55.40249000"},{"id":"134670","name":"Khavas Kuh","state_id":3936,"state_code":"25","country_id":103,"country_code":"IR","latitude":"32.30611000","longitude":"53.67444000"},{"id":"134691","name":"Mahriz","state_id":3936,"state_code":"25","country_id":103,"country_code":"IR","latitude":"31.58428000","longitude":"54.44280000"},{"id":"134701","name":"Meybod","state_id":3936,"state_code":"25","country_id":103,"country_code":"IR","latitude":"32.18333000","longitude":"53.93333000"},{"id":"134785","name":"Shahrestan-e Abarkuh","state_id":3936,"state_code":"25","country_id":103,"country_code":"IR","latitude":"31.00000000","longitude":"53.41667000"},{"id":"134793","name":"Shahrestan-e Ardakan","state_id":3936,"state_code":"25","country_id":103,"country_code":"IR","latitude":"32.65000000","longitude":"54.65000000"},{"id":"134797","name":"Shahrestan-e Ashkez\u0304ar","state_id":3936,"state_code":"25","country_id":103,"country_code":"IR","latitude":"32.00000000","longitude":"53.66667000"},{"id":"134819","name":"Shahrestan-e Bafq","state_id":3936,"state_code":"25","country_id":103,"country_code":"IR","latitude":"31.66667000","longitude":"55.41667000"},{"id":"134809","name":"Shahrestan-e Behabad","state_id":3936,"state_code":"25","country_id":103,"country_code":"IR","latitude":"32.01667000","longitude":"56.15000000"},{"id":"134925","name":"Shahrestan-e Khatam","state_id":3936,"state_code":"25","country_id":103,"country_code":"IR","latitude":"30.38333000","longitude":"54.20000000"},{"id":"134963","name":"Shahrestan-e Mehriz","state_id":3936,"state_code":"25","country_id":103,"country_code":"IR","latitude":"31.41667000","longitude":"54.61667000"},{"id":"135070","name":"Shahrestan-e Yazd","state_id":3936,"state_code":"25","country_id":103,"country_code":"IR","latitude":"31.88980000","longitude":"54.36069000"},{"id":"135123","name":"Tabas","state_id":3936,"state_code":"25","country_id":103,"country_code":"IR","latitude":"33.59586000","longitude":"56.92437000"},{"id":"135127","name":"Taft","state_id":3936,"state_code":"25","country_id":103,"country_code":"IR","latitude":"31.74384000","longitude":"54.20278000"},{"id":"135140","name":"Yazd","state_id":3936,"state_code":"25","country_id":103,"country_code":"IR","latitude":"31.89722000","longitude":"54.36750000"}]