[{"id":"134576","name":"Bandar Abbas","state_id":3937,"state_code":"23","country_id":103,"country_code":"IR","latitude":"27.18650000","longitude":"56.28080000"},{"id":"134577","name":"Bandar Lengeh","state_id":3937,"state_code":"23","country_id":103,"country_code":"IR","latitude":"26.78333000","longitude":"54.65000000"},{"id":"134580","name":"Bandar-e Lengeh","state_id":3937,"state_code":"23","country_id":103,"country_code":"IR","latitude":"26.55792000","longitude":"54.88067000"},{"id":"134583","name":"Bastak","state_id":3937,"state_code":"23","country_id":103,"country_code":"IR","latitude":"27.20000000","longitude":"54.36667000"},{"id":"134685","name":"Kish","state_id":3937,"state_code":"23","country_id":103,"country_code":"IR","latitude":"26.55778000","longitude":"54.01944000"},{"id":"134705","name":"Minab","state_id":3937,"state_code":"23","country_id":103,"country_code":"IR","latitude":"27.13104000","longitude":"57.08716000"},{"id":"134742","name":"Qeshm","state_id":3937,"state_code":"23","country_id":103,"country_code":"IR","latitude":"26.78333000","longitude":"55.86667000"},{"id":"134786","name":"Shahrestan-e Abu Mus\u00e1","state_id":3937,"state_code":"23","country_id":103,"country_code":"IR","latitude":"26.05474000","longitude":"55.16243000"},{"id":"135098","name":"Shahrestan-e \u1e28ajjiabad","state_id":3937,"state_code":"23","country_id":103,"country_code":"IR","latitude":"28.33333000","longitude":"55.83333000"},{"id":"134802","name":"Shahrestan-e Bandar \u2018Abbas","state_id":3937,"state_code":"23","country_id":103,"country_code":"IR","latitude":"27.55000000","longitude":"56.28333000"},{"id":"134806","name":"Shahrestan-e Bashagard","state_id":3937,"state_code":"23","country_id":103,"country_code":"IR","latitude":"26.45000000","longitude":"58.08333000"},{"id":"134900","name":"Shahrestan-e Jask","state_id":3937,"state_code":"23","country_id":103,"country_code":"IR","latitude":"25.88333000","longitude":"58.20000000"},{"id":"134913","name":"Shahrestan-e Khamir","state_id":3937,"state_code":"23","country_id":103,"country_code":"IR","latitude":"27.26667000","longitude":"55.55000000"},{"id":"134970","name":"Shahrestan-e Minab","state_id":3937,"state_code":"23","country_id":103,"country_code":"IR","latitude":"26.93333000","longitude":"57.28333000"},{"id":"134995","name":"Shahrestan-e Parsian","state_id":3937,"state_code":"23","country_id":103,"country_code":"IR","latitude":"27.16667000","longitude":"53.26667000"},{"id":"135020","name":"Shahrestan-e Rudan","state_id":3937,"state_code":"23","country_id":103,"country_code":"IR","latitude":"27.53333000","longitude":"57.11667000"},{"id":"135054","name":"Shahrestan-e Sirik","state_id":3937,"state_code":"23","country_id":103,"country_code":"IR","latitude":"26.50000000","longitude":"57.18333000"}]