[{"id":"135152","name":"Amol","state_id":3938,"state_code":"21","country_id":103,"country_code":"IR","latitude":"36.46961000","longitude":"52.35072000"},{"id":"134595","name":"Babol","state_id":3938,"state_code":"21","country_id":103,"country_code":"IR","latitude":"36.55132000","longitude":"52.67895000"},{"id":"134596","name":"Babolsar","state_id":3938,"state_code":"21","country_id":103,"country_code":"IR","latitude":"36.70251000","longitude":"52.65760000"},{"id":"134585","name":"Behshahr","state_id":3938,"state_code":"21","country_id":103,"country_code":"IR","latitude":"36.69235000","longitude":"53.55262000"},{"id":"134610","name":"Chalus","state_id":3938,"state_code":"21","country_id":103,"country_code":"IR","latitude":"36.65500000","longitude":"51.42040000"},{"id":"134640","name":"Fereydunkenar","state_id":3938,"state_code":"21","country_id":103,"country_code":"IR","latitude":"36.68642000","longitude":"52.52255000"},{"id":"134660","name":"Juybar","state_id":3938,"state_code":"21","country_id":103,"country_code":"IR","latitude":"36.64115000","longitude":"52.91244000"},{"id":"134709","name":"Nashtarud","state_id":3938,"state_code":"21","country_id":103,"country_code":"IR","latitude":"36.75090000","longitude":"51.02362000"},{"id":"134712","name":"Neka","state_id":3938,"state_code":"21","country_id":103,"country_code":"IR","latitude":"36.65079000","longitude":"53.29905000"},{"id":"134716","name":"Nowshahr","state_id":3938,"state_code":"21","country_id":103,"country_code":"IR","latitude":"36.64852000","longitude":"51.49621000"},{"id":"134769","name":"Sari","state_id":3938,"state_code":"21","country_id":103,"country_code":"IR","latitude":"36.56332000","longitude":"53.06009000"},{"id":"134772","name":"Savadkuh-e Shomali","state_id":3938,"state_code":"21","country_id":103,"country_code":"IR","latitude":"35.97765000","longitude":"52.68246000"},{"id":"134784","name":"Shahrestan-e Kalar Dasht","state_id":3938,"state_code":"21","country_id":103,"country_code":"IR","latitude":"36.45000000","longitude":"51.11667000"},{"id":"135081","name":"Shahrestan-e Amol","state_id":3938,"state_code":"21","country_id":103,"country_code":"IR","latitude":"36.20000000","longitude":"52.38333000"},{"id":"135099","name":"Shahrestan-e \u2018Abbasabad","state_id":3938,"state_code":"21","country_id":103,"country_code":"IR","latitude":"36.63333000","longitude":"51.15000000"},{"id":"134817","name":"Shahrestan-e Babol","state_id":3938,"state_code":"21","country_id":103,"country_code":"IR","latitude":"36.31667000","longitude":"52.65000000"},{"id":"134818","name":"Shahrestan-e Babolsar","state_id":3938,"state_code":"21","country_id":103,"country_code":"IR","latitude":"36.66667000","longitude":"52.73333000"},{"id":"134837","name":"Shahrestan-e Chalus","state_id":3938,"state_code":"21","country_id":103,"country_code":"IR","latitude":"36.45000000","longitude":"51.16667000"},{"id":"134866","name":"Shahrestan-e Fareydunkenar","state_id":3938,"state_code":"21","country_id":103,"country_code":"IR","latitude":"36.63333000","longitude":"52.56667000"},{"id":"134879","name":"Shahrestan-e Galugah","state_id":3938,"state_code":"21","country_id":103,"country_code":"IR","latitude":"36.71667000","longitude":"53.86667000"},{"id":"134902","name":"Shahrestan-e Juybar","state_id":3938,"state_code":"21","country_id":103,"country_code":"IR","latitude":"36.66667000","longitude":"52.95000000"},{"id":"134960","name":"Shahrestan-e Ma\u1e29mudabad","state_id":3938,"state_code":"21","country_id":103,"country_code":"IR","latitude":"36.60000000","longitude":"52.36667000"},{"id":"134972","name":"Shahrestan-e Miandorud","state_id":3938,"state_code":"21","country_id":103,"country_code":"IR","latitude":"36.58333000","longitude":"53.30000000"},{"id":"134987","name":"Shahrestan-e Nur","state_id":3938,"state_code":"21","country_id":103,"country_code":"IR","latitude":"36.31667000","longitude":"51.98333000"},{"id":"134981","name":"Shahrestan-e Neka","state_id":3938,"state_code":"21","country_id":103,"country_code":"IR","latitude":"36.51667000","longitude":"53.60000000"},{"id":"135003","name":"Shahrestan-e Qa\u2019em Shahr","state_id":3938,"state_code":"21","country_id":103,"country_code":"IR","latitude":"36.48333000","longitude":"52.90000000"},{"id":"135014","name":"Shahrestan-e Ramsar","state_id":3938,"state_code":"21","country_id":103,"country_code":"IR","latitude":"36.76667000","longitude":"50.53333000"},{"id":"135032","name":"Shahrestan-e Savadkuh","state_id":3938,"state_code":"21","country_id":103,"country_code":"IR","latitude":"36.08333000","longitude":"52.91667000"},{"id":"135049","name":"Shahrestan-e Sari","state_id":3938,"state_code":"21","country_id":103,"country_code":"IR","latitude":"36.33333000","longitude":"53.28333000"},{"id":"135061","name":"Shahrestan-e Tonekabon","state_id":3938,"state_code":"21","country_id":103,"country_code":"IR","latitude":"36.63333000","longitude":"50.80000000"},{"id":"135115","name":"Simorgh County","state_id":3938,"state_code":"21","country_id":103,"country_code":"IR","latitude":"36.57914000","longitude":"52.82364000"},{"id":"135130","name":"Tonekabon","state_id":3938,"state_code":"21","country_id":103,"country_code":"IR","latitude":"36.81626000","longitude":"50.87376000"}]