[{"id":"134562","name":"Akbarabad","state_id":3939,"state_code":"14","country_id":103,"country_code":"IR","latitude":"29.24640000","longitude":"52.77930000"},{"id":"135151","name":"Abadeh","state_id":3939,"state_code":"14","country_id":103,"country_code":"IR","latitude":"31.16080000","longitude":"52.65060000"},{"id":"134626","name":"Darab","state_id":3939,"state_code":"14","country_id":103,"country_code":"IR","latitude":"28.75194000","longitude":"54.54444000"},{"id":"134638","name":"Fasa","state_id":3939,"state_code":"14","country_id":103,"country_code":"IR","latitude":"28.93830000","longitude":"53.64820000"},{"id":"134642","name":"Firuzabad","state_id":3939,"state_code":"14","country_id":103,"country_code":"IR","latitude":"28.84380000","longitude":"52.57070000"},{"id":"134644","name":"Gerash","state_id":3939,"state_code":"14","country_id":103,"country_code":"IR","latitude":"27.66966000","longitude":"54.13586000"},{"id":"134684","name":"Kazerun","state_id":3939,"state_code":"14","country_id":103,"country_code":"IR","latitude":"29.61919000","longitude":"51.65350000"},{"id":"134694","name":"Mamasani","state_id":3939,"state_code":"14","country_id":103,"country_code":"IR","latitude":"30.03333000","longitude":"51.38333000"},{"id":"134696","name":"Marvdasht","state_id":3939,"state_code":"14","country_id":103,"country_code":"IR","latitude":"30.08333000","longitude":"52.66667000"},{"id":"134704","name":"Mohr","state_id":3939,"state_code":"14","country_id":103,"country_code":"IR","latitude":"27.55520000","longitude":"52.88360000"},{"id":"134721","name":"Nurabad","state_id":3939,"state_code":"14","country_id":103,"country_code":"IR","latitude":"30.11405000","longitude":"51.52174000"},{"id":"134713","name":"Neyriz","state_id":3939,"state_code":"14","country_id":103,"country_code":"IR","latitude":"29.19880000","longitude":"54.32780000"},{"id":"134732","name":"Pasargad","state_id":3939,"state_code":"14","country_id":103,"country_code":"IR","latitude":"30.20194000","longitude":"53.18000000"},{"id":"134755","name":"Rostam","state_id":3939,"state_code":"14","country_id":103,"country_code":"IR","latitude":"30.40000000","longitude":"51.41667000"},{"id":"134778","name":"Shahr-e Qadim-e Lar","state_id":3939,"state_code":"14","country_id":103,"country_code":"IR","latitude":"27.68336000","longitude":"54.34172000"},{"id":"134795","name":"Shahrestan-e Arsanjan","state_id":3939,"state_code":"14","country_id":103,"country_code":"IR","latitude":"29.80000000","longitude":"53.41667000"},{"id":"135079","name":"Shahrestan-e Abadeh","state_id":3939,"state_code":"14","country_id":103,"country_code":"IR","latitude":"31.25000000","longitude":"52.50000000"},{"id":"134807","name":"Shahrestan-e Bavanat","state_id":3939,"state_code":"14","country_id":103,"country_code":"IR","latitude":"30.33333000","longitude":"53.66667000"},{"id":"134853","name":"Shahrestan-e Darab","state_id":3939,"state_code":"14","country_id":103,"country_code":"IR","latitude":"28.56667000","longitude":"54.95000000"},{"id":"134856","name":"Shahrestan-e Eqlid","state_id":3939,"state_code":"14","country_id":103,"country_code":"IR","latitude":"30.70000000","longitude":"52.40000000"},{"id":"134861","name":"Shahrestan-e Estahban","state_id":3939,"state_code":"14","country_id":103,"country_code":"IR","latitude":"29.11667000","longitude":"54.00000000"},{"id":"134868","name":"Shahrestan-e Farashband","state_id":3939,"state_code":"14","country_id":103,"country_code":"IR","latitude":"28.75000000","longitude":"52.25000000"},{"id":"134870","name":"Shahrestan-e Fasa","state_id":3939,"state_code":"14","country_id":103,"country_code":"IR","latitude":"28.96667000","longitude":"53.76667000"},{"id":"134876","name":"Shahrestan-e Firuzabad","state_id":3939,"state_code":"14","country_id":103,"country_code":"IR","latitude":"28.91667000","longitude":"52.56667000"},{"id":"134883","name":"Shahrestan-e Gerash","state_id":3939,"state_code":"14","country_id":103,"country_code":"IR","latitude":"27.65000000","longitude":"53.65000000"},{"id":"134908","name":"Shahrestan-e Kavar","state_id":3939,"state_code":"14","country_id":103,"country_code":"IR","latitude":"29.21667000","longitude":"52.73333000"},{"id":"134936","name":"Shahrestan-e Kazerun","state_id":3939,"state_code":"14","country_id":103,"country_code":"IR","latitude":"29.50000000","longitude":"51.78333000"},{"id":"134914","name":"Shahrestan-e Kherameh","state_id":3939,"state_code":"14","country_id":103,"country_code":"IR","latitude":"29.50000000","longitude":"53.25000000"},{"id":"134919","name":"Shahrestan-e Khorrambid","state_id":3939,"state_code":"14","country_id":103,"country_code":"IR","latitude":"30.50000000","longitude":"53.08333000"},{"id":"134946","name":"Shahrestan-e Lamerd","state_id":3939,"state_code":"14","country_id":103,"country_code":"IR","latitude":"27.36667000","longitude":"53.38333000"},{"id":"134947","name":"Shahrestan-e Larestan","state_id":3939,"state_code":"14","country_id":103,"country_code":"IR","latitude":"27.75000000","longitude":"54.45000000"},{"id":"134982","name":"Shahrestan-e Neyriz","state_id":3939,"state_code":"14","country_id":103,"country_code":"IR","latitude":"29.33333000","longitude":"54.33333000"},{"id":"134996","name":"Shahrestan-e Pasargad","state_id":3939,"state_code":"14","country_id":103,"country_code":"IR","latitude":"30.13333000","longitude":"53.15000000"},{"id":"135005","name":"Shahrestan-e Qir va Karzin","state_id":3939,"state_code":"14","country_id":103,"country_code":"IR","latitude":"28.31667000","longitude":"52.90000000"},{"id":"135026","name":"Shahrestan-e Sarvestan","state_id":3939,"state_code":"14","country_id":103,"country_code":"IR","latitude":"29.21667000","longitude":"53.13333000"},{"id":"135035","name":"Shahrestan-e Sepidan","state_id":3939,"state_code":"14","country_id":103,"country_code":"IR","latitude":"30.15000000","longitude":"52.10000000"},{"id":"135046","name":"Shahrestan-e Shiraz","state_id":3939,"state_code":"14","country_id":103,"country_code":"IR","latitude":"29.58333000","longitude":"52.50000000"},{"id":"135073","name":"Shahrestan-e Zarrin Dasht","state_id":3939,"state_code":"14","country_id":103,"country_code":"IR","latitude":"28.30000000","longitude":"54.46667000"},{"id":"135108","name":"Shiraz","state_id":3939,"state_code":"14","country_id":103,"country_code":"IR","latitude":"29.61031000","longitude":"52.53113000"}]