[{"id":"135158","name":"Istgah-e Rah Ahan-e Garmsar","state_id":3940,"state_code":"12","country_id":103,"country_code":"IR","latitude":"35.23455000","longitude":"52.30942000"},{"id":"134625","name":"Damghan","state_id":3940,"state_code":"12","country_id":103,"country_code":"IR","latitude":"36.16790000","longitude":"54.34292000"},{"id":"134690","name":"Mahdishahr","state_id":3940,"state_code":"12","country_id":103,"country_code":"IR","latitude":"35.70806000","longitude":"53.35083000"},{"id":"134774","name":"Semnan","state_id":3940,"state_code":"12","country_id":103,"country_code":"IR","latitude":"35.57691000","longitude":"53.39205000"},{"id":"135083","name":"Shahrestan-e Aradan","state_id":3940,"state_code":"12","country_id":103,"country_code":"IR","latitude":"34.90000000","longitude":"52.61667000"},{"id":"134852","name":"Shahrestan-e Damghan","state_id":3940,"state_code":"12","country_id":103,"country_code":"IR","latitude":"35.50000000","longitude":"54.33333000"},{"id":"134880","name":"Shahrestan-e Garmsar","state_id":3940,"state_code":"12","country_id":103,"country_code":"IR","latitude":"34.96362000","longitude":"52.21270000"},{"id":"134958","name":"Shahrestan-e Mayamey","state_id":3940,"state_code":"12","country_id":103,"country_code":"IR","latitude":"36.63333000","longitude":"55.95000000"},{"id":"135033","name":"Shahrestan-e Semnan","state_id":3940,"state_code":"12","country_id":103,"country_code":"IR","latitude":"35.11667000","longitude":"53.78333000"},{"id":"135041","name":"Shahrestan-e Shahrud","state_id":3940,"state_code":"12","country_id":103,"country_code":"IR","latitude":"35.50000000","longitude":"55.50000000"},{"id":"135105","name":"Shahrud","state_id":3940,"state_code":"12","country_id":103,"country_code":"IR","latitude":"36.41819000","longitude":"54.97628000"}]