[{"id":"134575","name":"Bam","state_id":3943,"state_code":"15","country_id":103,"country_code":"IR","latitude":"29.06667000","longitude":"58.23333000"},{"id":"134582","name":"Bardsir","state_id":3943,"state_code":"15","country_id":103,"country_code":"IR","latitude":"29.92266000","longitude":"56.57433000"},{"id":"134598","name":"Baft","state_id":3943,"state_code":"15","country_id":103,"country_code":"IR","latitude":"29.23310000","longitude":"56.60220000"},{"id":"134686","name":"Kuh Sefid","state_id":3943,"state_code":"15","country_id":103,"country_code":"IR","latitude":"29.27620000","longitude":"56.80140000"},{"id":"134667","name":"Kerman","state_id":3943,"state_code":"15","country_id":103,"country_code":"IR","latitude":"30.28321000","longitude":"57.07879000"},{"id":"134748","name":"Rafsanjan","state_id":3943,"state_code":"15","country_id":103,"country_code":"IR","latitude":"30.40670000","longitude":"55.99390000"},{"id":"134759","name":"Ravar","state_id":3943,"state_code":"15","country_id":103,"country_code":"IR","latitude":"31.26562000","longitude":"56.80545000"},{"id":"134760","name":"Rigan","state_id":3943,"state_code":"15","country_id":103,"country_code":"IR","latitude":"28.43333000","longitude":"59.15000000"},{"id":"134776","name":"Shahr-e Babak","state_id":3943,"state_code":"15","country_id":103,"country_code":"IR","latitude":"30.11650000","longitude":"55.11860000"},{"id":"134781","name":"Shahrak-e Pabedana","state_id":3943,"state_code":"15","country_id":103,"country_code":"IR","latitude":"31.13444000","longitude":"56.39806000"},{"id":"134791","name":"Shahrestan-e Anar","state_id":3943,"state_code":"15","country_id":103,"country_code":"IR","latitude":"30.85000000","longitude":"55.35000000"},{"id":"135102","name":"Shahrestan-e \u2018Anbarabad","state_id":3943,"state_code":"15","country_id":103,"country_code":"IR","latitude":"28.43333000","longitude":"58.16667000"},{"id":"134805","name":"Shahrestan-e Bardsir","state_id":3943,"state_code":"15","country_id":103,"country_code":"IR","latitude":"29.83333000","longitude":"56.58333000"},{"id":"134820","name":"Shahrestan-e Baft","state_id":3943,"state_code":"15","country_id":103,"country_code":"IR","latitude":"29.10000000","longitude":"56.51667000"},{"id":"134872","name":"Shahrestan-e Faryab","state_id":3943,"state_code":"15","country_id":103,"country_code":"IR","latitude":"28.20000000","longitude":"57.21667000"},{"id":"134901","name":"Shahrestan-e Jiroft","state_id":3943,"state_code":"15","country_id":103,"country_code":"IR","latitude":"28.83333000","longitude":"57.58333000"},{"id":"134903","name":"Shahrestan-e Kahnuj","state_id":3943,"state_code":"15","country_id":103,"country_code":"IR","latitude":"27.90000000","longitude":"57.61667000"},{"id":"134938","name":"Shahrestan-e Kuhbanan","state_id":3943,"state_code":"15","country_id":103,"country_code":"IR","latitude":"31.38333000","longitude":"56.33333000"},{"id":"134909","name":"Shahrestan-e Kerman","state_id":3943,"state_code":"15","country_id":103,"country_code":"IR","latitude":"30.33333000","longitude":"58.00000000"},{"id":"134953","name":"Shahrestan-e Manujan","state_id":3943,"state_code":"15","country_id":103,"country_code":"IR","latitude":"27.35000000","longitude":"57.61667000"},{"id":"134977","name":"Shahrestan-e Narmashir","state_id":3943,"state_code":"15","country_id":103,"country_code":"IR","latitude":"29.26667000","longitude":"58.73333000"},{"id":"134989","name":"Shahrestan-e Orzu\u2018iyeh","state_id":3943,"state_code":"15","country_id":103,"country_code":"IR","latitude":"28.46667000","longitude":"56.53333000"},{"id":"135000","name":"Shahrestan-e Qal\u2018eh Ganj","state_id":3943,"state_code":"15","country_id":103,"country_code":"IR","latitude":"27.20000000","longitude":"58.33333000"},{"id":"135007","name":"Shahrestan-e Rafsanjan","state_id":3943,"state_code":"15","country_id":103,"country_code":"IR","latitude":"30.53333000","longitude":"55.95000000"},{"id":"135012","name":"Shahrestan-e Rabor","state_id":3943,"state_code":"15","country_id":103,"country_code":"IR","latitude":"29.25000000","longitude":"56.98333000"},{"id":"135018","name":"Shahrestan-e Rudbar-e Jonubi","state_id":3943,"state_code":"15","country_id":103,"country_code":"IR","latitude":"27.90000000","longitude":"58.46667000"},{"id":"135053","name":"Shahrestan-e Sirjan","state_id":3943,"state_code":"15","country_id":103,"country_code":"IR","latitude":"29.36667000","longitude":"55.65000000"},{"id":"135036","name":"Shahrestan-e Shahr-e Babak","state_id":3943,"state_code":"15","country_id":103,"country_code":"IR","latitude":"30.23333000","longitude":"55.05000000"},{"id":"135116","name":"Sirjan","state_id":3943,"state_code":"15","country_id":103,"country_code":"IR","latitude":"29.45137000","longitude":"55.68090000"},{"id":"135143","name":"Zarand","state_id":3943,"state_code":"15","country_id":103,"country_code":"IR","latitude":"30.81271000","longitude":"56.56399000"}]