[{"id":"134559","name":"Ahar","state_id":3944,"state_code":"01","country_id":103,"country_code":"IR","latitude":"38.47740000","longitude":"47.06990000"},{"id":"135160","name":"\u2018Ajab Shir","state_id":3944,"state_code":"01","country_id":103,"country_code":"IR","latitude":"37.47760000","longitude":"45.89430000"},{"id":"134588","name":"Bonab","state_id":3944,"state_code":"01","country_id":103,"country_code":"IR","latitude":"37.34040000","longitude":"46.05610000"},{"id":"134654","name":"Hashtrud","state_id":3944,"state_code":"01","country_id":103,"country_code":"IR","latitude":"37.47790000","longitude":"47.05080000"},{"id":"134695","name":"Marand","state_id":3944,"state_code":"01","country_id":103,"country_code":"IR","latitude":"38.43290000","longitude":"45.77490000"},{"id":"134771","name":"Sarab","state_id":3944,"state_code":"01","country_id":103,"country_code":"IR","latitude":"37.94080000","longitude":"47.53670000"},{"id":"135089","name":"Shahrestan-e Az\u0304arshahr","state_id":3944,"state_code":"01","country_id":103,"country_code":"IR","latitude":"37.75001000","longitude":"45.83334000"},{"id":"135100","name":"Shahrestan-e \u2018Ajab Shir","state_id":3944,"state_code":"01","country_id":103,"country_code":"IR","latitude":"37.50002000","longitude":"45.83342000"},{"id":"134811","name":"Shahrestan-e Bonab","state_id":3944,"state_code":"01","country_id":103,"country_code":"IR","latitude":"37.33338000","longitude":"46.00009000"},{"id":"134815","name":"Shahrestan-e Bostanabad","state_id":3944,"state_code":"01","country_id":103,"country_code":"IR","latitude":"37.83333000","longitude":"46.83333000"},{"id":"134838","name":"Shahrestan-e Charavimaq","state_id":3944,"state_code":"01","country_id":103,"country_code":"IR","latitude":"37.10012000","longitude":"47.06680000"},{"id":"134892","name":"Shahrestan-e Hashtrud","state_id":3944,"state_code":"01","country_id":103,"country_code":"IR","latitude":"37.46670000","longitude":"46.91680000"},{"id":"134894","name":"Shahrestan-e Heris","state_id":3944,"state_code":"01","country_id":103,"country_code":"IR","latitude":"38.23058000","longitude":"46.84011000"},{"id":"134898","name":"Shahrestan-e Jolfa","state_id":3944,"state_code":"01","country_id":103,"country_code":"IR","latitude":"38.83343000","longitude":"45.91680000"},{"id":"134915","name":"Shahrestan-e Khoda Afarin","state_id":3944,"state_code":"01","country_id":103,"country_code":"IR","latitude":"39.06667000","longitude":"46.95000000"},{"id":"134951","name":"Shahrestan-e Malekan","state_id":3944,"state_code":"01","country_id":103,"country_code":"IR","latitude":"37.13338000","longitude":"46.21667000"},{"id":"134954","name":"Shahrestan-e Maragheh","state_id":3944,"state_code":"01","country_id":103,"country_code":"IR","latitude":"37.38061000","longitude":"46.39372000"},{"id":"134974","name":"Shahrestan-e Mianeh","state_id":3944,"state_code":"01","country_id":103,"country_code":"IR","latitude":"37.41667000","longitude":"47.70000000"},{"id":"134992","name":"Shahrestan-e Osku","state_id":3944,"state_code":"01","country_id":103,"country_code":"IR","latitude":"37.95005000","longitude":"45.88340000"},{"id":"135028","name":"Shahrestan-e Sarab","state_id":3944,"state_code":"01","country_id":103,"country_code":"IR","latitude":"37.98340000","longitude":"47.46679000"},{"id":"135057","name":"Shahrestan-e Tabriz","state_id":3944,"state_code":"01","country_id":103,"country_code":"IR","latitude":"38.08333000","longitude":"46.28333000"},{"id":"135068","name":"Shahrestan-e Varzaqan","state_id":3944,"state_code":"01","country_id":103,"country_code":"IR","latitude":"38.59492000","longitude":"46.46397000"},{"id":"135125","name":"Tabriz","state_id":3944,"state_code":"01","country_id":103,"country_code":"IR","latitude":"38.08000000","longitude":"46.29190000"}]