[{"id":"19157","name":"Bogo","state_id":2656,"state_code":"EN","country_id":38,"country_code":"CM","latitude":"10.73360000","longitude":"14.60928000"},{"id":"19186","name":"Ka\u00e9l\u00e9","state_id":2656,"state_code":"EN","country_id":38,"country_code":"CM","latitude":"10.10917000","longitude":"14.45083000"},{"id":"19189","name":"Kouss\u00e9ri","state_id":2656,"state_code":"EN","country_id":38,"country_code":"CM","latitude":"12.07689000","longitude":"15.03063000"},{"id":"19190","name":"Koza","state_id":2656,"state_code":"EN","country_id":38,"country_code":"CM","latitude":"10.86846000","longitude":"13.88205000"},{"id":"19199","name":"Makary","state_id":2656,"state_code":"EN","country_id":38,"country_code":"CM","latitude":"12.57535000","longitude":"14.45483000"},{"id":"19202","name":"Maroua","state_id":2656,"state_code":"EN","country_id":38,"country_code":"CM","latitude":"10.59095000","longitude":"14.31593000"},{"id":"19206","name":"Mayo-Sava","state_id":2656,"state_code":"EN","country_id":38,"country_code":"CM","latitude":"11.10682000","longitude":"14.20560000"},{"id":"19207","name":"Mayo-Tsanaga","state_id":2656,"state_code":"EN","country_id":38,"country_code":"CM","latitude":"10.58221000","longitude":"13.79351000"},{"id":"19220","name":"Mindif","state_id":2656,"state_code":"EN","country_id":38,"country_code":"CM","latitude":"10.39757000","longitude":"14.43626000"},{"id":"19223","name":"Mokolo","state_id":2656,"state_code":"EN","country_id":38,"country_code":"CM","latitude":"10.74244000","longitude":"13.80227000"},{"id":"19224","name":"Mora","state_id":2656,"state_code":"EN","country_id":38,"country_code":"CM","latitude":"11.04611000","longitude":"14.14011000"},{"id":"19265","name":"Yagoua","state_id":2656,"state_code":"EN","country_id":38,"country_code":"CM","latitude":"10.34107000","longitude":"15.23288000"}]