[{"id":"19144","name":"Bamusso","state_id":2658,"state_code":"SW","country_id":38,"country_code":"CM","latitude":"4.45910000","longitude":"8.90270000"},{"id":"19154","name":"Bekondo","state_id":2658,"state_code":"SW","country_id":38,"country_code":"CM","latitude":"4.68190000","longitude":"9.32140000"},{"id":"19160","name":"Buea","state_id":2658,"state_code":"SW","country_id":38,"country_code":"CM","latitude":"4.15342000","longitude":"9.24231000"},{"id":"19175","name":"Fako Division","state_id":2658,"state_code":"SW","country_id":38,"country_code":"CM","latitude":"4.16667000","longitude":"9.16667000"},{"id":"19177","name":"Fontem","state_id":2658,"state_code":"SW","country_id":38,"country_code":"CM","latitude":"5.46850000","longitude":"9.88180000"},{"id":"19192","name":"Kumba","state_id":2658,"state_code":"SW","country_id":38,"country_code":"CM","latitude":"4.63630000","longitude":"9.44690000"},{"id":"19195","name":"Lebialem","state_id":2658,"state_code":"SW","country_id":38,"country_code":"CM","latitude":"5.56043000","longitude":"9.92316000"},{"id":"19196","name":"Limbe","state_id":2658,"state_code":"SW","country_id":38,"country_code":"CM","latitude":"4.02356000","longitude":"9.20607000"},{"id":"19200","name":"Mamfe","state_id":2658,"state_code":"SW","country_id":38,"country_code":"CM","latitude":"5.75132000","longitude":"9.31370000"},{"id":"19226","name":"Mundemba","state_id":2658,"state_code":"SW","country_id":38,"country_code":"CM","latitude":"4.94790000","longitude":"8.87240000"},{"id":"19227","name":"Mutengene","state_id":2658,"state_code":"SW","country_id":38,"country_code":"CM","latitude":"4.09130000","longitude":"9.31440000"},{"id":"19228","name":"Muyuka","state_id":2658,"state_code":"SW","country_id":38,"country_code":"CM","latitude":"4.28980000","longitude":"9.41030000"},{"id":"19240","name":"Nguti","state_id":2658,"state_code":"SW","country_id":38,"country_code":"CM","latitude":"5.32990000","longitude":"9.41850000"},{"id":"19260","name":"Tiko","state_id":2658,"state_code":"SW","country_id":38,"country_code":"CM","latitude":"4.07500000","longitude":"9.36005000"}]