[{"id":"19134","name":"Akono","state_id":2660,"state_code":"CE","country_id":38,"country_code":"CM","latitude":"3.50000000","longitude":"11.33333000"},{"id":"19135","name":"Akonolinga","state_id":2660,"state_code":"CE","country_id":38,"country_code":"CM","latitude":"3.76667000","longitude":"12.25000000"},{"id":"19270","name":"\u00c9vodoula","state_id":2660,"state_code":"CE","country_id":38,"country_code":"CM","latitude":"4.08333000","longitude":"11.20000000"},{"id":"19139","name":"Bafia","state_id":2660,"state_code":"CE","country_id":38,"country_code":"CM","latitude":"4.75000000","longitude":"11.23333000"},{"id":"19174","name":"Es\u00e9ka","state_id":2660,"state_code":"CE","country_id":38,"country_code":"CM","latitude":"3.65000000","longitude":"10.76667000"},{"id":"19173","name":"Ess\u00e9","state_id":2660,"state_code":"CE","country_id":38,"country_code":"CM","latitude":"4.10000000","longitude":"11.90000000"},{"id":"19208","name":"Mbalmayo","state_id":2660,"state_code":"CE","country_id":38,"country_code":"CM","latitude":"3.51667000","longitude":"11.50000000"},{"id":"19209","name":"Mbam-Et-Inoubou","state_id":2660,"state_code":"CE","country_id":38,"country_code":"CM","latitude":"4.73754000","longitude":"10.96972000"},{"id":"19210","name":"Mbandjok","state_id":2660,"state_code":"CE","country_id":38,"country_code":"CM","latitude":"4.45000000","longitude":"11.90000000"},{"id":"19213","name":"Mbankomo","state_id":2660,"state_code":"CE","country_id":38,"country_code":"CM","latitude":"3.78333000","longitude":"11.38333000"},{"id":"19216","name":"Mefou-et-Akono","state_id":2660,"state_code":"CE","country_id":38,"country_code":"CM","latitude":"3.58706000","longitude":"11.36089000"},{"id":"19219","name":"Mfoundi","state_id":2660,"state_code":"CE","country_id":38,"country_code":"CM","latitude":"3.86670000","longitude":"11.51670000"},{"id":"19221","name":"Minta","state_id":2660,"state_code":"CE","country_id":38,"country_code":"CM","latitude":"4.58333000","longitude":"12.80000000"},{"id":"19231","name":"Nanga Eboko","state_id":2660,"state_code":"CE","country_id":38,"country_code":"CM","latitude":"4.68333000","longitude":"12.36667000"},{"id":"19233","name":"Ndikinim\u00e9ki","state_id":2660,"state_code":"CE","country_id":38,"country_code":"CM","latitude":"4.76667000","longitude":"10.83333000"},{"id":"19237","name":"Ngomedzap","state_id":2660,"state_code":"CE","country_id":38,"country_code":"CM","latitude":"3.25000000","longitude":"11.20000000"},{"id":"19238","name":"Ngoro","state_id":2660,"state_code":"CE","country_id":38,"country_code":"CM","latitude":"4.95000000","longitude":"11.38333000"},{"id":"19243","name":"Nkoteng","state_id":2660,"state_code":"CE","country_id":38,"country_code":"CM","latitude":"4.51667000","longitude":"12.03333000"},{"id":"19245","name":"Ntui","state_id":2660,"state_code":"CE","country_id":38,"country_code":"CM","latitude":"4.45000000","longitude":"11.63333000"},{"id":"19246","name":"Obala","state_id":2660,"state_code":"CE","country_id":38,"country_code":"CM","latitude":"4.16667000","longitude":"11.53333000"},{"id":"19247","name":"Okoa","state_id":2660,"state_code":"CE","country_id":38,"country_code":"CM","latitude":"3.98333000","longitude":"11.60000000"},{"id":"19248","name":"Okola","state_id":2660,"state_code":"CE","country_id":38,"country_code":"CM","latitude":"4.01667000","longitude":"11.38333000"},{"id":"19249","name":"Omb\u00e9sa","state_id":2660,"state_code":"CE","country_id":38,"country_code":"CM","latitude":"4.60000000","longitude":"11.25000000"},{"id":"19254","name":"Saa","state_id":2660,"state_code":"CE","country_id":38,"country_code":"CM","latitude":"4.36667000","longitude":"11.45000000"},{"id":"19266","name":"Yaound\u00e9","state_id":2660,"state_code":"CE","country_id":38,"country_code":"CM","latitude":"3.86667000","longitude":"11.51667000"},{"id":"19268","name":"Yoko","state_id":2660,"state_code":"CE","country_id":38,"country_code":"CM","latitude":"5.53333000","longitude":"12.31667000"}]