[{"id":"19148","name":"Bankim","state_id":2663,"state_code":"AD","country_id":38,"country_code":"CM","latitude":"6.08303000","longitude":"11.49050000"},{"id":"19150","name":"Banyo","state_id":2663,"state_code":"AD","country_id":38,"country_code":"CM","latitude":"6.75000000","longitude":"11.81667000"},{"id":"19162","name":"B\u00e9lel","state_id":2663,"state_code":"AD","country_id":38,"country_code":"CM","latitude":"7.05000000","longitude":"14.43333000"},{"id":"19168","name":"Djohong","state_id":2663,"state_code":"AD","country_id":38,"country_code":"CM","latitude":"6.83333000","longitude":"14.70000000"},{"id":"19187","name":"Kontcha","state_id":2663,"state_code":"AD","country_id":38,"country_code":"CM","latitude":"7.96667000","longitude":"12.23333000"},{"id":"19203","name":"Mayo-Banyo","state_id":2663,"state_code":"AD","country_id":38,"country_code":"CM","latitude":"6.58138000","longitude":"11.73522000"},{"id":"19218","name":"Me\u00efganga","state_id":2663,"state_code":"AD","country_id":38,"country_code":"CM","latitude":"6.51667000","longitude":"14.30000000"},{"id":"19236","name":"Ngaound\u00e9r\u00e9","state_id":2663,"state_code":"AD","country_id":38,"country_code":"CM","latitude":"7.32765000","longitude":"13.58472000"},{"id":"19256","name":"Somi\u00e9","state_id":2663,"state_code":"AD","country_id":38,"country_code":"CM","latitude":"6.45843000","longitude":"11.43299000"},{"id":"19258","name":"Tibati","state_id":2663,"state_code":"AD","country_id":38,"country_code":"CM","latitude":"6.46504000","longitude":"12.62843000"},{"id":"19259","name":"Tign\u00e8re","state_id":2663,"state_code":"AD","country_id":38,"country_code":"CM","latitude":"7.36667000","longitude":"12.65000000"},{"id":"19262","name":"Vina","state_id":2663,"state_code":"AD","country_id":38,"country_code":"CM","latitude":"7.16365000","longitude":"13.72711000"}]