[{"id":"19138","name":"Bafang","state_id":2664,"state_code":"OU","country_id":38,"country_code":"CM","latitude":"5.15705000","longitude":"10.17710000"},{"id":"19140","name":"Bafoussam","state_id":2664,"state_code":"OU","country_id":38,"country_code":"CM","latitude":"5.47775000","longitude":"10.41759000"},{"id":"19143","name":"Bamendjou","state_id":2664,"state_code":"OU","country_id":38,"country_code":"CM","latitude":"5.38988000","longitude":"10.33014000"},{"id":"19145","name":"Bana","state_id":2664,"state_code":"OU","country_id":38,"country_code":"CM","latitude":"5.14655000","longitude":"10.27545000"},{"id":"19146","name":"Bandjoun","state_id":2664,"state_code":"OU","country_id":38,"country_code":"CM","latitude":"5.37568000","longitude":"10.41326000"},{"id":"19147","name":"Bangangt\u00e9","state_id":2664,"state_code":"OU","country_id":38,"country_code":"CM","latitude":"5.14079000","longitude":"10.52535000"},{"id":"19149","name":"Bansoa","state_id":2664,"state_code":"OU","country_id":38,"country_code":"CM","latitude":"5.44836000","longitude":"10.31355000"},{"id":"19153","name":"Bazou","state_id":2664,"state_code":"OU","country_id":38,"country_code":"CM","latitude":"5.06001000","longitude":"10.46751000"},{"id":"19171","name":"Dschang","state_id":2664,"state_code":"OU","country_id":38,"country_code":"CM","latitude":"5.44397000","longitude":"10.05332000"},{"id":"19178","name":"Foumban","state_id":2664,"state_code":"OU","country_id":38,"country_code":"CM","latitude":"5.72662000","longitude":"10.89865000"},{"id":"19179","name":"Foumbot","state_id":2664,"state_code":"OU","country_id":38,"country_code":"CM","latitude":"5.50803000","longitude":"10.63250000"},{"id":"19184","name":"Hauts-Plateaux","state_id":2664,"state_code":"OU","country_id":38,"country_code":"CM","latitude":"5.29632000","longitude":"10.34314000"},{"id":"19188","name":"Koung-Khi","state_id":2664,"state_code":"OU","country_id":38,"country_code":"CM","latitude":"5.33848000","longitude":"10.47453000"},{"id":"19215","name":"Mbouda","state_id":2664,"state_code":"OU","country_id":38,"country_code":"CM","latitude":"5.62611000","longitude":"10.25421000"},{"id":"19239","name":"Ngou","state_id":2664,"state_code":"OU","country_id":38,"country_code":"CM","latitude":"5.19685000","longitude":"10.38595000"},{"id":"19244","name":"Noun","state_id":2664,"state_code":"OU","country_id":38,"country_code":"CM","latitude":"5.64123000","longitude":"10.91840000"},{"id":"19261","name":"Tonga","state_id":2664,"state_code":"OU","country_id":38,"country_code":"CM","latitude":"4.96667000","longitude":"10.70000000"}]