[{"id":"30573","name":"Aabenraa","state_id":1529,"state_code":"83","country_id":59,"country_code":"DK","latitude":"55.04434000","longitude":"9.41741000"},{"id":"30574","name":"Aabenraa Kommune","state_id":1529,"state_code":"83","country_id":59,"country_code":"DK","latitude":"54.98980000","longitude":"9.31282000"},{"id":"30583","name":"Assens","state_id":1529,"state_code":"83","country_id":59,"country_code":"DK","latitude":"55.27023000","longitude":"9.90081000"},{"id":"30584","name":"Assens Kommune","state_id":1529,"state_code":"83","country_id":59,"country_code":"DK","latitude":"55.29958000","longitude":"10.07952000"},{"id":"30586","name":"Augustenborg","state_id":1529,"state_code":"83","country_id":59,"country_code":"DK","latitude":"54.95201000","longitude":"9.87216000"},{"id":"30999","name":"\u00d8lgod","state_id":1529,"state_code":"83","country_id":59,"country_code":"DK","latitude":"55.80682000","longitude":"8.62859000"},{"id":"30997","name":"\u00c6r\u00f8 Kommune","state_id":1529,"state_code":"83","country_id":59,"country_code":"DK","latitude":"54.85833000","longitude":"10.43333000"},{"id":"30998","name":"\u00c6r\u00f8sk\u00f8bing","state_id":1529,"state_code":"83","country_id":59,"country_code":"DK","latitude":"54.88803000","longitude":"10.41117000"},{"id":"30995","name":"\u00c5rslev","state_id":1529,"state_code":"83","country_id":59,"country_code":"DK","latitude":"55.30353000","longitude":"10.46428000"},{"id":"30996","name":"\u00c5rup","state_id":1529,"state_code":"83","country_id":59,"country_code":"DK","latitude":"55.37315000","longitude":"10.04131000"},{"id":"30615","name":"B\u00f8rkop","state_id":1529,"state_code":"83","country_id":59,"country_code":"DK","latitude":"55.64195000","longitude":"9.64958000"},{"id":"30592","name":"Bellinge","state_id":1529,"state_code":"83","country_id":59,"country_code":"DK","latitude":"55.33535000","longitude":"10.32045000"},{"id":"30593","name":"Billund","state_id":1529,"state_code":"83","country_id":59,"country_code":"DK","latitude":"55.73349000","longitude":"9.10785000"},{"id":"30594","name":"Billund Kommune","state_id":1529,"state_code":"83","country_id":59,"country_code":"DK","latitude":"55.73079000","longitude":"8.96844000"},{"id":"30599","name":"Bogense","state_id":1529,"state_code":"83","country_id":59,"country_code":"DK","latitude":"55.56691000","longitude":"10.08863000"},{"id":"30603","name":"Bramming","state_id":1529,"state_code":"83","country_id":59,"country_code":"DK","latitude":"55.46946000","longitude":"8.70007000"},{"id":"30613","name":"Br\u00f8rup","state_id":1529,"state_code":"83","country_id":59,"country_code":"DK","latitude":"55.48194000","longitude":"9.01756000"},{"id":"30605","name":"Brejning","state_id":1529,"state_code":"83","country_id":59,"country_code":"DK","latitude":"55.66594000","longitude":"9.67217000"},{"id":"30606","name":"Brenderup","state_id":1529,"state_code":"83","country_id":59,"country_code":"DK","latitude":"55.48407000","longitude":"9.97908000"},{"id":"30607","name":"Broager","state_id":1529,"state_code":"83","country_id":59,"country_code":"DK","latitude":"54.88940000","longitude":"9.67465000"},{"id":"30614","name":"Bullerup","state_id":1529,"state_code":"83","country_id":59,"country_code":"DK","latitude":"55.42686000","longitude":"10.47137000"},{"id":"30617","name":"Christiansfeld","state_id":1529,"state_code":"83","country_id":59,"country_code":"DK","latitude":"55.35817000","longitude":"9.48701000"},{"id":"30625","name":"Dybb\u00f8l","state_id":1529,"state_code":"83","country_id":59,"country_code":"DK","latitude":"54.91079000","longitude":"9.73601000"},{"id":"30628","name":"Egtved","state_id":1529,"state_code":"83","country_id":59,"country_code":"DK","latitude":"55.61613000","longitude":"9.30763000"},{"id":"30629","name":"Ejby","state_id":1529,"state_code":"83","country_id":59,"country_code":"DK","latitude":"55.43010000","longitude":"9.92973000"},{"id":"30631","name":"Esbjerg","state_id":1529,"state_code":"83","country_id":59,"country_code":"DK","latitude":"55.47028000","longitude":"8.45187000"},{"id":"30632","name":"Esbjerg Kommune","state_id":1529,"state_code":"83","country_id":59,"country_code":"DK","latitude":"55.46893000","longitude":"8.46222000"},{"id":"30634","name":"Faaborg","state_id":1529,"state_code":"83","country_id":59,"country_code":"DK","latitude":"55.09510000","longitude":"10.24226000"},{"id":"30635","name":"Faaborg-Midtfyn Kommune","state_id":1529,"state_code":"83","country_id":59,"country_code":"DK","latitude":"55.22667000","longitude":"10.40667000"},{"id":"30636","name":"Fan\u00f8 Kommune","state_id":1529,"state_code":"83","country_id":59,"country_code":"DK","latitude":"55.41667000","longitude":"8.41667000"},{"id":"30650","name":"Fredericia","state_id":1529,"state_code":"83","country_id":59,"country_code":"DK","latitude":"55.56568000","longitude":"9.75257000"},{"id":"30651","name":"Fredericia Kommune","state_id":1529,"state_code":"83","country_id":59,"country_code":"DK","latitude":"55.57271000","longitude":"9.69489000"},{"id":"30668","name":"Give","state_id":1529,"state_code":"83","country_id":59,"country_code":"DK","latitude":"55.84523000","longitude":"9.23769000"},{"id":"30671","name":"Glamsbjerg","state_id":1529,"state_code":"83","country_id":59,"country_code":"DK","latitude":"55.27237000","longitude":"10.10483000"},{"id":"30674","name":"Gram","state_id":1529,"state_code":"83","country_id":59,"country_code":"DK","latitude":"55.28948000","longitude":"9.04913000"},{"id":"30680","name":"Gr\u00e5sten","state_id":1529,"state_code":"83","country_id":59,"country_code":"DK","latitude":"54.91918000","longitude":"9.59523000"},{"id":"30679","name":"Grindsted","state_id":1529,"state_code":"83","country_id":59,"country_code":"DK","latitude":"55.75726000","longitude":"8.92750000"},{"id":"30682","name":"Guderup","state_id":1529,"state_code":"83","country_id":59,"country_code":"DK","latitude":"54.98978000","longitude":"9.87174000"},{"id":"30686","name":"Haderslev","state_id":1529,"state_code":"83","country_id":59,"country_code":"DK","latitude":"55.24943000","longitude":"9.48771000"},{"id":"30687","name":"Haderslev Kommune","state_id":1529,"state_code":"83","country_id":59,"country_code":"DK","latitude":"55.24441000","longitude":"9.32261000"},{"id":"30733","name":"H\u00e5rby","state_id":1529,"state_code":"83","country_id":59,"country_code":"DK","latitude":"55.22357000","longitude":"10.12268000"},{"id":"30735","name":"H\u00f8jby","state_id":1529,"state_code":"83","country_id":59,"country_code":"DK","latitude":"55.33177000","longitude":"10.43725000"},{"id":"30741","name":"H\u00f8ruphav","state_id":1529,"state_code":"83","country_id":59,"country_code":"DK","latitude":"54.91017000","longitude":"9.89872000"},{"id":"30721","name":"Holsted","state_id":1529,"state_code":"83","country_id":59,"country_code":"DK","latitude":"55.51086000","longitude":"8.91872000"},{"id":"30748","name":"Jelling","state_id":1529,"state_code":"83","country_id":59,"country_code":"DK","latitude":"55.75588000","longitude":"9.42580000"},{"id":"30756","name":"Kerteminde","state_id":1529,"state_code":"83","country_id":59,"country_code":"DK","latitude":"55.44903000","longitude":"10.65769000"},{"id":"30757","name":"Kerteminde Kommune","state_id":1529,"state_code":"83","country_id":59,"country_code":"DK","latitude":"55.45498000","longitude":"10.62220000"},{"id":"30763","name":"Kolding","state_id":1529,"state_code":"83","country_id":59,"country_code":"DK","latitude":"55.49040000","longitude":"9.47216000"},{"id":"30764","name":"Kolding Kommune","state_id":1529,"state_code":"83","country_id":59,"country_code":"DK","latitude":"55.45006000","longitude":"9.45807000"},{"id":"30768","name":"Krus\u00e5","state_id":1529,"state_code":"83","country_id":59,"country_code":"DK","latitude":"54.85097000","longitude":"9.40129000"},{"id":"30773","name":"Langeland Kommune","state_id":1529,"state_code":"83","country_id":59,"country_code":"DK","latitude":"54.90000000","longitude":"10.77222000"},{"id":"30774","name":"Langeskov","state_id":1529,"state_code":"83","country_id":59,"country_code":"DK","latitude":"55.35655000","longitude":"10.58447000"},{"id":"30791","name":"L\u00f8gumkloster","state_id":1529,"state_code":"83","country_id":59,"country_code":"DK","latitude":"55.05941000","longitude":"8.95508000"},{"id":"30792","name":"L\u00f8jt Kirkeby","state_id":1529,"state_code":"83","country_id":59,"country_code":"DK","latitude":"55.08959000","longitude":"9.46084000"},{"id":"30784","name":"Lunderskov","state_id":1529,"state_code":"83","country_id":59,"country_code":"DK","latitude":"55.48375000","longitude":"9.29917000"},{"id":"30798","name":"Marstal","state_id":1529,"state_code":"83","country_id":59,"country_code":"DK","latitude":"54.85621000","longitude":"10.51726000"},{"id":"30799","name":"Middelfart","state_id":1529,"state_code":"83","country_id":59,"country_code":"DK","latitude":"55.50591000","longitude":"9.73054000"},{"id":"30800","name":"Middelfart Kommune","state_id":1529,"state_code":"83","country_id":59,"country_code":"DK","latitude":"55.45782000","longitude":"9.88100000"},{"id":"30802","name":"Munkebo","state_id":1529,"state_code":"83","country_id":59,"country_code":"DK","latitude":"55.45553000","longitude":"10.55433000"},{"id":"30825","name":"N\u00f8rre \u00c5by","state_id":1529,"state_code":"83","country_id":59,"country_code":"DK","latitude":"55.46107000","longitude":"9.87940000"},{"id":"30806","name":"Neder Holluf","state_id":1529,"state_code":"83","country_id":59,"country_code":"DK","latitude":"55.36451000","longitude":"10.44824000"},{"id":"30811","name":"Nordborg","state_id":1529,"state_code":"83","country_id":59,"country_code":"DK","latitude":"55.05732000","longitude":"9.74080000"},{"id":"30812","name":"Nordby","state_id":1529,"state_code":"83","country_id":59,"country_code":"DK","latitude":"55.44603000","longitude":"8.39786000"},{"id":"30814","name":"Nordfyns Kommune","state_id":1529,"state_code":"83","country_id":59,"country_code":"DK","latitude":"55.52222000","longitude":"10.22222000"},{"id":"30815","name":"Nyborg","state_id":1529,"state_code":"83","country_id":59,"country_code":"DK","latitude":"55.31274000","longitude":"10.78964000"},{"id":"30816","name":"Nyborg Kommune","state_id":1529,"state_code":"83","country_id":59,"country_code":"DK","latitude":"55.29473000","longitude":"10.70310000"},{"id":"30829","name":"Odense","state_id":1529,"state_code":"83","country_id":59,"country_code":"DK","latitude":"55.39594000","longitude":"10.38831000"},{"id":"30830","name":"Odense Kommune","state_id":1529,"state_code":"83","country_id":59,"country_code":"DK","latitude":"55.39570000","longitude":"10.37761000"},{"id":"30832","name":"Oksb\u00f8l","state_id":1529,"state_code":"83","country_id":59,"country_code":"DK","latitude":"55.62680000","longitude":"8.28757000"},{"id":"30834","name":"Otterup","state_id":1529,"state_code":"83","country_id":59,"country_code":"DK","latitude":"55.51527000","longitude":"10.39756000"},{"id":"30835","name":"Padborg","state_id":1529,"state_code":"83","country_id":59,"country_code":"DK","latitude":"54.82657000","longitude":"9.36247000"},{"id":"30855","name":"R\u00f8dding","state_id":1529,"state_code":"83","country_id":59,"country_code":"DK","latitude":"55.36569000","longitude":"9.06316000"},{"id":"30856","name":"R\u00f8dekro","state_id":1529,"state_code":"83","country_id":59,"country_code":"DK","latitude":"55.07076000","longitude":"9.33531000"},{"id":"30841","name":"Ribe","state_id":1529,"state_code":"83","country_id":59,"country_code":"DK","latitude":"55.33051000","longitude":"8.76966000"},{"id":"30842","name":"Ringe","state_id":1529,"state_code":"83","country_id":59,"country_code":"DK","latitude":"55.23828000","longitude":"10.47860000"},{"id":"30850","name":"Rudk\u00f8bing","state_id":1529,"state_code":"83","country_id":59,"country_code":"DK","latitude":"54.93639000","longitude":"10.71019000"},{"id":"30926","name":"S\u00f8nder Bjert","state_id":1529,"state_code":"83","country_id":59,"country_code":"DK","latitude":"55.45272000","longitude":"9.56741000"},{"id":"30927","name":"S\u00f8nderborg","state_id":1529,"state_code":"83","country_id":59,"country_code":"DK","latitude":"54.90896000","longitude":"9.78917000"},{"id":"30928","name":"S\u00f8nderborg Kommune","state_id":1529,"state_code":"83","country_id":59,"country_code":"DK","latitude":"54.91667000","longitude":"9.80000000"},{"id":"30929","name":"S\u00f8nders\u00f8","state_id":1529,"state_code":"83","country_id":59,"country_code":"DK","latitude":"55.48526000","longitude":"10.25540000"},{"id":"30866","name":"Seden","state_id":1529,"state_code":"83","country_id":59,"country_code":"DK","latitude":"55.42648000","longitude":"10.44265000"},{"id":"30870","name":"Skaerbaek","state_id":1529,"state_code":"83","country_id":59,"country_code":"DK","latitude":"55.15735000","longitude":"8.76901000"},{"id":"30887","name":"Snogh\u00f8j","state_id":1529,"state_code":"83","country_id":59,"country_code":"DK","latitude":"55.52253000","longitude":"9.72125000"},{"id":"30895","name":"Starup","state_id":1529,"state_code":"83","country_id":59,"country_code":"DK","latitude":"55.24097000","longitude":"9.53503000"},{"id":"30902","name":"Stige","state_id":1529,"state_code":"83","country_id":59,"country_code":"DK","latitude":"55.43941000","longitude":"10.40940000"},{"id":"30908","name":"Strib","state_id":1529,"state_code":"83","country_id":59,"country_code":"DK","latitude":"55.54021000","longitude":"9.76748000"},{"id":"30918","name":"Svendborg","state_id":1529,"state_code":"83","country_id":59,"country_code":"DK","latitude":"55.05982000","longitude":"10.60677000"},{"id":"30919","name":"Svendborg Kommune","state_id":1529,"state_code":"83","country_id":59,"country_code":"DK","latitude":"55.08410000","longitude":"10.61391000"},{"id":"30932","name":"Taulov","state_id":1529,"state_code":"83","country_id":59,"country_code":"DK","latitude":"55.54582000","longitude":"9.61553000"},{"id":"30950","name":"T\u00f8nder","state_id":1529,"state_code":"83","country_id":59,"country_code":"DK","latitude":"54.93306000","longitude":"8.86674000"},{"id":"30951","name":"T\u00f8nder Kommune","state_id":1529,"state_code":"83","country_id":59,"country_code":"DK","latitude":"55.07304000","longitude":"8.87214000"},{"id":"30935","name":"Thur\u00f8 By","state_id":1529,"state_code":"83","country_id":59,"country_code":"DK","latitude":"55.04740000","longitude":"10.66385000"},{"id":"30937","name":"Tinglev","state_id":1529,"state_code":"83","country_id":59,"country_code":"DK","latitude":"54.93788000","longitude":"9.25547000"},{"id":"30938","name":"Tj\u00e6reborg","state_id":1529,"state_code":"83","country_id":59,"country_code":"DK","latitude":"55.46457000","longitude":"8.57968000"},{"id":"30939","name":"Toftlund","state_id":1529,"state_code":"83","country_id":59,"country_code":"DK","latitude":"55.18858000","longitude":"9.06925000"},{"id":"30940","name":"Tommerup","state_id":1529,"state_code":"83","country_id":59,"country_code":"DK","latitude":"55.31952000","longitude":"10.20659000"},{"id":"30941","name":"Tommerup Stationsby","state_id":1529,"state_code":"83","country_id":59,"country_code":"DK","latitude":"55.34535000","longitude":"10.17594000"},{"id":"30954","name":"Ullerslev","state_id":1529,"state_code":"83","country_id":59,"country_code":"DK","latitude":"55.36172000","longitude":"10.65190000"},{"id":"30959","name":"Vamdrup","state_id":1529,"state_code":"83","country_id":59,"country_code":"DK","latitude":"55.42764000","longitude":"9.28435000"},{"id":"30961","name":"Varde","state_id":1529,"state_code":"83","country_id":59,"country_code":"DK","latitude":"55.62112000","longitude":"8.48069000"},{"id":"30962","name":"Varde Kommune","state_id":1529,"state_code":"83","country_id":59,"country_code":"DK","latitude":"55.61667000","longitude":"8.50000000"},{"id":"30963","name":"Vejen","state_id":1529,"state_code":"83","country_id":59,"country_code":"DK","latitude":"55.48117000","longitude":"9.13795000"},{"id":"30964","name":"Vejen Kommune","state_id":1529,"state_code":"83","country_id":59,"country_code":"DK","latitude":"55.46312000","longitude":"9.05004000"},{"id":"30965","name":"Vejle","state_id":1529,"state_code":"83","country_id":59,"country_code":"DK","latitude":"55.70927000","longitude":"9.53570000"},{"id":"30966","name":"Vejle Kommune","state_id":1529,"state_code":"83","country_id":59,"country_code":"DK","latitude":"55.74874000","longitude":"9.40421000"},{"id":"30970","name":"Vester-Skerninge","state_id":1529,"state_code":"83","country_id":59,"country_code":"DK","latitude":"55.07322000","longitude":"10.45536000"},{"id":"30977","name":"Vindeby","state_id":1529,"state_code":"83","country_id":59,"country_code":"DK","latitude":"55.04489000","longitude":"10.61309000"},{"id":"30982","name":"Vissenbjerg","state_id":1529,"state_code":"83","country_id":59,"country_code":"DK","latitude":"55.38482000","longitude":"10.13784000"},{"id":"30984","name":"Vojens","state_id":1529,"state_code":"83","country_id":59,"country_code":"DK","latitude":"55.24639000","longitude":"9.30603000"}]