[{"id":"104704","name":"Dakar","state_id":473,"state_code":"DK","country_id":195,"country_code":"SN","latitude":"14.69370000","longitude":"-17.44406000"},{"id":"104705","name":"Dakar Department","state_id":473,"state_code":"DK","country_id":195,"country_code":"SN","latitude":"14.71403000","longitude":"-17.45534000"},{"id":"104716","name":"Gu\u00e9diawaye Department","state_id":473,"state_code":"DK","country_id":195,"country_code":"SN","latitude":"14.77610000","longitude":"-17.39560000"},{"id":"104737","name":"Mermoz Boabab","state_id":473,"state_code":"DK","country_id":195,"country_code":"SN","latitude":"14.70649000","longitude":"-17.47581000"},{"id":"104744","name":"N\u2019diareme limamoulaye","state_id":473,"state_code":"DK","country_id":195,"country_code":"SN","latitude":"14.78148000","longitude":"-17.38410000"},{"id":"104748","name":"Pikine","state_id":473,"state_code":"DK","country_id":195,"country_code":"SN","latitude":"14.76457000","longitude":"-17.39071000"},{"id":"104749","name":"Pikine Department","state_id":473,"state_code":"DK","country_id":195,"country_code":"SN","latitude":"14.76515000","longitude":"-17.35198000"},{"id":"104756","name":"Rufisque Department","state_id":473,"state_code":"DK","country_id":195,"country_code":"SN","latitude":"14.74339000","longitude":"-17.19841000"}]