[{"id":"109037","name":"Yilan","state_id":3402,"state_code":"ILA","country_id":216,"country_code":"TW","latitude":"24.54250000","longitude":"121.63361000"},{"id":"109020","name":"Magong","state_id":3403,"state_code":"PEN","country_id":216,"country_code":"TW","latitude":"23.56540000","longitude":"119.58627000"},{"id":"109024","name":"Penghu County","state_id":3403,"state_code":"PEN","country_id":216,"country_code":"TW","latitude":"23.57111000","longitude":"119.61138000"},{"id":"109003","name":"Changhua","state_id":3404,"state_code":"CHA","country_id":216,"country_code":"TW","latitude":"23.95361000","longitude":"120.49083000"},{"id":"109038","name":"Yuanlin","state_id":3404,"state_code":"CHA","country_id":216,"country_code":"TW","latitude":"23.95671000","longitude":"120.57608000"},{"id":"109007","name":"Donggang","state_id":3405,"state_code":"PIF","country_id":216,"country_code":"TW","latitude":"22.46515000","longitude":"120.44927000"},{"id":"109009","name":"Hengchun","state_id":3405,"state_code":"PIF","country_id":216,"country_code":"TW","latitude":"22.00417000","longitude":"120.74389000"},{"id":"109025","name":"Pingtung","state_id":3405,"state_code":"PIF","country_id":216,"country_code":"TW","latitude":"22.49555000","longitude":"120.61444000"},{"id":"109028","name":"Taichung","state_id":3406,"state_code":"TXG","country_id":216,"country_code":"TW","latitude":"24.14690000","longitude":"120.68390000"},{"id":"109029","name":"Taichung City","state_id":3406,"state_code":"TXG","country_id":216,"country_code":"TW","latitude":"24.15472000","longitude":"120.67297000"},{"id":"109019","name":"Lugu","state_id":3407,"state_code":"NAN","country_id":216,"country_code":"TW","latitude":"23.74639000","longitude":"120.75250000"},{"id":"109023","name":"Nantou","state_id":3407,"state_code":"NAN","country_id":216,"country_code":"TW","latitude":"23.83419000","longitude":"120.92704000"},{"id":"109027","name":"Puli","state_id":3407,"state_code":"NAN","country_id":216,"country_code":"TW","latitude":"23.96639000","longitude":"120.96952000"},{"id":"109041","name":"Zhongxing New Village","state_id":3407,"state_code":"NAN","country_id":216,"country_code":"TW","latitude":"23.95908000","longitude":"120.68516000"},{"id":"109004","name":"Chiayi","state_id":3408,"state_code":"CYI","country_id":216,"country_code":"TW","latitude":"23.47722000","longitude":"120.44527000"},{"id":"109026","name":"Pizitou","state_id":3408,"state_code":"CYI","country_id":216,"country_code":"TW","latitude":"23.48556000","longitude":"120.44472000"},{"id":"109033","name":"Taitung","state_id":3410,"state_code":"TTT","country_id":216,"country_code":"TW","latitude":"22.88361000","longitude":"121.04833000"},{"id":"109034","name":"Taitung City","state_id":3410,"state_code":"TTT","country_id":216,"country_code":"TW","latitude":"22.75830000","longitude":"121.14440000"},{"id":"109012","name":"Hualien","state_id":3411,"state_code":"HUA","country_id":216,"country_code":"TW","latitude":"23.78166000","longitude":"121.39333000"},{"id":"109013","name":"Hualien City","state_id":3411,"state_code":"HUA","country_id":216,"country_code":"TW","latitude":"23.97694000","longitude":"121.60444000"},{"id":"109016","name":"Kaohsiung","state_id":3412,"state_code":"KHH","country_id":216,"country_code":"TW","latitude":"22.61626000","longitude":"120.31333000"},{"id":"109021","name":"Miaoli","state_id":3413,"state_code":"MIA","country_id":216,"country_code":"TW","latitude":"24.48972000","longitude":"120.90638000"},{"id":"109014","name":"Jincheng","state_id":3415,"state_code":"KIN","country_id":216,"country_code":"TW","latitude":"24.43415000","longitude":"118.31712000"},{"id":"109017","name":"Kinmen County","state_id":3415,"state_code":"KIN","country_id":216,"country_code":"TW","latitude":"24.45333000","longitude":"118.38861000"},{"id":"109008","name":"Douliu","state_id":3416,"state_code":"YUN","country_id":216,"country_code":"TW","latitude":"23.70944000","longitude":"120.54333000"},{"id":"109040","name":"Yunlin","state_id":3416,"state_code":"YUN","country_id":216,"country_code":"TW","latitude":"23.70701000","longitude":"120.38481000"},{"id":"109011","name":"Hsinchu County","state_id":3417,"state_code":"HSZ","country_id":216,"country_code":"TW","latitude":"24.67416000","longitude":"121.16111000"},{"id":"109005","name":"Chiayi County","state_id":3418,"state_code":"CYQ","country_id":216,"country_code":"TW","latitude":"23.46333000","longitude":"120.58166000"},{"id":"109006","name":"Daxi","state_id":3419,"state_code":"TAO","country_id":216,"country_code":"TW","latitude":"24.88373000","longitude":"121.29043000"},{"id":"109035","name":"Taoyuan","state_id":3419,"state_code":"TAO","country_id":216,"country_code":"TW","latitude":"24.89500000","longitude":"121.24611000"},{"id":"109036","name":"Taoyuan City","state_id":3419,"state_code":"TAO","country_id":216,"country_code":"TW","latitude":"24.99368000","longitude":"121.29696000"},{"id":"109018","name":"Lienchiang","state_id":3420,"state_code":"LIE","country_id":216,"country_code":"TW","latitude":"26.37004000","longitude":"120.49545000"},{"id":"109022","name":"Nangan","state_id":3420,"state_code":"LIE","country_id":216,"country_code":"TW","latitude":"26.15039000","longitude":"119.93284000"},{"id":"109030","name":"Tainan","state_id":3421,"state_code":"TNN","country_id":216,"country_code":"TW","latitude":"22.99083000","longitude":"120.21333000"},{"id":"109039","name":"Yujing","state_id":3421,"state_code":"TNN","country_id":216,"country_code":"TW","latitude":"23.12493000","longitude":"120.46138000"},{"id":"109002","name":"Banqiao","state_id":3422,"state_code":"TPE","country_id":216,"country_code":"TW","latitude":"25.01427000","longitude":"121.46719000"},{"id":"109015","name":"Jiufen","state_id":3422,"state_code":"TPE","country_id":216,"country_code":"TW","latitude":"25.10957000","longitude":"121.84424000"},{"id":"109031","name":"Taipei","state_id":3422,"state_code":"TPE","country_id":216,"country_code":"TW","latitude":"25.04776000","longitude":"121.53185000"},{"id":"109032","name":"Taipei City","state_id":3422,"state_code":"TPE","country_id":216,"country_code":"TW","latitude":"25.08300000","longitude":"121.55331000"},{"id":"109010","name":"Hsinchu","state_id":3423,"state_code":"HSQ","country_id":216,"country_code":"TW","latitude":"24.80361000","longitude":"120.96861000"}]