[{"id":"67351","name":"Golubovci","state_id":27,"state_code":"16","country_id":147,"country_code":"ME","latitude":"42.33500000","longitude":"19.23111000"},{"id":"67352","name":"Goricani","state_id":27,"state_code":"16","country_id":147,"country_code":"ME","latitude":"42.33222000","longitude":"19.21194000"},{"id":"67356","name":"Mataguzi","state_id":27,"state_code":"16","country_id":147,"country_code":"ME","latitude":"42.32361000","longitude":"19.27278000"},{"id":"67357","name":"Mojanovici","state_id":27,"state_code":"16","country_id":147,"country_code":"ME","latitude":"42.34167000","longitude":"19.22139000"},{"id":"67364","name":"Podgorica","state_id":27,"state_code":"16","country_id":147,"country_code":"ME","latitude":"42.44111000","longitude":"19.26361000"},{"id":"67372","name":"Tuzi","state_id":27,"state_code":"16","country_id":147,"country_code":"ME","latitude":"42.36556000","longitude":"19.33139000"}]