[{"id":"88853","name":"Swiercz\u00f3w","state_id":1622,"state_code":"OP","country_id":176,"country_code":"PL","latitude":"50.96016000","longitude":"17.75880000"},{"id":"88763","name":"Lambinowice","state_id":1622,"state_code":"OP","country_id":176,"country_code":"PL","latitude":"50.53869000","longitude":"17.56096000"},{"id":"88815","name":"Laka Prudnicka","state_id":1622,"state_code":"OP","country_id":176,"country_code":"PL","latitude":"50.31061000","longitude":"17.52809000"},{"id":"88793","name":"Losi\u00f3w","state_id":1622,"state_code":"OP","country_id":176,"country_code":"PL","latitude":"50.79096000","longitude":"17.56594000"},{"id":"88797","name":"Lubniany","state_id":1622,"state_code":"OP","country_id":176,"country_code":"PL","latitude":"50.78597000","longitude":"18.00110000"},{"id":"85792","name":"Babor\u00f3w","state_id":1622,"state_code":"OP","country_id":176,"country_code":"PL","latitude":"50.15760000","longitude":"17.98513000"},{"id":"85833","name":"Biala","state_id":1622,"state_code":"OP","country_id":176,"country_code":"PL","latitude":"50.38587000","longitude":"17.66035000"},{"id":"85864","name":"Bierawa","state_id":1622,"state_code":"OP","country_id":176,"country_code":"PL","latitude":"50.28111000","longitude":"18.24177000"},{"id":"85865","name":"Bierdzany","state_id":1622,"state_code":"OP","country_id":176,"country_code":"PL","latitude":"50.81852000","longitude":"18.15808000"},{"id":"85935","name":"Branice","state_id":1622,"state_code":"OP","country_id":176,"country_code":"PL","latitude":"50.05108000","longitude":"17.79399000"},{"id":"85958","name":"Brzeg","state_id":1622,"state_code":"OP","country_id":176,"country_code":"PL","latitude":"50.86079000","longitude":"17.46740000"},{"id":"85998","name":"Byczyna","state_id":1622,"state_code":"OP","country_id":176,"country_code":"PL","latitude":"51.11387000","longitude":"18.21413000"},{"id":"86037","name":"Chmielowice","state_id":1622,"state_code":"OP","country_id":176,"country_code":"PL","latitude":"50.64957000","longitude":"17.86669000"},{"id":"86065","name":"Chr\u00f3scice","state_id":1622,"state_code":"OP","country_id":176,"country_code":"PL","latitude":"50.78076000","longitude":"17.81227000"},{"id":"86066","name":"Chr\u00f3scina","state_id":1622,"state_code":"OP","country_id":176,"country_code":"PL","latitude":"50.62306000","longitude":"17.36861000"},{"id":"86059","name":"Chroscina","state_id":1622,"state_code":"OP","country_id":176,"country_code":"PL","latitude":"50.66578000","longitude":"17.81759000"},{"id":"86064","name":"Chrzastowice","state_id":1622,"state_code":"OP","country_id":176,"country_code":"PL","latitude":"50.66622000","longitude":"18.07294000"},{"id":"86089","name":"Cisek","state_id":1622,"state_code":"OP","country_id":176,"country_code":"PL","latitude":"50.28232000","longitude":"18.19988000"},{"id":"86115","name":"Czarnowasy","state_id":1622,"state_code":"OP","country_id":176,"country_code":"PL","latitude":"50.72858000","longitude":"17.89819000"},{"id":"86153","name":"Dalach\u00f3w","state_id":1622,"state_code":"OP","country_id":176,"country_code":"PL","latitude":"51.07732000","longitude":"18.57840000"},{"id":"86259","name":"Dlugomilowice","state_id":1622,"state_code":"OP","country_id":176,"country_code":"PL","latitude":"50.28298000","longitude":"18.14873000"},{"id":"86236","name":"Dabrowa","state_id":1622,"state_code":"OP","country_id":176,"country_code":"PL","latitude":"50.68352000","longitude":"17.74957000"},{"id":"86173","name":"Dobrodzien","state_id":1622,"state_code":"OP","country_id":176,"country_code":"PL","latitude":"50.72874000","longitude":"18.44501000"},{"id":"86177","name":"Dobrzen Wielki","state_id":1622,"state_code":"OP","country_id":176,"country_code":"PL","latitude":"50.76844000","longitude":"17.84652000"},{"id":"86187","name":"Domaszowice","state_id":1622,"state_code":"OP","country_id":176,"country_code":"PL","latitude":"51.04290000","longitude":"17.88875000"},{"id":"86221","name":"Dziergowice","state_id":1622,"state_code":"OP","country_id":176,"country_code":"PL","latitude":"50.24248000","longitude":"18.28606000"},{"id":"86412","name":"G\u00f3razdze","state_id":1622,"state_code":"OP","country_id":176,"country_code":"PL","latitude":"50.52903000","longitude":"18.01003000"},{"id":"86429","name":"Glog\u00f3wek","state_id":1622,"state_code":"OP","country_id":176,"country_code":"PL","latitude":"50.35355000","longitude":"17.86405000"},{"id":"86431","name":"Glubczyce","state_id":1622,"state_code":"OP","country_id":176,"country_code":"PL","latitude":"50.20086000","longitude":"17.82858000"},{"id":"86432","name":"Glucholazy","state_id":1622,"state_code":"OP","country_id":176,"country_code":"PL","latitude":"50.31505000","longitude":"17.38355000"},{"id":"86323","name":"Gogolin","state_id":1622,"state_code":"OP","country_id":176,"country_code":"PL","latitude":"50.49222000","longitude":"18.01994000"},{"id":"86343","name":"Gorz\u00f3w Slaski","state_id":1622,"state_code":"OP","country_id":176,"country_code":"PL","latitude":"51.02871000","longitude":"18.42304000"},{"id":"86373","name":"Grodk\u00f3w","state_id":1622,"state_code":"OP","country_id":176,"country_code":"PL","latitude":"50.69836000","longitude":"17.38449000"},{"id":"86470","name":"Izbicko","state_id":1622,"state_code":"OP","country_id":176,"country_code":"PL","latitude":"50.57163000","longitude":"18.15585000"},{"id":"86502","name":"Januszkowice","state_id":1622,"state_code":"OP","country_id":176,"country_code":"PL","latitude":"50.39189000","longitude":"18.13680000"},{"id":"86552","name":"Jemielnica","state_id":1622,"state_code":"OP","country_id":176,"country_code":"PL","latitude":"50.54573000","longitude":"18.37807000"},{"id":"86591","name":"Kamienica","state_id":1622,"state_code":"OP","country_id":176,"country_code":"PL","latitude":"50.45007000","longitude":"16.95396000"},{"id":"86597","name":"Kamiennik","state_id":1622,"state_code":"OP","country_id":176,"country_code":"PL","latitude":"50.57032000","longitude":"17.14979000"},{"id":"86853","name":"Kedzierzyn-Kozle","state_id":1622,"state_code":"OP","country_id":176,"country_code":"PL","latitude":"50.34984000","longitude":"18.22606000"},{"id":"86635","name":"Kietrz","state_id":1622,"state_code":"OP","country_id":176,"country_code":"PL","latitude":"50.08042000","longitude":"18.00432000"},{"id":"86653","name":"Kluczbork","state_id":1622,"state_code":"OP","country_id":176,"country_code":"PL","latitude":"50.97281000","longitude":"18.21816000"},{"id":"86757","name":"Kozle","state_id":1622,"state_code":"OP","country_id":176,"country_code":"PL","latitude":"50.33560000","longitude":"18.14332000"},{"id":"86680","name":"Kolonowskie","state_id":1622,"state_code":"OP","country_id":176,"country_code":"PL","latitude":"50.65338000","longitude":"18.38493000"},{"id":"86688","name":"Komprachcice","state_id":1622,"state_code":"OP","country_id":176,"country_code":"PL","latitude":"50.63678000","longitude":"17.82635000"},{"id":"86703","name":"Korfant\u00f3w","state_id":1622,"state_code":"OP","country_id":176,"country_code":"PL","latitude":"50.48894000","longitude":"17.59898000"},{"id":"86766","name":"Krapkowice","state_id":1622,"state_code":"OP","country_id":176,"country_code":"PL","latitude":"50.47515000","longitude":"17.96539000"},{"id":"86840","name":"Kup","state_id":1622,"state_code":"OP","country_id":176,"country_code":"PL","latitude":"50.80659000","longitude":"17.88351000"},{"id":"86892","name":"Lesnica","state_id":1622,"state_code":"OP","country_id":176,"country_code":"PL","latitude":"50.43083000","longitude":"18.18684000"},{"id":"86885","name":"Lewin Brzeski","state_id":1622,"state_code":"OP","country_id":176,"country_code":"PL","latitude":"50.74870000","longitude":"17.61688000"},{"id":"86959","name":"Lubrza","state_id":1622,"state_code":"OP","country_id":176,"country_code":"PL","latitude":"50.33631000","longitude":"17.62636000"},{"id":"86961","name":"Lubsza","state_id":1622,"state_code":"OP","country_id":176,"country_code":"PL","latitude":"50.91591000","longitude":"17.52173000"},{"id":"87097","name":"Moszczanka","state_id":1622,"state_code":"OP","country_id":176,"country_code":"PL","latitude":"50.30020000","longitude":"17.49109000"},{"id":"87114","name":"Mur\u00f3w","state_id":1622,"state_code":"OP","country_id":176,"country_code":"PL","latitude":"50.86307000","longitude":"17.94557000"},{"id":"87134","name":"Naklo","state_id":1622,"state_code":"OP","country_id":176,"country_code":"PL","latitude":"50.57975000","longitude":"18.11817000"},{"id":"87136","name":"Namysl\u00f3w","state_id":1622,"state_code":"OP","country_id":176,"country_code":"PL","latitude":"51.07592000","longitude":"17.72284000"},{"id":"87164","name":"Niemodlin","state_id":1622,"state_code":"OP","country_id":176,"country_code":"PL","latitude":"50.64200000","longitude":"17.61932000"},{"id":"87214","name":"Nysa","state_id":1622,"state_code":"OP","country_id":176,"country_code":"PL","latitude":"50.47379000","longitude":"17.33437000"},{"id":"87238","name":"Olesno","state_id":1622,"state_code":"OP","country_id":176,"country_code":"PL","latitude":"50.87698000","longitude":"18.42094000"},{"id":"87246","name":"Olszanka","state_id":1622,"state_code":"OP","country_id":176,"country_code":"PL","latitude":"50.79514000","longitude":"17.47890000"},{"id":"87262","name":"Opole","state_id":1622,"state_code":"OP","country_id":176,"country_code":"PL","latitude":"50.67211000","longitude":"17.92533000"},{"id":"87315","name":"Otmuch\u00f3w","state_id":1622,"state_code":"OP","country_id":176,"country_code":"PL","latitude":"50.46627000","longitude":"17.17348000"},{"id":"87320","name":"Ozimek","state_id":1622,"state_code":"OP","country_id":176,"country_code":"PL","latitude":"50.67944000","longitude":"18.21370000"},{"id":"87333","name":"Paczk\u00f3w","state_id":1622,"state_code":"OP","country_id":176,"country_code":"PL","latitude":"50.46395000","longitude":"17.00658000"},{"id":"87337","name":"Pakoslawice","state_id":1622,"state_code":"OP","country_id":176,"country_code":"PL","latitude":"50.54474000","longitude":"17.36578000"},{"id":"87359","name":"Pawlowiczki","state_id":1622,"state_code":"OP","country_id":176,"country_code":"PL","latitude":"50.24660000","longitude":"18.04865000"},{"id":"87429","name":"Pok\u00f3j","state_id":1622,"state_code":"OP","country_id":176,"country_code":"PL","latitude":"50.90265000","longitude":"17.83751000"},{"id":"87437","name":"Polska Cerekiew","state_id":1622,"state_code":"OP","country_id":176,"country_code":"PL","latitude":"50.22827000","longitude":"18.12675000"},{"id":"87442","name":"Popiel\u00f3w","state_id":1622,"state_code":"OP","country_id":176,"country_code":"PL","latitude":"50.82632000","longitude":"17.74378000"},{"id":"87475","name":"Powiat brzeski","state_id":1622,"state_code":"OP","country_id":176,"country_code":"PL","latitude":"50.78930000","longitude":"17.48499000"},{"id":"87521","name":"Powiat glubczycki","state_id":1622,"state_code":"OP","country_id":176,"country_code":"PL","latitude":"50.14846000","longitude":"17.83266000"},{"id":"87559","name":"Powiat kedzierzynsko-kozielski","state_id":1622,"state_code":"OP","country_id":176,"country_code":"PL","latitude":"50.29384000","longitude":"18.16961000"},{"id":"87539","name":"Powiat kluczborski","state_id":1622,"state_code":"OP","country_id":176,"country_code":"PL","latitude":"50.98576000","longitude":"18.15258000"},{"id":"87551","name":"Powiat krapkowicki","state_id":1622,"state_code":"OP","country_id":176,"country_code":"PL","latitude":"50.45263000","longitude":"17.95768000"},{"id":"87598","name":"Powiat namyslowski","state_id":1622,"state_code":"OP","country_id":176,"country_code":"PL","latitude":"51.01628000","longitude":"17.76304000"},{"id":"87608","name":"Powiat nyski","state_id":1622,"state_code":"OP","country_id":176,"country_code":"PL","latitude":"50.46054000","longitude":"17.33546000"},{"id":"87611","name":"Powiat oleski","state_id":1622,"state_code":"OP","country_id":176,"country_code":"PL","latitude":"50.87887000","longitude":"18.46037000"},{"id":"87618","name":"Powiat opolski","state_id":1622,"state_code":"OP","country_id":176,"country_code":"PL","latitude":"50.73689000","longitude":"17.98462000"},{"id":"87642","name":"Powiat prudnicki","state_id":1622,"state_code":"OP","country_id":176,"country_code":"PL","latitude":"50.40981000","longitude":"17.73995000"},{"id":"87684","name":"Powiat strzelecki","state_id":1622,"state_code":"OP","country_id":176,"country_code":"PL","latitude":"50.53057000","longitude":"18.34597000"},{"id":"87787","name":"Praszka","state_id":1622,"state_code":"OP","country_id":176,"country_code":"PL","latitude":"51.05375000","longitude":"18.45317000"},{"id":"87837","name":"Pr\u00f3szk\u00f3w","state_id":1622,"state_code":"OP","country_id":176,"country_code":"PL","latitude":"50.57670000","longitude":"17.87143000"},{"id":"87795","name":"Prudnik","state_id":1622,"state_code":"OP","country_id":176,"country_code":"PL","latitude":"50.32124000","longitude":"17.57461000"},{"id":"87878","name":"Raclawice Slaskie","state_id":1622,"state_code":"OP","country_id":176,"country_code":"PL","latitude":"50.31204000","longitude":"17.77528000"},{"id":"87915","name":"Raszowa","state_id":1622,"state_code":"OP","country_id":176,"country_code":"PL","latitude":"50.39779000","longitude":"18.17722000"},{"id":"87941","name":"Renska Wies","state_id":1622,"state_code":"OP","country_id":176,"country_code":"PL","latitude":"50.31587000","longitude":"18.12607000"},{"id":"87967","name":"Rozwadza","state_id":1622,"state_code":"OP","country_id":176,"country_code":"PL","latitude":"50.43493000","longitude":"18.09980000"},{"id":"88336","name":"Slawiecice","state_id":1622,"state_code":"OP","country_id":176,"country_code":"PL","latitude":"50.37207000","longitude":"18.32176000"},{"id":"88062","name":"Sidzina","state_id":1622,"state_code":"OP","country_id":176,"country_code":"PL","latitude":"50.57375000","longitude":"17.44904000"},{"id":"88097","name":"Skarbimierz Osiedle","state_id":1622,"state_code":"OP","country_id":176,"country_code":"PL","latitude":"50.84584000","longitude":"17.41865000"},{"id":"88112","name":"Skorogoszcz","state_id":1622,"state_code":"OP","country_id":176,"country_code":"PL","latitude":"50.75916000","longitude":"17.68198000"},{"id":"88113","name":"Skoroszyce","state_id":1622,"state_code":"OP","country_id":176,"country_code":"PL","latitude":"50.59648000","longitude":"17.38243000"},{"id":"88228","name":"Strzelce Opolskie","state_id":1622,"state_code":"OP","country_id":176,"country_code":"PL","latitude":"50.51070000","longitude":"18.30056000"},{"id":"88230","name":"Strzeleczki","state_id":1622,"state_code":"OP","country_id":176,"country_code":"PL","latitude":"50.46215000","longitude":"17.85665000"},{"id":"88366","name":"Tarn\u00f3w Opolski","state_id":1622,"state_code":"OP","country_id":176,"country_code":"PL","latitude":"50.57631000","longitude":"18.08367000"},{"id":"88430","name":"Tulowice","state_id":1622,"state_code":"OP","country_id":176,"country_code":"PL","latitude":"50.59577000","longitude":"17.65323000"},{"id":"88431","name":"Twardawa","state_id":1622,"state_code":"OP","country_id":176,"country_code":"PL","latitude":"50.34349000","longitude":"17.99097000"},{"id":"88450","name":"Ujazd","state_id":1622,"state_code":"OP","country_id":176,"country_code":"PL","latitude":"50.38938000","longitude":"18.34929000"},{"id":"88473","name":"Walce","state_id":1622,"state_code":"OP","country_id":176,"country_code":"PL","latitude":"50.37322000","longitude":"18.00427000"},{"id":"88643","name":"Wegry","state_id":1622,"state_code":"OP","country_id":176,"country_code":"PL","latitude":"50.74319000","longitude":"18.01741000"},{"id":"88558","name":"Wiekszyce","state_id":1622,"state_code":"OP","country_id":176,"country_code":"PL","latitude":"50.33659000","longitude":"18.10221000"},{"id":"88542","name":"Wilk\u00f3w","state_id":1622,"state_code":"OP","country_id":176,"country_code":"PL","latitude":"51.10158000","longitude":"17.66284000"},{"id":"88598","name":"Wolczyn","state_id":1622,"state_code":"OP","country_id":176,"country_code":"PL","latitude":"51.01845000","longitude":"18.04994000"},{"id":"88701","name":"Zawadzkie","state_id":1622,"state_code":"OP","country_id":176,"country_code":"PL","latitude":"50.60503000","longitude":"18.48467000"},{"id":"88740","name":"Zebowice","state_id":1622,"state_code":"OP","country_id":176,"country_code":"PL","latitude":"50.76290000","longitude":"18.34434000"},{"id":"88719","name":"Zdzieszowice","state_id":1622,"state_code":"OP","country_id":176,"country_code":"PL","latitude":"50.42482000","longitude":"18.12349000"}]