[{"id":"88830","name":"Slemien","state_id":1623,"state_code":"SL","country_id":176,"country_code":"PL","latitude":"49.71826000","longitude":"19.36735000"},{"id":"88867","name":"Swietochlowice","state_id":1623,"state_code":"SL","country_id":176,"country_code":"PL","latitude":"50.29636000","longitude":"18.91726000"},{"id":"88854","name":"Swierklaniec","state_id":1623,"state_code":"SL","country_id":176,"country_code":"PL","latitude":"50.44237000","longitude":"18.93734000"},{"id":"88855","name":"Swierklany Dolne","state_id":1623,"state_code":"SL","country_id":176,"country_code":"PL","latitude":"50.01827000","longitude":"18.57702000"},{"id":"88856","name":"Swierklany G\u00f3rne","state_id":1623,"state_code":"SL","country_id":176,"country_code":"PL","latitude":"50.02765000","longitude":"18.59050000"},{"id":"88861","name":"Swinna","state_id":1623,"state_code":"SL","country_id":176,"country_code":"PL","latitude":"49.65802000","longitude":"19.25406000"},{"id":"88774","name":"Laziska","state_id":1623,"state_code":"SL","country_id":176,"country_code":"PL","latitude":"49.93570000","longitude":"18.44707000"},{"id":"88775","name":"Laziska G\u00f3rne","state_id":1623,"state_code":"SL","country_id":176,"country_code":"PL","latitude":"50.14952000","longitude":"18.84215000"},{"id":"88776","name":"Lazy","state_id":1623,"state_code":"SL","country_id":176,"country_code":"PL","latitude":"50.42769000","longitude":"19.39465000"},{"id":"88821","name":"Lekawica","state_id":1623,"state_code":"SL","country_id":176,"country_code":"PL","latitude":"49.72209000","longitude":"19.26496000"},{"id":"88780","name":"Lobodno","state_id":1623,"state_code":"SL","country_id":176,"country_code":"PL","latitude":"50.93079000","longitude":"18.99090000"},{"id":"88783","name":"Lodygowice","state_id":1623,"state_code":"SL","country_id":176,"country_code":"PL","latitude":"49.72992000","longitude":"19.13939000"},{"id":"88870","name":"Zabnica","state_id":1623,"state_code":"SL","country_id":176,"country_code":"PL","latitude":"49.58139000","longitude":"19.15621000"},{"id":"88873","name":"Zarki","state_id":1623,"state_code":"SL","country_id":176,"country_code":"PL","latitude":"50.62518000","longitude":"19.36357000"},{"id":"88875","name":"Zarki-Letnisko","state_id":1623,"state_code":"SL","country_id":176,"country_code":"PL","latitude":"50.62295000","longitude":"19.27508000"},{"id":"88885","name":"Zernica","state_id":1623,"state_code":"SL","country_id":176,"country_code":"PL","latitude":"50.24770000","longitude":"18.61547000"},{"id":"88890","name":"Zory","state_id":1623,"state_code":"SL","country_id":176,"country_code":"PL","latitude":"50.04523000","longitude":"18.70062000"},{"id":"88901","name":"Zywiec","state_id":1623,"state_code":"SL","country_id":176,"country_code":"PL","latitude":"49.68529000","longitude":"19.19243000"},{"id":"85821","name":"Bazanowice","state_id":1623,"state_code":"SL","country_id":176,"country_code":"PL","latitude":"49.73791000","longitude":"18.70345000"},{"id":"86009","name":"Bak\u00f3w","state_id":1623,"state_code":"SL","country_id":176,"country_code":"PL","latitude":"49.89342000","longitude":"18.71495000"},{"id":"86013","name":"Bedzin","state_id":1623,"state_code":"SL","country_id":176,"country_code":"PL","latitude":"50.32607000","longitude":"19.12565000"},{"id":"85829","name":"Belk","state_id":1623,"state_code":"SL","country_id":176,"country_code":"PL","latitude":"50.13048000","longitude":"18.71667000"},{"id":"85830","name":"Belsznica","state_id":1623,"state_code":"SL","country_id":176,"country_code":"PL","latitude":"49.97811000","longitude":"18.36313000"},{"id":"85826","name":"Bestwina","state_id":1623,"state_code":"SL","country_id":176,"country_code":"PL","latitude":"49.89712000","longitude":"19.05776000"},{"id":"85827","name":"Bestwinka","state_id":1623,"state_code":"SL","country_id":176,"country_code":"PL","latitude":"49.93272000","longitude":"19.06694000"},{"id":"85862","name":"Bielsko-Biala","state_id":1623,"state_code":"SL","country_id":176,"country_code":"PL","latitude":"49.81204000","longitude":"19.03899000"},{"id":"85861","name":"Bielsko-Biala","state_id":1623,"state_code":"SL","country_id":176,"country_code":"PL","latitude":"49.82245000","longitude":"19.04686000"},{"id":"85867","name":"Bierun","state_id":1623,"state_code":"SL","country_id":176,"country_code":"PL","latitude":"50.09000000","longitude":"19.09291000"},{"id":"85879","name":"Blachownia","state_id":1623,"state_code":"SL","country_id":176,"country_code":"PL","latitude":"50.78015000","longitude":"18.96389000"},{"id":"85890","name":"Bobrowniki","state_id":1623,"state_code":"SL","country_id":176,"country_code":"PL","latitude":"50.37985000","longitude":"18.98661000"},{"id":"85906","name":"Bojszowy","state_id":1623,"state_code":"SL","country_id":176,"country_code":"PL","latitude":"50.05780000","longitude":"19.10145000"},{"id":"85907","name":"Bojszowy Nowe","state_id":1623,"state_code":"SL","country_id":176,"country_code":"PL","latitude":"50.05284000","longitude":"19.05012000"},{"id":"85923","name":"Boron\u00f3w","state_id":1623,"state_code":"SL","country_id":176,"country_code":"PL","latitude":"50.67460000","longitude":"18.90678000"},{"id":"85926","name":"Borowno","state_id":1623,"state_code":"SL","country_id":176,"country_code":"PL","latitude":"50.93247000","longitude":"19.27380000"},{"id":"85927","name":"Borucin","state_id":1623,"state_code":"SL","country_id":176,"country_code":"PL","latitude":"50.00763000","longitude":"18.15748000"},{"id":"85940","name":"Brenna","state_id":1623,"state_code":"SL","country_id":176,"country_code":"PL","latitude":"49.72576000","longitude":"18.90249000"},{"id":"85953","name":"Bron\u00f3w","state_id":1623,"state_code":"SL","country_id":176,"country_code":"PL","latitude":"49.87782000","longitude":"18.92103000"},{"id":"85965","name":"Brzeziny Slaskie","state_id":1623,"state_code":"SL","country_id":176,"country_code":"PL","latitude":"50.35439000","longitude":"18.98129000"},{"id":"85982","name":"Buczkowice","state_id":1623,"state_code":"SL","country_id":176,"country_code":"PL","latitude":"49.72858000","longitude":"19.06908000"},{"id":"85987","name":"Bujak\u00f3w","state_id":1623,"state_code":"SL","country_id":176,"country_code":"PL","latitude":"49.85182000","longitude":"19.19432000"},{"id":"86001","name":"Bystra","state_id":1623,"state_code":"SL","country_id":176,"country_code":"PL","latitude":"49.76042000","longitude":"19.05973000"},{"id":"86005","name":"Bytom","state_id":1623,"state_code":"SL","country_id":176,"country_code":"PL","latitude":"50.34802000","longitude":"18.93282000"},{"id":"86026","name":"Chalupki","state_id":1623,"state_code":"SL","country_id":176,"country_code":"PL","latitude":"49.92559000","longitude":"18.31730000"},{"id":"86028","name":"Chelm Slaski","state_id":1623,"state_code":"SL","country_id":176,"country_code":"PL","latitude":"50.10825000","longitude":"19.19552000"},{"id":"86053","name":"Choron","state_id":1623,"state_code":"SL","country_id":176,"country_code":"PL","latitude":"50.68178000","longitude":"19.26058000"},{"id":"86055","name":"Chorz\u00f3w","state_id":1623,"state_code":"SL","country_id":176,"country_code":"PL","latitude":"50.30582000","longitude":"18.97420000"},{"id":"86060","name":"Chruszczobr\u00f3d","state_id":1623,"state_code":"SL","country_id":176,"country_code":"PL","latitude":"50.41470000","longitude":"19.32718000"},{"id":"86069","name":"Chybie","state_id":1623,"state_code":"SL","country_id":176,"country_code":"PL","latitude":"49.90249000","longitude":"18.82756000"},{"id":"86075","name":"Ciasna","state_id":1623,"state_code":"SL","country_id":176,"country_code":"PL","latitude":"50.75427000","longitude":"18.60835000"},{"id":"86093","name":"Ciecina","state_id":1623,"state_code":"SL","country_id":176,"country_code":"PL","latitude":"49.60220000","longitude":"19.14102000"},{"id":"86081","name":"Cielmice","state_id":1623,"state_code":"SL","country_id":176,"country_code":"PL","latitude":"50.08826000","longitude":"19.01896000"},{"id":"86088","name":"Cieszyn","state_id":1623,"state_code":"SL","country_id":176,"country_code":"PL","latitude":"49.75133000","longitude":"18.63213000"},{"id":"86090","name":"Cisiec","state_id":1623,"state_code":"SL","country_id":176,"country_code":"PL","latitude":"49.59213000","longitude":"19.10540000"},{"id":"86092","name":"Cisownica","state_id":1623,"state_code":"SL","country_id":176,"country_code":"PL","latitude":"49.72276000","longitude":"18.76207000"},{"id":"86098","name":"Cynk\u00f3w","state_id":1623,"state_code":"SL","country_id":176,"country_code":"PL","latitude":"50.56203000","longitude":"19.11956000"},{"id":"86100","name":"Czaniec","state_id":1623,"state_code":"SL","country_id":176,"country_code":"PL","latitude":"49.85071000","longitude":"19.25354000"},{"id":"86103","name":"Czark\u00f3w","state_id":1623,"state_code":"SL","country_id":176,"country_code":"PL","latitude":"50.01833000","longitude":"18.90678000"},{"id":"86150","name":"Czestochowa","state_id":1623,"state_code":"SL","country_id":176,"country_code":"PL","latitude":"50.79646000","longitude":"19.12409000"},{"id":"86122","name":"Czechowice-Dziedzice","state_id":1623,"state_code":"SL","country_id":176,"country_code":"PL","latitude":"49.91342000","longitude":"19.00479000"},{"id":"86123","name":"Czeladz","state_id":1623,"state_code":"SL","country_id":176,"country_code":"PL","latitude":"50.31542000","longitude":"19.07824000"},{"id":"86130","name":"Czernica","state_id":1623,"state_code":"SL","country_id":176,"country_code":"PL","latitude":"50.08391000","longitude":"18.40068000"},{"id":"86132","name":"Czernich\u00f3w","state_id":1623,"state_code":"SL","country_id":176,"country_code":"PL","latitude":"49.75443000","longitude":"19.20947000"},{"id":"86141","name":"Czerwionka-Leszczyny","state_id":1623,"state_code":"SL","country_id":176,"country_code":"PL","latitude":"50.15007000","longitude":"18.67762000"},{"id":"86149","name":"Czyzowice","state_id":1623,"state_code":"SL","country_id":176,"country_code":"PL","latitude":"49.98490000","longitude":"18.40433000"},{"id":"86240","name":"Dabrowa G\u00f3rnicza","state_id":1623,"state_code":"SL","country_id":176,"country_code":"PL","latitude":"50.33394000","longitude":"19.20479000"},{"id":"86242","name":"Dabrowa Zielona","state_id":1623,"state_code":"SL","country_id":176,"country_code":"PL","latitude":"50.84394000","longitude":"19.55652000"},{"id":"86256","name":"Debowiec","state_id":1623,"state_code":"SL","country_id":176,"country_code":"PL","latitude":"49.81406000","longitude":"18.72062000"},{"id":"86166","name":"Dobieszowice","state_id":1623,"state_code":"SL","country_id":176,"country_code":"PL","latitude":"50.39697000","longitude":"19.01304000"},{"id":"86199","name":"Drogomysl","state_id":1623,"state_code":"SL","country_id":176,"country_code":"PL","latitude":"49.86964000","longitude":"18.75727000"},{"id":"86231","name":"Dziegiel\u00f3w","state_id":1623,"state_code":"SL","country_id":176,"country_code":"PL","latitude":"49.72259000","longitude":"18.70491000"},{"id":"86276","name":"Frydek","state_id":1623,"state_code":"SL","country_id":176,"country_code":"PL","latitude":"49.99626000","longitude":"19.07278000"},{"id":"86284","name":"Gardawice","state_id":1623,"state_code":"SL","country_id":176,"country_code":"PL","latitude":"50.11667000","longitude":"18.80000000"},{"id":"86287","name":"Gaszowice","state_id":1623,"state_code":"SL","country_id":176,"country_code":"PL","latitude":"50.10858000","longitude":"18.43042000"},{"id":"86409","name":"G\u00f3ra","state_id":1623,"state_code":"SL","country_id":176,"country_code":"PL","latitude":"49.97971000","longitude":"19.10471000"},{"id":"86414","name":"G\u00f3rki Wielkie","state_id":1623,"state_code":"SL","country_id":176,"country_code":"PL","latitude":"49.77971000","longitude":"18.83117000"},{"id":"86299","name":"Gieraltowice","state_id":1623,"state_code":"SL","country_id":176,"country_code":"PL","latitude":"50.22486000","longitude":"18.73384000"},{"id":"86303","name":"Gilowice","state_id":1623,"state_code":"SL","country_id":176,"country_code":"PL","latitude":"49.99505000","longitude":"19.09613000"},{"id":"86307","name":"Gliwice","state_id":1623,"state_code":"SL","country_id":176,"country_code":"PL","latitude":"50.29761000","longitude":"18.67658000"},{"id":"86308","name":"Gniazd\u00f3w","state_id":1623,"state_code":"SL","country_id":176,"country_code":"PL","latitude":"50.59621000","longitude":"19.11132000"},{"id":"86356","name":"Golkowice","state_id":1623,"state_code":"SL","country_id":176,"country_code":"PL","latitude":"49.91418000","longitude":"18.51419000"},{"id":"86317","name":"Goczalkowice Zdr\u00f3j","state_id":1623,"state_code":"SL","country_id":176,"country_code":"PL","latitude":"49.94454000","longitude":"18.96927000"},{"id":"86322","name":"God\u00f3w","state_id":1623,"state_code":"SL","country_id":176,"country_code":"PL","latitude":"49.92481000","longitude":"18.47830000"},{"id":"86319","name":"Godziszka","state_id":1623,"state_code":"SL","country_id":176,"country_code":"PL","latitude":"49.71288000","longitude":"19.07587000"},{"id":"86327","name":"Golesz\u00f3w","state_id":1623,"state_code":"SL","country_id":176,"country_code":"PL","latitude":"49.73580000","longitude":"18.73675000"},{"id":"86339","name":"Gorzyce","state_id":1623,"state_code":"SL","country_id":176,"country_code":"PL","latitude":"49.95945000","longitude":"18.39884000"},{"id":"86341","name":"Gorzyczki","state_id":1623,"state_code":"SL","country_id":176,"country_code":"PL","latitude":"49.94912000","longitude":"18.40330000"},{"id":"86346","name":"Gostyn","state_id":1623,"state_code":"SL","country_id":176,"country_code":"PL","latitude":"50.10528000","longitude":"18.88241000"},{"id":"86445","name":"Hazlach","state_id":1623,"state_code":"SL","country_id":176,"country_code":"PL","latitude":"49.80714000","longitude":"18.65178000"},{"id":"86448","name":"Herby","state_id":1623,"state_code":"SL","country_id":176,"country_code":"PL","latitude":"50.75318000","longitude":"18.88756000"},{"id":"86455","name":"Huta Stara B","state_id":1623,"state_code":"SL","country_id":176,"country_code":"PL","latitude":"50.73792000","longitude":"19.13295000"},{"id":"86457","name":"Imielin","state_id":1623,"state_code":"SL","country_id":176,"country_code":"PL","latitude":"50.14534000","longitude":"19.18599000"},{"id":"86462","name":"Istebna","state_id":1623,"state_code":"SL","country_id":176,"country_code":"PL","latitude":"49.56319000","longitude":"18.90567000"},{"id":"86494","name":"Jankowice","state_id":1623,"state_code":"SL","country_id":176,"country_code":"PL","latitude":"50.00090000","longitude":"18.98901000"},{"id":"86495","name":"Jankowice Rybnickie","state_id":1623,"state_code":"SL","country_id":176,"country_code":"PL","latitude":"50.04479000","longitude":"18.54707000"},{"id":"86498","name":"Janowice","state_id":1623,"state_code":"SL","country_id":176,"country_code":"PL","latitude":"49.88496000","longitude":"19.09376000"},{"id":"86514","name":"Jasienica","state_id":1623,"state_code":"SL","country_id":176,"country_code":"PL","latitude":"49.81312000","longitude":"18.92155000"},{"id":"86524","name":"Jastrzab","state_id":1623,"state_code":"SL","country_id":176,"country_code":"PL","latitude":"50.67019000","longitude":"19.18170000"},{"id":"86528","name":"Jastrzebie Zdr\u00f3j","state_id":1623,"state_code":"SL","country_id":176,"country_code":"PL","latitude":"49.95542000","longitude":"18.57479000"},{"id":"86529","name":"Jastrzebie-Zdr\u00f3j","state_id":1623,"state_code":"SL","country_id":176,"country_code":"PL","latitude":"49.96063000","longitude":"18.60053000"},{"id":"86535","name":"Jaworze","state_id":1623,"state_code":"SL","country_id":176,"country_code":"PL","latitude":"49.79351000","longitude":"18.94790000"},{"id":"86536","name":"Jaworzno","state_id":1623,"state_code":"SL","country_id":176,"country_code":"PL","latitude":"50.20528000","longitude":"19.27498000"},{"id":"86538","name":"Jaworzynka","state_id":1623,"state_code":"SL","country_id":176,"country_code":"PL","latitude":"49.54019000","longitude":"18.86996000"},{"id":"86547","name":"Jejkowice","state_id":1623,"state_code":"SL","country_id":176,"country_code":"PL","latitude":"50.10814000","longitude":"18.46767000"},{"id":"86551","name":"Jelesnia","state_id":1623,"state_code":"SL","country_id":176,"country_code":"PL","latitude":"49.64246000","longitude":"19.32701000"},{"id":"86572","name":"Juszczyna","state_id":1623,"state_code":"SL","country_id":176,"country_code":"PL","latitude":"49.62984000","longitude":"19.22032000"},{"id":"86581","name":"Kaczyce","state_id":1623,"state_code":"SL","country_id":176,"country_code":"PL","latitude":"49.82752000","longitude":"18.59161000"},{"id":"86583","name":"Kalej","state_id":1623,"state_code":"SL","country_id":176,"country_code":"PL","latitude":"50.83662000","longitude":"18.98429000"},{"id":"86584","name":"Kalety","state_id":1623,"state_code":"SL","country_id":176,"country_code":"PL","latitude":"50.56270000","longitude":"18.89260000"},{"id":"86589","name":"Kamesznica","state_id":1623,"state_code":"SL","country_id":176,"country_code":"PL","latitude":"49.56469000","longitude":"19.02120000"},{"id":"86592","name":"Kamienica Polska","state_id":1623,"state_code":"SL","country_id":176,"country_code":"PL","latitude":"50.67090000","longitude":"19.12265000"},{"id":"86606","name":"Kamyk","state_id":1623,"state_code":"SL","country_id":176,"country_code":"PL","latitude":"50.90179000","longitude":"19.02875000"},{"id":"86608","name":"Kani\u00f3w","state_id":1623,"state_code":"SL","country_id":176,"country_code":"PL","latitude":"49.94316000","longitude":"19.05098000"},{"id":"86621","name":"Katowice","state_id":1623,"state_code":"SL","country_id":176,"country_code":"PL","latitude":"50.25841000","longitude":"19.02754000"},{"id":"86862","name":"Klobuck","state_id":1623,"state_code":"SL","country_id":176,"country_code":"PL","latitude":"50.90081000","longitude":"18.93674000"},{"id":"86867","name":"Klomnice","state_id":1623,"state_code":"SL","country_id":176,"country_code":"PL","latitude":"50.92165000","longitude":"19.35679000"},{"id":"86658","name":"Knur\u00f3w","state_id":1623,"state_code":"SL","country_id":176,"country_code":"PL","latitude":"50.21971000","longitude":"18.65067000"},{"id":"86748","name":"Konczyce Male","state_id":1623,"state_code":"SL","country_id":176,"country_code":"PL","latitude":"49.85824000","longitude":"18.62964000"},{"id":"86749","name":"Konczyce Wielkie","state_id":1623,"state_code":"SL","country_id":176,"country_code":"PL","latitude":"49.83510000","longitude":"18.64474000"},{"id":"86753","name":"Koscielec","state_id":1623,"state_code":"SL","country_id":176,"country_code":"PL","latitude":"50.89713000","longitude":"19.21560000"},{"id":"86662","name":"Kobi\u00f3r","state_id":1623,"state_code":"SL","country_id":176,"country_code":"PL","latitude":"50.06089000","longitude":"18.93468000"},{"id":"86660","name":"Kobiernice","state_id":1623,"state_code":"SL","country_id":176,"country_code":"PL","latitude":"49.85497000","longitude":"19.21646000"},{"id":"86670","name":"Kochanowice","state_id":1623,"state_code":"SL","country_id":176,"country_code":"PL","latitude":"50.70548000","longitude":"18.74911000"},{"id":"86690","name":"Koniak\u00f3w","state_id":1623,"state_code":"SL","country_id":176,"country_code":"PL","latitude":"49.55066000","longitude":"18.94910000"},{"id":"86691","name":"Koniecpol","state_id":1623,"state_code":"SL","country_id":176,"country_code":"PL","latitude":"50.77468000","longitude":"19.68896000"},{"id":"86694","name":"Konopiska","state_id":1623,"state_code":"SL","country_id":176,"country_code":"PL","latitude":"50.72695000","longitude":"19.00781000"},{"id":"86700","name":"Korbiel\u00f3w","state_id":1623,"state_code":"SL","country_id":176,"country_code":"PL","latitude":"49.56820000","longitude":"19.35001000"},{"id":"86704","name":"Kornowac","state_id":1623,"state_code":"SL","country_id":176,"country_code":"PL","latitude":"50.07179000","longitude":"18.32846000"},{"id":"86717","name":"Koszarawa","state_id":1623,"state_code":"SL","country_id":176,"country_code":"PL","latitude":"49.64462000","longitude":"19.40083000"},{"id":"86720","name":"Koszecin","state_id":1623,"state_code":"SL","country_id":176,"country_code":"PL","latitude":"50.63411000","longitude":"18.84130000"},{"id":"86734","name":"Kozieglowy","state_id":1623,"state_code":"SL","country_id":176,"country_code":"PL","latitude":"50.60035000","longitude":"19.16299000"},{"id":"86737","name":"Kozy","state_id":1623,"state_code":"SL","country_id":176,"country_code":"PL","latitude":"49.84756000","longitude":"19.14891000"},{"id":"86780","name":"Kroczyce","state_id":1623,"state_code":"SL","country_id":176,"country_code":"PL","latitude":"50.56176000","longitude":"19.57000000"},{"id":"86792","name":"Krupski Mlyn","state_id":1623,"state_code":"SL","country_id":176,"country_code":"PL","latitude":"50.57337000","longitude":"18.62251000"},{"id":"86798","name":"Kryry","state_id":1623,"state_code":"SL","country_id":176,"country_code":"PL","latitude":"50.01667000","longitude":"18.80568000"},{"id":"86800","name":"Krzanowice","state_id":1623,"state_code":"SL","country_id":176,"country_code":"PL","latitude":"50.01822000","longitude":"18.12251000"},{"id":"86807","name":"Krzepice","state_id":1623,"state_code":"SL","country_id":176,"country_code":"PL","latitude":"50.97059000","longitude":"18.72886000"},{"id":"86822","name":"Krzyzanowice","state_id":1623,"state_code":"SL","country_id":176,"country_code":"PL","latitude":"49.98247000","longitude":"18.26846000"},{"id":"86824","name":"Krzyzowa","state_id":1623,"state_code":"SL","country_id":176,"country_code":"PL","latitude":"49.59235000","longitude":"19.34469000"},{"id":"86825","name":"Krzyzowice","state_id":1623,"state_code":"SL","country_id":176,"country_code":"PL","latitude":"49.98528000","longitude":"18.67281000"},{"id":"86830","name":"Ksiazenice","state_id":1623,"state_code":"SL","country_id":176,"country_code":"PL","latitude":"50.15524000","longitude":"18.59925000"},{"id":"86846","name":"Kuznia Raciborska","state_id":1623,"state_code":"SL","country_id":176,"country_code":"PL","latitude":"50.20058000","longitude":"18.31146000"},{"id":"86869","name":"Laliki","state_id":1623,"state_code":"SL","country_id":176,"country_code":"PL","latitude":"49.53446000","longitude":"19.00549000"},{"id":"86979","name":"Ledziny","state_id":1623,"state_code":"SL","country_id":176,"country_code":"PL","latitude":"50.14264000","longitude":"19.13149000"},{"id":"86888","name":"Lesna","state_id":1623,"state_code":"SL","country_id":176,"country_code":"PL","latitude":"49.67041000","longitude":"19.12763000"},{"id":"86880","name":"Lel\u00f3w","state_id":1623,"state_code":"SL","country_id":176,"country_code":"PL","latitude":"50.68335000","longitude":"19.62562000"},{"id":"86901","name":"Ligota","state_id":1623,"state_code":"SL","country_id":176,"country_code":"PL","latitude":"49.89856000","longitude":"18.95090000"},{"id":"86907","name":"Lipie","state_id":1623,"state_code":"SL","country_id":176,"country_code":"PL","latitude":"51.01257000","longitude":"18.79658000"},{"id":"86919","name":"Lipowa","state_id":1623,"state_code":"SL","country_id":176,"country_code":"PL","latitude":"49.67574000","longitude":"19.09398000"},{"id":"86948","name":"Lubliniec","state_id":1623,"state_code":"SL","country_id":176,"country_code":"PL","latitude":"50.66897000","longitude":"18.68440000"},{"id":"86951","name":"Lubomia","state_id":1623,"state_code":"SL","country_id":176,"country_code":"PL","latitude":"50.03972000","longitude":"18.30820000"},{"id":"86975","name":"Lyski","state_id":1623,"state_code":"SL","country_id":176,"country_code":"PL","latitude":"50.11992000","longitude":"18.39146000"},{"id":"86997","name":"Marklowice","state_id":1623,"state_code":"SL","country_id":176,"country_code":"PL","latitude":"50.01695000","longitude":"18.52098000"},{"id":"87004","name":"Mazancowice","state_id":1623,"state_code":"SL","country_id":176,"country_code":"PL","latitude":"49.85802000","longitude":"18.97708000"},{"id":"87016","name":"Miasteczko Slaskie","state_id":1623,"state_code":"SL","country_id":176,"country_code":"PL","latitude":"50.50262000","longitude":"18.93949000"},{"id":"87059","name":"Miedzybrodzie Bialskie","state_id":1623,"state_code":"SL","country_id":176,"country_code":"PL","latitude":"49.78747000","longitude":"19.19741000"},{"id":"87032","name":"Miedzna","state_id":1623,"state_code":"SL","country_id":176,"country_code":"PL","latitude":"49.98225000","longitude":"19.04883000"},{"id":"87031","name":"Miedzno","state_id":1623,"state_code":"SL","country_id":176,"country_code":"PL","latitude":"50.96994000","longitude":"18.98111000"},{"id":"87039","name":"Mierzecice","state_id":1623,"state_code":"SL","country_id":176,"country_code":"PL","latitude":"50.44504000","longitude":"19.12934000"},{"id":"87044","name":"Mikol\u00f3w","state_id":1623,"state_code":"SL","country_id":176,"country_code":"PL","latitude":"50.17103000","longitude":"18.90410000"},{"id":"87051","name":"Mil\u00f3wka","state_id":1623,"state_code":"SL","country_id":176,"country_code":"PL","latitude":"49.55540000","longitude":"19.09072000"},{"id":"87076","name":"Mnich","state_id":1623,"state_code":"SL","country_id":176,"country_code":"PL","latitude":"49.88944000","longitude":"18.80722000"},{"id":"87107","name":"Mst\u00f3w","state_id":1623,"state_code":"SL","country_id":176,"country_code":"PL","latitude":"50.82969000","longitude":"19.28547000"},{"id":"87108","name":"Mszana","state_id":1623,"state_code":"SL","country_id":176,"country_code":"PL","latitude":"49.96939000","longitude":"18.52793000"},{"id":"87112","name":"Murcki","state_id":1623,"state_code":"SL","country_id":176,"country_code":"PL","latitude":"50.20036000","longitude":"19.04351000"},{"id":"87116","name":"Mykan\u00f3w","state_id":1623,"state_code":"SL","country_id":176,"country_code":"PL","latitude":"50.92360000","longitude":"19.20050000"},{"id":"87121","name":"Myslowice","state_id":1623,"state_code":"SL","country_id":176,"country_code":"PL","latitude":"50.20745000","longitude":"19.16668000"},{"id":"87118","name":"Myszk\u00f3w","state_id":1623,"state_code":"SL","country_id":176,"country_code":"PL","latitude":"50.57520000","longitude":"19.32461000"},{"id":"87133","name":"Naklo","state_id":1623,"state_code":"SL","country_id":176,"country_code":"PL","latitude":"50.43690000","longitude":"18.91056000"},{"id":"87215","name":"Nedza","state_id":1623,"state_code":"SL","country_id":176,"country_code":"PL","latitude":"50.16112000","longitude":"18.31103000"},{"id":"87153","name":"Niedobczyce","state_id":1623,"state_code":"SL","country_id":176,"country_code":"PL","latitude":"50.06540000","longitude":"18.49531000"},{"id":"87160","name":"Niegowonice","state_id":1623,"state_code":"SL","country_id":176,"country_code":"PL","latitude":"50.38909000","longitude":"19.42263000"},{"id":"87326","name":"Ozarowice","state_id":1623,"state_code":"SL","country_id":176,"country_code":"PL","latitude":"50.46182000","longitude":"19.04317000"},{"id":"87223","name":"Ochaby","state_id":1623,"state_code":"SL","country_id":176,"country_code":"PL","latitude":"49.84252000","longitude":"18.76894000"},{"id":"87231","name":"Ogrodzieniec","state_id":1623,"state_code":"SL","country_id":176,"country_code":"PL","latitude":"50.45177000","longitude":"19.51987000"},{"id":"87247","name":"Olsztyn","state_id":1623,"state_code":"SL","country_id":176,"country_code":"PL","latitude":"50.75185000","longitude":"19.26737000"},{"id":"87253","name":"Olza","state_id":1623,"state_code":"SL","country_id":176,"country_code":"PL","latitude":"49.95393000","longitude":"18.33910000"},{"id":"87258","name":"Opat\u00f3w","state_id":1623,"state_code":"SL","country_id":176,"country_code":"PL","latitude":"50.95567000","longitude":"18.81941000"},{"id":"87269","name":"Ornontowice","state_id":1623,"state_code":"SL","country_id":176,"country_code":"PL","latitude":"50.19377000","longitude":"18.75435000"},{"id":"87271","name":"Orzech","state_id":1623,"state_code":"SL","country_id":176,"country_code":"PL","latitude":"50.42744000","longitude":"18.92275000"},{"id":"87273","name":"Orzesze","state_id":1623,"state_code":"SL","country_id":176,"country_code":"PL","latitude":"50.15595000","longitude":"18.77923000"},{"id":"87304","name":"Ostrowy nad Oksza","state_id":1623,"state_code":"SL","country_id":176,"country_code":"PL","latitude":"50.97799000","longitude":"19.05355000"},{"id":"87341","name":"Pani\u00f3wki","state_id":1623,"state_code":"SL","country_id":176,"country_code":"PL","latitude":"50.23139000","longitude":"18.78104000"},{"id":"87342","name":"Panki","state_id":1623,"state_code":"SL","country_id":176,"country_code":"PL","latitude":"50.88333000","longitude":"18.75160000"},{"id":"87357","name":"Pawlowice","state_id":1623,"state_code":"SL","country_id":176,"country_code":"PL","latitude":"49.96127000","longitude":"18.71778000"},{"id":"87355","name":"Pawonk\u00f3w","state_id":1623,"state_code":"SL","country_id":176,"country_code":"PL","latitude":"50.69499000","longitude":"18.58149000"},{"id":"87366","name":"Pewel Slemienska","state_id":1623,"state_code":"SL","country_id":176,"country_code":"PL","latitude":"49.68968000","longitude":"19.33431000"},{"id":"87365","name":"Pewel Wielka","state_id":1623,"state_code":"SL","country_id":176,"country_code":"PL","latitude":"49.67457000","longitude":"19.37482000"},{"id":"87369","name":"Piasek","state_id":1623,"state_code":"SL","country_id":176,"country_code":"PL","latitude":"50.01055000","longitude":"18.94807000"},{"id":"87376","name":"Piekary Slaskie","state_id":1623,"state_code":"SL","country_id":176,"country_code":"PL","latitude":"50.38017000","longitude":"18.92653000"},{"id":"87379","name":"Pielgrzymowice","state_id":1623,"state_code":"SL","country_id":176,"country_code":"PL","latitude":"49.90547000","longitude":"18.64886000"},{"id":"87382","name":"Piersciec","state_id":1623,"state_code":"SL","country_id":176,"country_code":"PL","latitude":"49.83339000","longitude":"18.81409000"},{"id":"87384","name":"Pietrowice Wielkie","state_id":1623,"state_code":"SL","country_id":176,"country_code":"PL","latitude":"50.08452000","longitude":"18.09148000"},{"id":"87385","name":"Pietrzykowice","state_id":1623,"state_code":"SL","country_id":176,"country_code":"PL","latitude":"49.69634000","longitude":"19.15990000"},{"id":"87388","name":"Pilchowice","state_id":1623,"state_code":"SL","country_id":176,"country_code":"PL","latitude":"50.21668000","longitude":"18.56132000"},{"id":"87390","name":"Pilica","state_id":1623,"state_code":"SL","country_id":176,"country_code":"PL","latitude":"50.46799000","longitude":"19.65729000"},{"id":"87395","name":"Pisarzowice","state_id":1623,"state_code":"SL","country_id":176,"country_code":"PL","latitude":"49.88363000","longitude":"19.14565000"},{"id":"87779","name":"Polomia","state_id":1623,"state_code":"SL","country_id":176,"country_code":"PL","latitude":"49.99185000","longitude":"18.55102000"},{"id":"87426","name":"Pog\u00f3rze","state_id":1623,"state_code":"SL","country_id":176,"country_code":"PL","latitude":"49.79961000","longitude":"18.84327000"},{"id":"87422","name":"Pogrzebien","state_id":1623,"state_code":"SL","country_id":176,"country_code":"PL","latitude":"50.06722000","longitude":"18.29876000"},{"id":"87423","name":"Pogwizd\u00f3w","state_id":1623,"state_code":"SL","country_id":176,"country_code":"PL","latitude":"49.80382000","longitude":"18.60106000"},{"id":"87443","name":"Poraj","state_id":1623,"state_code":"SL","country_id":176,"country_code":"PL","latitude":"50.67797000","longitude":"19.21509000"},{"id":"87446","name":"Porabka","state_id":1623,"state_code":"SL","country_id":176,"country_code":"PL","latitude":"49.81716000","longitude":"19.21835000"},{"id":"87449","name":"Poreba","state_id":1623,"state_code":"SL","country_id":176,"country_code":"PL","latitude":"50.48831000","longitude":"19.33903000"},{"id":"87454","name":"Potok Zloty","state_id":1623,"state_code":"SL","country_id":176,"country_code":"PL","latitude":"50.70676000","longitude":"19.43091000"},{"id":"87769","name":"Powiat zywiecki","state_id":1623,"state_code":"SL","country_id":176,"country_code":"PL","latitude":"49.61145000","longitude":"19.21367000"},{"id":"87481","name":"Powiat bedzinski","state_id":1623,"state_code":"SL","country_id":176,"country_code":"PL","latitude":"50.32924000","longitude":"19.10419000"},{"id":"87465","name":"Powiat bielski","state_id":1623,"state_code":"SL","country_id":176,"country_code":"PL","latitude":"49.76175000","longitude":"19.10660000"},{"id":"87467","name":"Powiat bierunsko-ledzinski","state_id":1623,"state_code":"SL","country_id":176,"country_code":"PL","latitude":"50.09356000","longitude":"19.14270000"},{"id":"87489","name":"Powiat cieszynski","state_id":1623,"state_code":"SL","country_id":176,"country_code":"PL","latitude":"49.72628000","longitude":"18.79147000"},{"id":"87491","name":"Powiat czestochowski","state_id":1623,"state_code":"SL","country_id":176,"country_code":"PL","latitude":"50.84118000","longitude":"19.34045000"},{"id":"87503","name":"Powiat gliwicki","state_id":1623,"state_code":"SL","country_id":176,"country_code":"PL","latitude":"50.36266000","longitude":"18.58107000"},{"id":"87562","name":"Powiat klobucki","state_id":1623,"state_code":"SL","country_id":176,"country_code":"PL","latitude":"50.93274000","longitude":"18.87005000"},{"id":"87578","name":"Powiat lubliniecki","state_id":1623,"state_code":"SL","country_id":176,"country_code":"PL","latitude":"50.67367000","longitude":"18.79378000"},{"id":"87585","name":"Powiat mikolowski","state_id":1623,"state_code":"SL","country_id":176,"country_code":"PL","latitude":"50.15133000","longitude":"18.83689000"},{"id":"87593","name":"Powiat myszkowski","state_id":1623,"state_code":"SL","country_id":176,"country_code":"PL","latitude":"50.60554000","longitude":"19.35125000"},{"id":"87648","name":"Powiat pszczynski","state_id":1623,"state_code":"SL","country_id":176,"country_code":"PL","latitude":"49.98987000","longitude":"18.88177000"},{"id":"87655","name":"Powiat raciborski","state_id":1623,"state_code":"SL","country_id":176,"country_code":"PL","latitude":"50.08696000","longitude":"18.26916000"},{"id":"87663","name":"Powiat rybnicki","state_id":1623,"state_code":"SL","country_id":176,"country_code":"PL","latitude":"50.10385000","longitude":"18.46527000"},{"id":"87702","name":"Powiat tarnog\u00f3rski","state_id":1623,"state_code":"SL","country_id":176,"country_code":"PL","latitude":"50.47264000","longitude":"18.86265000"},{"id":"87720","name":"Powiat wodzislawski","state_id":1623,"state_code":"SL","country_id":176,"country_code":"PL","latitude":"49.99323000","longitude":"18.42504000"},{"id":"87738","name":"Powiat zawiercianski","state_id":1623,"state_code":"SL","country_id":176,"country_code":"PL","latitude":"50.54225000","longitude":"19.61192000"},{"id":"87793","name":"Pruchna","state_id":1623,"state_code":"SL","country_id":176,"country_code":"PL","latitude":"49.86527000","longitude":"18.68191000"},{"id":"87821","name":"Przybor\u00f3w","state_id":1623,"state_code":"SL","country_id":176,"country_code":"PL","latitude":"49.62150000","longitude":"19.38701000"},{"id":"87826","name":"Przyr\u00f3w","state_id":1623,"state_code":"SL","country_id":176,"country_code":"PL","latitude":"50.80051000","longitude":"19.52794000"},{"id":"87827","name":"Przystajn","state_id":1623,"state_code":"SL","country_id":176,"country_code":"PL","latitude":"50.88495000","longitude":"18.69169000"},{"id":"87829","name":"Przyszowice","state_id":1623,"state_code":"SL","country_id":176,"country_code":"PL","latitude":"50.24841000","longitude":"18.74594000"},{"id":"87838","name":"Psary","state_id":1623,"state_code":"SL","country_id":176,"country_code":"PL","latitude":"50.61470000","longitude":"18.96991000"},{"id":"87845","name":"Psz\u00f3w","state_id":1623,"state_code":"SL","country_id":176,"country_code":"PL","latitude":"50.03994000","longitude":"18.39472000"},{"id":"87843","name":"Pszczyna","state_id":1623,"state_code":"SL","country_id":176,"country_code":"PL","latitude":"49.98037000","longitude":"18.95382000"},{"id":"87853","name":"Punc\u00f3w","state_id":1623,"state_code":"SL","country_id":176,"country_code":"PL","latitude":"49.71842000","longitude":"18.66157000"},{"id":"87856","name":"Pyskowice","state_id":1623,"state_code":"SL","country_id":176,"country_code":"PL","latitude":"50.40000000","longitude":"18.63333000"},{"id":"87872","name":"Racib\u00f3rz","state_id":1623,"state_code":"SL","country_id":176,"country_code":"PL","latitude":"50.09195000","longitude":"18.21928000"},{"id":"87882","name":"Radlin","state_id":1623,"state_code":"SL","country_id":176,"country_code":"PL","latitude":"50.05020000","longitude":"18.47626000"},{"id":"87889","name":"Radostowice","state_id":1623,"state_code":"SL","country_id":176,"country_code":"PL","latitude":"50.00311000","longitude":"18.88103000"},{"id":"87896","name":"Radziechowy","state_id":1623,"state_code":"SL","country_id":176,"country_code":"PL","latitude":"49.64651000","longitude":"19.13115000"},{"id":"87899","name":"Radzionk\u00f3w","state_id":1623,"state_code":"SL","country_id":176,"country_code":"PL","latitude":"50.40026000","longitude":"18.90232000"},{"id":"87906","name":"Rajcza","state_id":1623,"state_code":"SL","country_id":176,"country_code":"PL","latitude":"49.50927000","longitude":"19.11278000"},{"id":"87913","name":"Raszczyce","state_id":1623,"state_code":"SL","country_id":176,"country_code":"PL","latitude":"50.12190000","longitude":"18.29962000"},{"id":"88038","name":"Redziny","state_id":1623,"state_code":"SL","country_id":176,"country_code":"PL","latitude":"50.85922000","longitude":"19.21620000"},{"id":"87948","name":"Rog\u00f3w","state_id":1623,"state_code":"SL","country_id":176,"country_code":"PL","latitude":"49.99097000","longitude":"18.35077000"},{"id":"87945","name":"Rogoznik","state_id":1623,"state_code":"SL","country_id":176,"country_code":"PL","latitude":"50.39106000","longitude":"19.03776000"},{"id":"87959","name":"Rokitno Szlacheckie","state_id":1623,"state_code":"SL","country_id":176,"country_code":"PL","latitude":"50.43195000","longitude":"19.43293000"},{"id":"87971","name":"Ruda Slaska","state_id":1623,"state_code":"SL","country_id":176,"country_code":"PL","latitude":"50.25840000","longitude":"18.85632000"},{"id":"87979","name":"Rudnik","state_id":1623,"state_code":"SL","country_id":176,"country_code":"PL","latitude":"50.12729000","longitude":"18.18598000"},{"id":"87982","name":"Rudniki","state_id":1623,"state_code":"SL","country_id":176,"country_code":"PL","latitude":"50.52134000","longitude":"19.43130000"},{"id":"87983","name":"Rudy","state_id":1623,"state_code":"SL","country_id":176,"country_code":"PL","latitude":"50.19003000","longitude":"18.45334000"},{"id":"87984","name":"Rudziczka","state_id":1623,"state_code":"SL","country_id":176,"country_code":"PL","latitude":"50.03608000","longitude":"18.76225000"},{"id":"87985","name":"Rudziniec","state_id":1623,"state_code":"SL","country_id":176,"country_code":"PL","latitude":"50.35324000","longitude":"18.40914000"},{"id":"87991","name":"Rybarzowice","state_id":1623,"state_code":"SL","country_id":176,"country_code":"PL","latitude":"49.72956000","longitude":"19.10162000"},{"id":"87994","name":"Rybnik","state_id":1623,"state_code":"SL","country_id":176,"country_code":"PL","latitude":"50.09713000","longitude":"18.54179000"},{"id":"87997","name":"Rycerka Dolna","state_id":1623,"state_code":"SL","country_id":176,"country_code":"PL","latitude":"49.47805000","longitude":"19.06162000"},{"id":"87998","name":"Rycerka G\u00f3rna","state_id":1623,"state_code":"SL","country_id":176,"country_code":"PL","latitude":"49.44436000","longitude":"19.01596000"},{"id":"88004","name":"Rydultowy","state_id":1623,"state_code":"SL","country_id":176,"country_code":"PL","latitude":"50.05857000","longitude":"18.41703000"},{"id":"88052","name":"Sarn\u00f3w","state_id":1623,"state_code":"SL","country_id":176,"country_code":"PL","latitude":"50.37380000","longitude":"19.15061000"},{"id":"88324","name":"S\u00f3l","state_id":1623,"state_code":"SL","country_id":176,"country_code":"PL","latitude":"49.48764000","longitude":"19.04171000"},{"id":"88337","name":"Slawk\u00f3w","state_id":1623,"state_code":"SL","country_id":176,"country_code":"PL","latitude":"50.29943000","longitude":"19.38967000"},{"id":"88325","name":"Sacz\u00f3w","state_id":1623,"state_code":"SL","country_id":176,"country_code":"PL","latitude":"50.43520000","longitude":"19.03038000"},{"id":"88071","name":"Siemianowice Slaskie","state_id":1623,"state_code":"SL","country_id":176,"country_code":"PL","latitude":"50.32738000","longitude":"19.02901000"},{"id":"88089","name":"Sierak\u00f3w Slaski","state_id":1623,"state_code":"SL","country_id":176,"country_code":"PL","latitude":"50.80290000","longitude":"18.57548000"},{"id":"88093","name":"Siewierz","state_id":1623,"state_code":"SL","country_id":176,"country_code":"PL","latitude":"50.46657000","longitude":"19.23028000"},{"id":"88108","name":"Skocz\u00f3w","state_id":1623,"state_code":"SL","country_id":176,"country_code":"PL","latitude":"49.80089000","longitude":"18.78770000"},{"id":"88118","name":"Skrzysz\u00f3w","state_id":1623,"state_code":"SL","country_id":176,"country_code":"PL","latitude":"49.94873000","longitude":"18.48879000"},{"id":"88158","name":"Sosnicowice","state_id":1623,"state_code":"SL","country_id":176,"country_code":"PL","latitude":"50.27214000","longitude":"18.52982000"},{"id":"88149","name":"Sopotnia Wielka","state_id":1623,"state_code":"SL","country_id":176,"country_code":"PL","latitude":"49.56853000","longitude":"19.28289000"},{"id":"88152","name":"Sosnowiec","state_id":1623,"state_code":"SL","country_id":176,"country_code":"PL","latitude":"50.27119000","longitude":"19.19463000"},{"id":"88171","name":"Stanowice","state_id":1623,"state_code":"SL","country_id":176,"country_code":"PL","latitude":"50.13037000","longitude":"18.67084000"},{"id":"88180","name":"Starcza","state_id":1623,"state_code":"SL","country_id":176,"country_code":"PL","latitude":"50.66421000","longitude":"19.04180000"},{"id":"88191","name":"Starokrzepice","state_id":1623,"state_code":"SL","country_id":176,"country_code":"PL","latitude":"50.94859000","longitude":"18.65341000"},{"id":"88218","name":"Strumien","state_id":1623,"state_code":"SL","country_id":176,"country_code":"PL","latitude":"49.92103000","longitude":"18.76637000"},{"id":"88223","name":"Strzebin","state_id":1623,"state_code":"SL","country_id":176,"country_code":"PL","latitude":"50.61647000","longitude":"18.89794000"},{"id":"88235","name":"Strzyzowice","state_id":1623,"state_code":"SL","country_id":176,"country_code":"PL","latitude":"50.38725000","longitude":"19.08038000"},{"id":"88240","name":"Studzionka","state_id":1623,"state_code":"SL","country_id":176,"country_code":"PL","latitude":"49.96232000","longitude":"18.77280000"},{"id":"88268","name":"Suszec","state_id":1623,"state_code":"SL","country_id":176,"country_code":"PL","latitude":"50.02958000","longitude":"18.79160000"},{"id":"88282","name":"Syrynia","state_id":1623,"state_code":"SL","country_id":176,"country_code":"PL","latitude":"50.02004000","longitude":"18.34597000"},{"id":"88295","name":"Szczekociny","state_id":1623,"state_code":"SL","country_id":176,"country_code":"PL","latitude":"50.62669000","longitude":"19.82500000"},{"id":"88297","name":"Szczerbice","state_id":1623,"state_code":"SL","country_id":176,"country_code":"PL","latitude":"50.09416000","longitude":"18.44896000"},{"id":"88303","name":"Szczyrk","state_id":1623,"state_code":"SL","country_id":176,"country_code":"PL","latitude":"49.71724000","longitude":"19.03183000"},{"id":"88364","name":"Tarnowskie G\u00f3ry","state_id":1623,"state_code":"SL","country_id":176,"country_code":"PL","latitude":"50.44548000","longitude":"18.86147000"},{"id":"88386","name":"Toszek","state_id":1623,"state_code":"SL","country_id":176,"country_code":"PL","latitude":"50.45442000","longitude":"18.52209000"},{"id":"88392","name":"Truskolasy","state_id":1623,"state_code":"SL","country_id":176,"country_code":"PL","latitude":"50.86692000","longitude":"18.82705000"},{"id":"88406","name":"Trzebinia","state_id":1623,"state_code":"SL","country_id":176,"country_code":"PL","latitude":"49.65024000","longitude":"19.22264000"},{"id":"88427","name":"Turza Slaska","state_id":1623,"state_code":"SL","country_id":176,"country_code":"PL","latitude":"49.97231000","longitude":"18.43781000"},{"id":"88434","name":"Twor\u00f3g","state_id":1623,"state_code":"SL","country_id":176,"country_code":"PL","latitude":"50.53100000","longitude":"18.71572000"},{"id":"88433","name":"Twork\u00f3w","state_id":1623,"state_code":"SL","country_id":176,"country_code":"PL","latitude":"50.00559000","longitude":"18.23576000"},{"id":"88436","name":"Tychy","state_id":1623,"state_code":"SL","country_id":176,"country_code":"PL","latitude":"50.13717000","longitude":"18.96641000"},{"id":"88451","name":"Ujsoly","state_id":1623,"state_code":"SL","country_id":176,"country_code":"PL","latitude":"49.48290000","longitude":"19.13801000"},{"id":"88464","name":"Ustron","state_id":1623,"state_code":"SL","country_id":176,"country_code":"PL","latitude":"49.72153000","longitude":"18.80198000"},{"id":"88651","name":"Wlodowice","state_id":1623,"state_code":"SL","country_id":176,"country_code":"PL","latitude":"50.55560000","longitude":"19.45155000"},{"id":"88638","name":"Wegierska G\u00f3rka","state_id":1623,"state_code":"SL","country_id":176,"country_code":"PL","latitude":"49.60776000","longitude":"19.11638000"},{"id":"88510","name":"Wielowies","state_id":1623,"state_code":"SL","country_id":176,"country_code":"PL","latitude":"50.50966000","longitude":"18.61608000"},{"id":"88513","name":"Wieprz","state_id":1623,"state_code":"SL","country_id":176,"country_code":"PL","latitude":"49.64746000","longitude":"19.18007000"},{"id":"88527","name":"Wieszowa","state_id":1623,"state_code":"SL","country_id":176,"country_code":"PL","latitude":"50.38444000","longitude":"18.75924000"},{"id":"88530","name":"Wilamowice","state_id":1623,"state_code":"SL","country_id":176,"country_code":"PL","latitude":"49.91701000","longitude":"19.15237000"},{"id":"88532","name":"Wilcza","state_id":1623,"state_code":"SL","country_id":176,"country_code":"PL","latitude":"50.18899000","longitude":"18.59668000"},{"id":"88538","name":"Wilkowice","state_id":1623,"state_code":"SL","country_id":176,"country_code":"PL","latitude":"49.76282000","longitude":"19.08973000"},{"id":"88547","name":"Wisla","state_id":1623,"state_code":"SL","country_id":176,"country_code":"PL","latitude":"49.65629000","longitude":"18.85910000"},{"id":"88603","name":"Wozniki","state_id":1623,"state_code":"SL","country_id":176,"country_code":"PL","latitude":"50.58934000","longitude":"19.05991000"},{"id":"88569","name":"Wodzislaw Slaski","state_id":1623,"state_code":"SL","country_id":176,"country_code":"PL","latitude":"50.00377000","longitude":"18.47205000"},{"id":"88576","name":"Wojkowice","state_id":1623,"state_code":"SL","country_id":176,"country_code":"PL","latitude":"50.36509000","longitude":"19.03652000"},{"id":"88581","name":"Wola","state_id":1623,"state_code":"SL","country_id":176,"country_code":"PL","latitude":"50.01745000","longitude":"19.12333000"},{"id":"88609","name":"Wreczyca Wielka","state_id":1623,"state_code":"SL","country_id":176,"country_code":"PL","latitude":"50.84589000","longitude":"18.92086000"},{"id":"88613","name":"Wyry","state_id":1623,"state_code":"SL","country_id":176,"country_code":"PL","latitude":"50.13296000","longitude":"18.90052000"},{"id":"88618","name":"Wysoka","state_id":1623,"state_code":"SL","country_id":176,"country_code":"PL","latitude":"50.42989000","longitude":"19.35368000"},{"id":"88662","name":"Zablocie","state_id":1623,"state_code":"SL","country_id":176,"country_code":"PL","latitude":"49.90282000","longitude":"18.78147000"},{"id":"88658","name":"Zaborze","state_id":1623,"state_code":"SL","country_id":176,"country_code":"PL","latitude":"49.87279000","longitude":"18.80370000"},{"id":"88659","name":"Zabrze","state_id":1623,"state_code":"SL","country_id":176,"country_code":"PL","latitude":"50.32492000","longitude":"18.78576000"},{"id":"88660","name":"Zabrzeg","state_id":1623,"state_code":"SL","country_id":176,"country_code":"PL","latitude":"49.91619000","longitude":"18.94292000"},{"id":"88689","name":"Zamarski","state_id":1623,"state_code":"SL","country_id":176,"country_code":"PL","latitude":"49.78254000","longitude":"18.66972000"},{"id":"88697","name":"Zarzecze","state_id":1623,"state_code":"SL","country_id":176,"country_code":"PL","latitude":"49.71932000","longitude":"19.17526000"},{"id":"88704","name":"Zawid\u00f3w","state_id":1623,"state_code":"SL","country_id":176,"country_code":"PL","latitude":"51.02546000","longitude":"15.06213000"},{"id":"88705","name":"Zawiercie","state_id":1623,"state_code":"SL","country_id":176,"country_code":"PL","latitude":"50.48766000","longitude":"19.41679000"},{"id":"88709","name":"Zbroslawice","state_id":1623,"state_code":"SL","country_id":176,"country_code":"PL","latitude":"50.41612000","longitude":"18.75443000"},{"id":"88711","name":"Zbytk\u00f3w","state_id":1623,"state_code":"SL","country_id":176,"country_code":"PL","latitude":"49.92288000","longitude":"18.72697000"},{"id":"88721","name":"Zebrzydowice","state_id":1623,"state_code":"SL","country_id":176,"country_code":"PL","latitude":"49.87793000","longitude":"18.61127000"}]