[{"id":"88866","name":"Swietajno","state_id":1628,"state_code":"WN","country_id":176,"country_code":"PL","latitude":"53.56692000","longitude":"21.21546000"},{"id":"85799","name":"Banie Mazurskie","state_id":1628,"state_code":"WN","country_id":176,"country_code":"PL","latitude":"54.24662000","longitude":"22.03617000"},{"id":"85807","name":"Barciany","state_id":1628,"state_code":"WN","country_id":176,"country_code":"PL","latitude":"54.21993000","longitude":"21.35347000"},{"id":"85809","name":"Barczewo","state_id":1628,"state_code":"WN","country_id":176,"country_code":"PL","latitude":"53.83055000","longitude":"20.69112000"},{"id":"85813","name":"Bartoszyce","state_id":1628,"state_code":"WN","country_id":176,"country_code":"PL","latitude":"54.25354000","longitude":"20.80819000"},{"id":"85835","name":"Biala Piska","state_id":1628,"state_code":"WN","country_id":176,"country_code":"PL","latitude":"53.61191000","longitude":"22.06321000"},{"id":"85874","name":"Biskupiec","state_id":1628,"state_code":"WN","country_id":176,"country_code":"PL","latitude":"53.86467000","longitude":"20.95692000"},{"id":"85877","name":"Bisztynek","state_id":1628,"state_code":"WN","country_id":176,"country_code":"PL","latitude":"54.08633000","longitude":"20.90192000"},{"id":"85936","name":"Braniewo","state_id":1628,"state_code":"WN","country_id":176,"country_code":"PL","latitude":"54.37971000","longitude":"19.81959000"},{"id":"86145","name":"Czerwonka","state_id":1628,"state_code":"WN","country_id":176,"country_code":"PL","latitude":"53.91627000","longitude":"20.89685000"},{"id":"86263","name":"Dzwierzuty","state_id":1628,"state_code":"WN","country_id":176,"country_code":"PL","latitude":"53.70494000","longitude":"20.96037000"},{"id":"86245","name":"Dabr\u00f3wno","state_id":1628,"state_code":"WN","country_id":176,"country_code":"PL","latitude":"53.43408000","longitude":"20.03529000"},{"id":"86172","name":"Dobre Miasto","state_id":1628,"state_code":"WN","country_id":176,"country_code":"PL","latitude":"53.98668000","longitude":"20.39749000"},{"id":"86214","name":"Dywity","state_id":1628,"state_code":"WN","country_id":176,"country_code":"PL","latitude":"53.83759000","longitude":"20.47817000"},{"id":"86216","name":"Dzialdowo","state_id":1628,"state_code":"WN","country_id":176,"country_code":"PL","latitude":"53.23958000","longitude":"20.17004000"},{"id":"86265","name":"Elk","state_id":1628,"state_code":"WN","country_id":176,"country_code":"PL","latitude":"53.82824000","longitude":"22.36469000"},{"id":"86264","name":"Elblag","state_id":1628,"state_code":"WN","country_id":176,"country_code":"PL","latitude":"54.15220000","longitude":"19.40884000"},{"id":"86275","name":"Frombork","state_id":1628,"state_code":"WN","country_id":176,"country_code":"PL","latitude":"54.35766000","longitude":"19.68029000"},{"id":"86417","name":"G\u00f3rowo Ilaweckie","state_id":1628,"state_code":"WN","country_id":176,"country_code":"PL","latitude":"54.28559000","longitude":"20.48886000"},{"id":"86305","name":"Gizycko","state_id":1628,"state_code":"WN","country_id":176,"country_code":"PL","latitude":"54.03811000","longitude":"21.76441000"},{"id":"86301","name":"Gierloz","state_id":1628,"state_code":"WN","country_id":176,"country_code":"PL","latitude":"54.08134000","longitude":"21.49551000"},{"id":"86300","name":"Gierzwald","state_id":1628,"state_code":"WN","country_id":176,"country_code":"PL","latitude":"53.54128000","longitude":"20.08867000"},{"id":"86302","name":"Gietrzwald","state_id":1628,"state_code":"WN","country_id":176,"country_code":"PL","latitude":"53.74617000","longitude":"20.23742000"},{"id":"86355","name":"Goldap","state_id":1628,"state_code":"WN","country_id":176,"country_code":"PL","latitude":"54.30631000","longitude":"22.30362000"},{"id":"86382","name":"Gronowo Elblaskie","state_id":1628,"state_code":"WN","country_id":176,"country_code":"PL","latitude":"54.08588000","longitude":"19.30598000"},{"id":"86383","name":"Gronowo G\u00f3rne","state_id":1628,"state_code":"WN","country_id":176,"country_code":"PL","latitude":"54.13863000","longitude":"19.45988000"},{"id":"86472","name":"Ilawa","state_id":1628,"state_code":"WN","country_id":176,"country_code":"PL","latitude":"53.59601000","longitude":"19.56849000"},{"id":"86474","name":"Ilowo -Osada","state_id":1628,"state_code":"WN","country_id":176,"country_code":"PL","latitude":"53.16808000","longitude":"20.29295000"},{"id":"86546","name":"Jedwabno","state_id":1628,"state_code":"WN","country_id":176,"country_code":"PL","latitude":"53.52990000","longitude":"20.72657000"},{"id":"86556","name":"Jeziorany","state_id":1628,"state_code":"WN","country_id":176,"country_code":"PL","latitude":"53.97578000","longitude":"20.74639000"},{"id":"86567","name":"Jonkowo","state_id":1628,"state_code":"WN","country_id":176,"country_code":"PL","latitude":"53.82817000","longitude":"20.31054000"},{"id":"86858","name":"Ketrzyn","state_id":1628,"state_code":"WN","country_id":176,"country_code":"PL","latitude":"54.07676000","longitude":"21.37527000"},{"id":"86640","name":"Kisielice","state_id":1628,"state_code":"WN","country_id":176,"country_code":"PL","latitude":"53.60855000","longitude":"19.26350000"},{"id":"86706","name":"Korsze","state_id":1628,"state_code":"WN","country_id":176,"country_code":"PL","latitude":"54.17002000","longitude":"21.13915000"},{"id":"86707","name":"Kortowo","state_id":1628,"state_code":"WN","country_id":176,"country_code":"PL","latitude":"53.75731000","longitude":"20.45620000"},{"id":"86728","name":"Kowale Oleckie","state_id":1628,"state_code":"WN","country_id":176,"country_code":"PL","latitude":"54.16354000","longitude":"22.41666000"},{"id":"86738","name":"Kozlowo","state_id":1628,"state_code":"WN","country_id":176,"country_code":"PL","latitude":"53.30652000","longitude":"20.29098000"},{"id":"86791","name":"Kruklanki","state_id":1628,"state_code":"WN","country_id":176,"country_code":"PL","latitude":"54.08855000","longitude":"21.92227000"},{"id":"86842","name":"Kurzetnik","state_id":1628,"state_code":"WN","country_id":176,"country_code":"PL","latitude":"53.39858000","longitude":"19.57858000"},{"id":"86879","name":"Lelkowo","state_id":1628,"state_code":"WN","country_id":176,"country_code":"PL","latitude":"54.32458000","longitude":"20.22480000"},{"id":"86899","name":"Lidzbark","state_id":1628,"state_code":"WN","country_id":176,"country_code":"PL","latitude":"53.26283000","longitude":"19.82663000"},{"id":"86900","name":"Lidzbark Warminski","state_id":1628,"state_code":"WN","country_id":176,"country_code":"PL","latitude":"54.12588000","longitude":"20.57954000"},{"id":"86934","name":"Lubawa","state_id":1628,"state_code":"WN","country_id":176,"country_code":"PL","latitude":"53.50428000","longitude":"19.74966000"},{"id":"86954","name":"Lubomino","state_id":1628,"state_code":"WN","country_id":176,"country_code":"PL","latitude":"54.06684000","longitude":"20.23956000"},{"id":"87006","name":"Maldyty","state_id":1628,"state_code":"WN","country_id":176,"country_code":"PL","latitude":"53.91981000","longitude":"19.74398000"},{"id":"87129","name":"Mlynary","state_id":1628,"state_code":"WN","country_id":176,"country_code":"PL","latitude":"54.18690000","longitude":"19.72149000"},{"id":"87070","name":"Milakowo","state_id":1628,"state_code":"WN","country_id":176,"country_code":"PL","latitude":"54.00923000","longitude":"20.07125000"},{"id":"87072","name":"Milomlyn","state_id":1628,"state_code":"WN","country_id":176,"country_code":"PL","latitude":"53.76449000","longitude":"19.83800000"},{"id":"87042","name":"Mikolajki","state_id":1628,"state_code":"WN","country_id":176,"country_code":"PL","latitude":"53.80288000","longitude":"21.57011000"},{"id":"87093","name":"Morag","state_id":1628,"state_code":"WN","country_id":176,"country_code":"PL","latitude":"53.91711000","longitude":"19.92602000"},{"id":"87106","name":"Mragowo","state_id":1628,"state_code":"WN","country_id":176,"country_code":"PL","latitude":"53.86437000","longitude":"21.30507000"},{"id":"87146","name":"Nidzica","state_id":1628,"state_code":"WN","country_id":176,"country_code":"PL","latitude":"53.36052000","longitude":"20.42749000"},{"id":"87186","name":"Nowe Miasto Lubawskie","state_id":1628,"state_code":"WN","country_id":176,"country_code":"PL","latitude":"53.42079000","longitude":"19.59515000"},{"id":"87236","name":"Olecko","state_id":1628,"state_code":"WN","country_id":176,"country_code":"PL","latitude":"54.03374000","longitude":"22.50704000"},{"id":"87248","name":"Olsztyn","state_id":1628,"state_code":"WN","country_id":176,"country_code":"PL","latitude":"53.77657000","longitude":"20.46657000"},{"id":"87249","name":"Olsztynek","state_id":1628,"state_code":"WN","country_id":176,"country_code":"PL","latitude":"53.58374000","longitude":"20.28471000"},{"id":"87268","name":"Orneta","state_id":1628,"state_code":"WN","country_id":176,"country_code":"PL","latitude":"54.11483000","longitude":"20.13328000"},{"id":"87274","name":"Orzysz","state_id":1628,"state_code":"WN","country_id":176,"country_code":"PL","latitude":"53.80967000","longitude":"21.94811000"},{"id":"87307","name":"Ostr\u00f3da","state_id":1628,"state_code":"WN","country_id":176,"country_code":"PL","latitude":"53.69671000","longitude":"19.96486000"},{"id":"87353","name":"Paslek","state_id":1628,"state_code":"WN","country_id":176,"country_code":"PL","latitude":"54.06160000","longitude":"19.65932000"},{"id":"87351","name":"Pasym","state_id":1628,"state_code":"WN","country_id":176,"country_code":"PL","latitude":"53.65069000","longitude":"20.79188000"},{"id":"87374","name":"Piecki","state_id":1628,"state_code":"WN","country_id":176,"country_code":"PL","latitude":"53.75759000","longitude":"21.33914000"},{"id":"87380","name":"Pieniezno","state_id":1628,"state_code":"WN","country_id":176,"country_code":"PL","latitude":"54.23649000","longitude":"20.12833000"},{"id":"87398","name":"Pisz","state_id":1628,"state_code":"WN","country_id":176,"country_code":"PL","latitude":"53.62744000","longitude":"21.81253000"},{"id":"87459","name":"Powiat bartoszycki","state_id":1628,"state_code":"WN","country_id":176,"country_code":"PL","latitude":"54.21253000","longitude":"20.74076000"},{"id":"87472","name":"Powiat braniewski","state_id":1628,"state_code":"WN","country_id":176,"country_code":"PL","latitude":"54.27782000","longitude":"20.00630000"},{"id":"87494","name":"Powiat dzialdowski","state_id":1628,"state_code":"WN","country_id":176,"country_code":"PL","latitude":"53.28883000","longitude":"20.04817000"},{"id":"87499","name":"Powiat elcki","state_id":1628,"state_code":"WN","country_id":176,"country_code":"PL","latitude":"53.81673000","longitude":"22.40465000"},{"id":"87498","name":"Powiat elblaski","state_id":1628,"state_code":"WN","country_id":176,"country_code":"PL","latitude":"54.15928000","longitude":"19.63768000"},{"id":"87502","name":"Powiat gizycki","state_id":1628,"state_code":"WN","country_id":176,"country_code":"PL","latitude":"54.01808000","longitude":"21.82191000"},{"id":"87511","name":"Powiat goldapski","state_id":1628,"state_code":"WN","country_id":176,"country_code":"PL","latitude":"54.26090000","longitude":"22.37192000"},{"id":"87525","name":"Powiat ilawski","state_id":1628,"state_code":"WN","country_id":176,"country_code":"PL","latitude":"53.67477000","longitude":"19.53792000"},{"id":"87561","name":"Powiat ketrzynski","state_id":1628,"state_code":"WN","country_id":176,"country_code":"PL","latitude":"54.13651000","longitude":"21.31217000"},{"id":"87569","name":"Powiat lidzbarski","state_id":1628,"state_code":"WN","country_id":176,"country_code":"PL","latitude":"54.10581000","longitude":"20.38045000"},{"id":"87592","name":"Powiat mragowski","state_id":1628,"state_code":"WN","country_id":176,"country_code":"PL","latitude":"53.81063000","longitude":"21.39758000"},{"id":"87599","name":"Powiat nidzicki","state_id":1628,"state_code":"WN","country_id":176,"country_code":"PL","latitude":"53.37240000","longitude":"20.49858000"},{"id":"87603","name":"Powiat nowomiejski","state_id":1628,"state_code":"WN","country_id":176,"country_code":"PL","latitude":"53.43572000","longitude":"19.54662000"},{"id":"87610","name":"Powiat olecki","state_id":1628,"state_code":"WN","country_id":176,"country_code":"PL","latitude":"54.05129000","longitude":"22.41695000"},{"id":"87614","name":"Powiat olsztynski","state_id":1628,"state_code":"WN","country_id":176,"country_code":"PL","latitude":"53.72922000","longitude":"20.56641000"},{"id":"87624","name":"Powiat ostr\u00f3dzki","state_id":1628,"state_code":"WN","country_id":176,"country_code":"PL","latitude":"53.72906000","longitude":"19.91440000"},{"id":"87634","name":"Powiat piski","state_id":1628,"state_code":"WN","country_id":176,"country_code":"PL","latitude":"53.68076000","longitude":"21.85723000"},{"id":"87693","name":"Powiat szczycienski","state_id":1628,"state_code":"WN","country_id":176,"country_code":"PL","latitude":"53.54176000","longitude":"21.07034000"},{"id":"87731","name":"Powiat wegorzewski","state_id":1628,"state_code":"WN","country_id":176,"country_code":"PL","latitude":"54.20728000","longitude":"21.77861000"},{"id":"87773","name":"Pozezdrze","state_id":1628,"state_code":"WN","country_id":176,"country_code":"PL","latitude":"54.14147000","longitude":"21.85970000"},{"id":"87791","name":"Prostki","state_id":1628,"state_code":"WN","country_id":176,"country_code":"PL","latitude":"53.69901000","longitude":"22.43183000"},{"id":"87848","name":"Purda","state_id":1628,"state_code":"WN","country_id":176,"country_code":"PL","latitude":"53.70844000","longitude":"20.70683000"},{"id":"87939","name":"Reszel","state_id":1628,"state_code":"WN","country_id":176,"country_code":"PL","latitude":"54.05042000","longitude":"21.14585000"},{"id":"87965","name":"Rozogi","state_id":1628,"state_code":"WN","country_id":176,"country_code":"PL","latitude":"53.48549000","longitude":"21.36223000"},{"id":"87969","name":"Ruciane-Nida","state_id":1628,"state_code":"WN","country_id":176,"country_code":"PL","latitude":"53.64161000","longitude":"21.53964000"},{"id":"87996","name":"Rybno","state_id":1628,"state_code":"WN","country_id":176,"country_code":"PL","latitude":"53.38348000","longitude":"19.93229000"},{"id":"88011","name":"Ryn","state_id":1628,"state_code":"WN","country_id":176,"country_code":"PL","latitude":"53.93770000","longitude":"21.54642000"},{"id":"88332","name":"Sepopol","state_id":1628,"state_code":"WN","country_id":176,"country_code":"PL","latitude":"54.26903000","longitude":"21.01453000"},{"id":"88163","name":"Srokowo","state_id":1628,"state_code":"WN","country_id":176,"country_code":"PL","latitude":"54.21416000","longitude":"21.52282000"},{"id":"88184","name":"Stare Juchy","state_id":1628,"state_code":"WN","country_id":176,"country_code":"PL","latitude":"53.92198000","longitude":"22.17367000"},{"id":"88199","name":"Stawiguda","state_id":1628,"state_code":"WN","country_id":176,"country_code":"PL","latitude":"53.65720000","longitude":"20.40041000"},{"id":"88267","name":"Susz","state_id":1628,"state_code":"WN","country_id":176,"country_code":"PL","latitude":"53.71743000","longitude":"19.33645000"},{"id":"88276","name":"Swietajno","state_id":1628,"state_code":"WN","country_id":176,"country_code":"PL","latitude":"54.00151000","longitude":"22.31830000"},{"id":"88305","name":"Szczytno","state_id":1628,"state_code":"WN","country_id":176,"country_code":"PL","latitude":"53.56259000","longitude":"20.98747000"},{"id":"88377","name":"Tolkmicko","state_id":1628,"state_code":"WN","country_id":176,"country_code":"PL","latitude":"54.32038000","longitude":"19.52695000"},{"id":"88641","name":"Wegorzewo","state_id":1628,"state_code":"WN","country_id":176,"country_code":"PL","latitude":"54.21567000","longitude":"21.73720000"},{"id":"88498","name":"Wielbark","state_id":1628,"state_code":"WN","country_id":176,"country_code":"PL","latitude":"53.39858000","longitude":"20.94629000"},{"id":"88611","name":"Wydminy","state_id":1628,"state_code":"WN","country_id":176,"country_code":"PL","latitude":"53.98194000","longitude":"22.03239000"},{"id":"88688","name":"Zalewo","state_id":1628,"state_code":"WN","country_id":176,"country_code":"PL","latitude":"53.84534000","longitude":"19.60519000"}]