[{"id":"88844","name":"Swidwin","state_id":1633,"state_code":"ZP","country_id":176,"country_code":"PL","latitude":"53.77464000","longitude":"15.77671000"},{"id":"88858","name":"Swierzno","state_id":1633,"state_code":"ZP","country_id":176,"country_code":"PL","latitude":"53.96497000","longitude":"14.96544000"},{"id":"88862","name":"Swinoujscie","state_id":1633,"state_code":"ZP","country_id":176,"country_code":"PL","latitude":"53.91053000","longitude":"14.24712000"},{"id":"88779","name":"Lobez","state_id":1633,"state_code":"ZP","country_id":176,"country_code":"PL","latitude":"53.63918000","longitude":"15.62129000"},{"id":"88800","name":"Lubowo","state_id":1633,"state_code":"ZP","country_id":176,"country_code":"PL","latitude":"53.58634000","longitude":"16.39177000"},{"id":"85798","name":"Banie","state_id":1633,"state_code":"ZP","country_id":176,"country_code":"PL","latitude":"53.10031000","longitude":"14.66228000"},{"id":"85811","name":"Barlinek","state_id":1633,"state_code":"ZP","country_id":176,"country_code":"PL","latitude":"52.99464000","longitude":"15.21864000"},{"id":"85817","name":"Barwice","state_id":1633,"state_code":"ZP","country_id":176,"country_code":"PL","latitude":"53.74490000","longitude":"16.35530000"},{"id":"85844","name":"Bialogard","state_id":1633,"state_code":"ZP","country_id":176,"country_code":"PL","latitude":"54.00696000","longitude":"15.98751000"},{"id":"85848","name":"Bialy B\u00f3r","state_id":1633,"state_code":"ZP","country_id":176,"country_code":"PL","latitude":"53.89670000","longitude":"16.83543000"},{"id":"85856","name":"Bielice","state_id":1633,"state_code":"ZP","country_id":176,"country_code":"PL","latitude":"53.20022000","longitude":"14.72760000"},{"id":"85868","name":"Bierzwnik","state_id":1633,"state_code":"ZP","country_id":176,"country_code":"PL","latitude":"53.03567000","longitude":"15.66500000"},{"id":"85884","name":"Bobolice","state_id":1633,"state_code":"ZP","country_id":176,"country_code":"PL","latitude":"53.95508000","longitude":"16.58893000"},{"id":"85909","name":"Boleszkowice","state_id":1633,"state_code":"ZP","country_id":176,"country_code":"PL","latitude":"52.72493000","longitude":"14.56901000"},{"id":"85922","name":"Borne Sulinowo","state_id":1633,"state_code":"ZP","country_id":176,"country_code":"PL","latitude":"53.57661000","longitude":"16.53395000"},{"id":"85950","name":"Brojce","state_id":1633,"state_code":"ZP","country_id":176,"country_code":"PL","latitude":"53.95705000","longitude":"15.35975000"},{"id":"86019","name":"Cedynia","state_id":1633,"state_code":"ZP","country_id":176,"country_code":"PL","latitude":"52.87931000","longitude":"14.20249000"},{"id":"86024","name":"Cerkwica","state_id":1633,"state_code":"ZP","country_id":176,"country_code":"PL","latitude":"54.00777000","longitude":"15.10903000"},{"id":"86040","name":"Chociwel","state_id":1633,"state_code":"ZP","country_id":176,"country_code":"PL","latitude":"53.46696000","longitude":"15.33342000"},{"id":"86048","name":"Chojna","state_id":1633,"state_code":"ZP","country_id":176,"country_code":"PL","latitude":"52.96389000","longitude":"14.42797000"},{"id":"86056","name":"Choszczno","state_id":1633,"state_code":"ZP","country_id":176,"country_code":"PL","latitude":"53.16905000","longitude":"15.42054000"},{"id":"86101","name":"Czaplinek","state_id":1633,"state_code":"ZP","country_id":176,"country_code":"PL","latitude":"53.55775000","longitude":"16.23333000"},{"id":"86151","name":"Czlopa","state_id":1633,"state_code":"ZP","country_id":176,"country_code":"PL","latitude":"53.08856000","longitude":"16.12098000"},{"id":"86158","name":"Darlowo","state_id":1633,"state_code":"ZP","country_id":176,"country_code":"PL","latitude":"54.42095000","longitude":"16.41070000"},{"id":"86252","name":"Debno","state_id":1633,"state_code":"ZP","country_id":176,"country_code":"PL","latitude":"52.73901000","longitude":"14.69800000"},{"id":"86168","name":"Dobra","state_id":1633,"state_code":"ZP","country_id":176,"country_code":"PL","latitude":"53.58625000","longitude":"15.30977000"},{"id":"86176","name":"Dobrzany","state_id":1633,"state_code":"ZP","country_id":176,"country_code":"PL","latitude":"53.35914000","longitude":"15.42886000"},{"id":"86181","name":"Dolice","state_id":1633,"state_code":"ZP","country_id":176,"country_code":"PL","latitude":"53.19081000","longitude":"15.20267000"},{"id":"86193","name":"Drawno","state_id":1633,"state_code":"ZP","country_id":176,"country_code":"PL","latitude":"53.21986000","longitude":"15.75946000"},{"id":"86195","name":"Drawsko Pomorskie","state_id":1633,"state_code":"ZP","country_id":176,"country_code":"PL","latitude":"53.53056000","longitude":"15.80967000"},{"id":"86212","name":"Dygowo","state_id":1633,"state_code":"ZP","country_id":176,"country_code":"PL","latitude":"54.13031000","longitude":"15.71993000"},{"id":"86230","name":"Dziwn\u00f3w","state_id":1633,"state_code":"ZP","country_id":176,"country_code":"PL","latitude":"54.02819000","longitude":"14.76691000"},{"id":"86361","name":"Goscino","state_id":1633,"state_code":"ZP","country_id":176,"country_code":"PL","latitude":"54.05123000","longitude":"15.65256000"},{"id":"86325","name":"Golczewo","state_id":1633,"state_code":"ZP","country_id":176,"country_code":"PL","latitude":"53.82426000","longitude":"14.97847000"},{"id":"86326","name":"Goleni\u00f3w","state_id":1633,"state_code":"ZP","country_id":176,"country_code":"PL","latitude":"53.56392000","longitude":"14.82854000"},{"id":"86390","name":"Gryfice","state_id":1633,"state_code":"ZP","country_id":176,"country_code":"PL","latitude":"53.91650000","longitude":"15.20027000"},{"id":"86391","name":"Gryfino","state_id":1633,"state_code":"ZP","country_id":176,"country_code":"PL","latitude":"53.25243000","longitude":"14.48831000"},{"id":"86395","name":"Grzmiaca","state_id":1633,"state_code":"ZP","country_id":176,"country_code":"PL","latitude":"53.83734000","longitude":"16.43512000"},{"id":"86397","name":"Grzybowo","state_id":1633,"state_code":"ZP","country_id":176,"country_code":"PL","latitude":"54.15892000","longitude":"15.48557000"},{"id":"86477","name":"Insko","state_id":1633,"state_code":"ZP","country_id":176,"country_code":"PL","latitude":"53.43613000","longitude":"15.55020000"},{"id":"86587","name":"Kalisz Pomorski","state_id":1633,"state_code":"ZP","country_id":176,"country_code":"PL","latitude":"53.29908000","longitude":"15.90631000"},{"id":"86601","name":"Kamien Pomorski","state_id":1633,"state_code":"ZP","country_id":176,"country_code":"PL","latitude":"53.96849000","longitude":"14.77262000"},{"id":"86612","name":"Karlino","state_id":1633,"state_code":"ZP","country_id":176,"country_code":"PL","latitude":"54.03515000","longitude":"15.87739000"},{"id":"86613","name":"Karnice","state_id":1633,"state_code":"ZP","country_id":176,"country_code":"PL","latitude":"54.03001000","longitude":"15.05496000"},{"id":"86742","name":"Kolbaskowo","state_id":1633,"state_code":"ZP","country_id":176,"country_code":"PL","latitude":"53.33641000","longitude":"14.43835000"},{"id":"86746","name":"Kolobrzeg","state_id":1633,"state_code":"ZP","country_id":176,"country_code":"PL","latitude":"54.17565000","longitude":"15.58342000"},{"id":"86665","name":"Kobylanka","state_id":1633,"state_code":"ZP","country_id":176,"country_code":"PL","latitude":"53.34492000","longitude":"14.87143000"},{"id":"86716","name":"Koszalin","state_id":1633,"state_code":"ZP","country_id":176,"country_code":"PL","latitude":"54.19438000","longitude":"16.17222000"},{"id":"86826","name":"Krzecin","state_id":1633,"state_code":"ZP","country_id":176,"country_code":"PL","latitude":"53.08160000","longitude":"15.49008000"},{"id":"86906","name":"Lipiany","state_id":1633,"state_code":"ZP","country_id":176,"country_code":"PL","latitude":"53.00336000","longitude":"14.96919000"},{"id":"86993","name":"Marianowo","state_id":1633,"state_code":"ZP","country_id":176,"country_code":"PL","latitude":"53.38287000","longitude":"15.26645000"},{"id":"87000","name":"Maszewo","state_id":1633,"state_code":"ZP","country_id":176,"country_code":"PL","latitude":"53.49615000","longitude":"15.06166000"},{"id":"87066","name":"Miedzyzdroje","state_id":1633,"state_code":"ZP","country_id":176,"country_code":"PL","latitude":"53.92921000","longitude":"14.45097000"},{"id":"87037","name":"Mielno","state_id":1633,"state_code":"ZP","country_id":176,"country_code":"PL","latitude":"54.26086000","longitude":"16.06210000"},{"id":"87040","name":"Mieszkowice","state_id":1633,"state_code":"ZP","country_id":176,"country_code":"PL","latitude":"52.78730000","longitude":"14.49346000"},{"id":"87055","name":"Miroslawiec","state_id":1633,"state_code":"ZP","country_id":176,"country_code":"PL","latitude":"53.34071000","longitude":"16.08793000"},{"id":"87092","name":"Moryn","state_id":1633,"state_code":"ZP","country_id":176,"country_code":"PL","latitude":"52.85769000","longitude":"14.39297000"},{"id":"87095","name":"Mosty","state_id":1633,"state_code":"ZP","country_id":176,"country_code":"PL","latitude":"53.54796000","longitude":"14.95634000"},{"id":"87105","name":"Mrzezyno","state_id":1633,"state_code":"ZP","country_id":176,"country_code":"PL","latitude":"54.14384000","longitude":"15.29142000"},{"id":"87124","name":"Myslib\u00f3rz","state_id":1633,"state_code":"ZP","country_id":176,"country_code":"PL","latitude":"52.92382000","longitude":"14.86785000"},{"id":"87192","name":"Nowe Warpno","state_id":1633,"state_code":"ZP","country_id":176,"country_code":"PL","latitude":"53.72256000","longitude":"14.28961000"},{"id":"87194","name":"Nowogard","state_id":1633,"state_code":"ZP","country_id":176,"country_code":"PL","latitude":"53.67437000","longitude":"15.11630000"},{"id":"87198","name":"Nowogr\u00f3dek Pomorski","state_id":1633,"state_code":"ZP","country_id":176,"country_code":"PL","latitude":"52.91149000","longitude":"15.02947000"},{"id":"87293","name":"Osina","state_id":1633,"state_code":"ZP","country_id":176,"country_code":"PL","latitude":"53.60473000","longitude":"15.01230000"},{"id":"87866","name":"Ploty","state_id":1633,"state_code":"ZP","country_id":176,"country_code":"PL","latitude":"53.80182000","longitude":"15.26670000"},{"id":"87367","name":"Pelczyce","state_id":1633,"state_code":"ZP","country_id":176,"country_code":"PL","latitude":"53.04354000","longitude":"15.30447000"},{"id":"87777","name":"Polczyn-Zdr\u00f3j","state_id":1633,"state_code":"ZP","country_id":176,"country_code":"PL","latitude":"53.76424000","longitude":"16.09574000"},{"id":"87411","name":"Pobierowo","state_id":1633,"state_code":"ZP","country_id":176,"country_code":"PL","latitude":"54.06100000","longitude":"14.93282000"},{"id":"87432","name":"Polan\u00f3w","state_id":1633,"state_code":"ZP","country_id":176,"country_code":"PL","latitude":"54.11930000","longitude":"16.68512000"},{"id":"87434","name":"Police","state_id":1633,"state_code":"ZP","country_id":176,"country_code":"PL","latitude":"53.55214000","longitude":"14.57182000"},{"id":"87749","name":"Powiat lobeski","state_id":1633,"state_code":"ZP","country_id":176,"country_code":"PL","latitude":"53.67294000","longitude":"15.47237000"},{"id":"87761","name":"Powiat swidwinski","state_id":1633,"state_code":"ZP","country_id":176,"country_code":"PL","latitude":"53.80758000","longitude":"15.89859000"},{"id":"87463","name":"Powiat bialogardzki","state_id":1633,"state_code":"ZP","country_id":176,"country_code":"PL","latitude":"53.97686000","longitude":"16.08855000"},{"id":"87486","name":"Powiat choszczenski","state_id":1633,"state_code":"ZP","country_id":176,"country_code":"PL","latitude":"53.14277000","longitude":"15.62112000"},{"id":"87493","name":"Powiat drawski","state_id":1633,"state_code":"ZP","country_id":176,"country_code":"PL","latitude":"53.44743000","longitude":"16.02132000"},{"id":"87505","name":"Powiat goleniowski","state_id":1633,"state_code":"ZP","country_id":176,"country_code":"PL","latitude":"53.61035000","longitude":"14.85421000"},{"id":"87517","name":"Powiat gryfinski","state_id":1633,"state_code":"ZP","country_id":176,"country_code":"PL","latitude":"53.02298000","longitude":"14.49912000"},{"id":"87516","name":"Powiat gryficki","state_id":1633,"state_code":"ZP","country_id":176,"country_code":"PL","latitude":"53.94293000","longitude":"15.19082000"},{"id":"87535","name":"Powiat kamienski","state_id":1633,"state_code":"ZP","country_id":176,"country_code":"PL","latitude":"53.91096000","longitude":"14.74420000"},{"id":"87547","name":"Powiat kolobrzeski","state_id":1633,"state_code":"ZP","country_id":176,"country_code":"PL","latitude":"54.05013000","longitude":"15.61394000"},{"id":"87545","name":"Powiat koszalinski","state_id":1633,"state_code":"ZP","country_id":176,"country_code":"PL","latitude":"54.10970000","longitude":"16.30231000"},{"id":"87595","name":"Powiat mysliborski","state_id":1633,"state_code":"ZP","country_id":176,"country_code":"PL","latitude":"52.85474000","longitude":"14.88454000"},{"id":"87638","name":"Powiat policki","state_id":1633,"state_code":"ZP","country_id":176,"country_code":"PL","latitude":"53.53114000","longitude":"14.45104000"},{"id":"87652","name":"Powiat pyrzycki","state_id":1633,"state_code":"ZP","country_id":176,"country_code":"PL","latitude":"53.12558000","longitude":"14.94045000"},{"id":"87697","name":"Powiat slawienski","state_id":1633,"state_code":"ZP","country_id":176,"country_code":"PL","latitude":"54.37910000","longitude":"16.53986000"},{"id":"87681","name":"Powiat stargardzki","state_id":1633,"state_code":"ZP","country_id":176,"country_code":"PL","latitude":"53.31520000","longitude":"15.22684000"},{"id":"87692","name":"Powiat szczecinecki","state_id":1633,"state_code":"ZP","country_id":176,"country_code":"PL","latitude":"53.73766000","longitude":"16.58957000"},{"id":"87715","name":"Powiat walecki","state_id":1633,"state_code":"ZP","country_id":176,"country_code":"PL","latitude":"53.23633000","longitude":"16.33851000"},{"id":"87805","name":"Przeclaw","state_id":1633,"state_code":"ZP","country_id":176,"country_code":"PL","latitude":"53.37447000","longitude":"14.47251000"},{"id":"87810","name":"Przelewice","state_id":1633,"state_code":"ZP","country_id":176,"country_code":"PL","latitude":"53.10413000","longitude":"15.07625000"},{"id":"87819","name":"Przybiern\u00f3w","state_id":1633,"state_code":"ZP","country_id":176,"country_code":"PL","latitude":"53.75780000","longitude":"14.78529000"},{"id":"87855","name":"Pyrzyce","state_id":1633,"state_code":"ZP","country_id":176,"country_code":"PL","latitude":"53.14620000","longitude":"14.89257000"},{"id":"87891","name":"Radowo Male","state_id":1633,"state_code":"ZP","country_id":176,"country_code":"PL","latitude":"53.66575000","longitude":"15.44789000"},{"id":"88035","name":"Rabino","state_id":1633,"state_code":"ZP","country_id":176,"country_code":"PL","latitude":"53.86630000","longitude":"15.94485000"},{"id":"87920","name":"Recz","state_id":1633,"state_code":"ZP","country_id":176,"country_code":"PL","latitude":"53.25989000","longitude":"15.54713000"},{"id":"87938","name":"Resko","state_id":1633,"state_code":"ZP","country_id":176,"country_code":"PL","latitude":"53.77307000","longitude":"15.40607000"},{"id":"87940","name":"Rewal","state_id":1633,"state_code":"ZP","country_id":176,"country_code":"PL","latitude":"54.08120000","longitude":"15.01471000"},{"id":"88010","name":"Ryman","state_id":1633,"state_code":"ZP","country_id":176,"country_code":"PL","latitude":"53.94391000","longitude":"15.52866000"},{"id":"88339","name":"Slawno","state_id":1633,"state_code":"ZP","country_id":176,"country_code":"PL","latitude":"54.36276000","longitude":"16.67888000"},{"id":"88340","name":"Slawoborze","state_id":1633,"state_code":"ZP","country_id":176,"country_code":"PL","latitude":"53.88992000","longitude":"15.70667000"},{"id":"88059","name":"Sian\u00f3w","state_id":1633,"state_code":"ZP","country_id":176,"country_code":"PL","latitude":"54.22646000","longitude":"16.29127000"},{"id":"88174","name":"Stara Dabrowa","state_id":1633,"state_code":"ZP","country_id":176,"country_code":"PL","latitude":"53.42191000","longitude":"15.14405000"},{"id":"88183","name":"Stare Czarnowo","state_id":1633,"state_code":"ZP","country_id":176,"country_code":"PL","latitude":"53.27861000","longitude":"14.77906000"},{"id":"88189","name":"Stargard","state_id":1633,"state_code":"ZP","country_id":176,"country_code":"PL","latitude":"53.33672000","longitude":"15.04990000"},{"id":"88203","name":"Stepnica","state_id":1633,"state_code":"ZP","country_id":176,"country_code":"PL","latitude":"53.65187000","longitude":"14.62555000"},{"id":"88249","name":"Suchan","state_id":1633,"state_code":"ZP","country_id":176,"country_code":"PL","latitude":"53.28003000","longitude":"15.32541000"},{"id":"88293","name":"Szczecin","state_id":1633,"state_code":"ZP","country_id":176,"country_code":"PL","latitude":"53.42894000","longitude":"14.55302000"},{"id":"88294","name":"Szczecinek","state_id":1633,"state_code":"ZP","country_id":176,"country_code":"PL","latitude":"53.70791000","longitude":"16.69937000"},{"id":"88400","name":"Trzcinsko Zdr\u00f3j","state_id":1633,"state_code":"ZP","country_id":176,"country_code":"PL","latitude":"52.96487000","longitude":"14.60667000"},{"id":"88401","name":"Trzebiat\u00f3w","state_id":1633,"state_code":"ZP","country_id":176,"country_code":"PL","latitude":"54.06147000","longitude":"15.26475000"},{"id":"88420","name":"Tuczno","state_id":1633,"state_code":"ZP","country_id":176,"country_code":"PL","latitude":"53.19374000","longitude":"16.15368000"},{"id":"88435","name":"Tychowo","state_id":1633,"state_code":"ZP","country_id":176,"country_code":"PL","latitude":"53.92774000","longitude":"16.25771000"},{"id":"88463","name":"Ustronie Morskie","state_id":1633,"state_code":"ZP","country_id":176,"country_code":"PL","latitude":"54.21517000","longitude":"15.75568000"},{"id":"88488","name":"Walcz","state_id":1633,"state_code":"ZP","country_id":176,"country_code":"PL","latitude":"53.27787000","longitude":"16.47122000"},{"id":"88479","name":"Warnice","state_id":1633,"state_code":"ZP","country_id":176,"country_code":"PL","latitude":"53.25376000","longitude":"14.99402000"},{"id":"88642","name":"Wegorzyno","state_id":1633,"state_code":"ZP","country_id":176,"country_code":"PL","latitude":"53.54101000","longitude":"15.55964000"},{"id":"88496","name":"Widuchowa","state_id":1633,"state_code":"ZP","country_id":176,"country_code":"PL","latitude":"53.12693000","longitude":"14.39074000"},{"id":"88525","name":"Wierzchowo","state_id":1633,"state_code":"ZP","country_id":176,"country_code":"PL","latitude":"53.46013000","longitude":"16.09961000"},{"id":"88596","name":"Wolin","state_id":1633,"state_code":"ZP","country_id":176,"country_code":"PL","latitude":"53.84214000","longitude":"14.61465000"},{"id":"88742","name":"Zlocieniec","state_id":1633,"state_code":"ZP","country_id":176,"country_code":"PL","latitude":"53.53286000","longitude":"16.01132000"}]