[{"id":"88840","name":"Sr\u00f3dmiescie","state_id":1637,"state_code":"MZ","country_id":176,"country_code":"PL","latitude":"52.22904000","longitude":"21.01644000"},{"id":"88852","name":"Swiercze","state_id":1637,"state_code":"MZ","country_id":176,"country_code":"PL","latitude":"52.67055000","longitude":"20.76390000"},{"id":"88762","name":"Lajski","state_id":1637,"state_code":"MZ","country_id":176,"country_code":"PL","latitude":"52.42873000","longitude":"20.94946000"},{"id":"88771","name":"Laskarzew","state_id":1637,"state_code":"MZ","country_id":176,"country_code":"PL","latitude":"51.78993000","longitude":"21.59122000"},{"id":"88811","name":"Lack","state_id":1637,"state_code":"MZ","country_id":176,"country_code":"PL","latitude":"52.46621000","longitude":"19.61137000"},{"id":"88782","name":"Loch\u00f3w","state_id":1637,"state_code":"MZ","country_id":176,"country_code":"PL","latitude":"52.53076000","longitude":"21.68158000"},{"id":"88785","name":"Lomianki","state_id":1637,"state_code":"MZ","country_id":176,"country_code":"PL","latitude":"52.33413000","longitude":"20.88602000"},{"id":"88792","name":"Losice","state_id":1637,"state_code":"MZ","country_id":176,"country_code":"PL","latitude":"52.21129000","longitude":"22.71801000"},{"id":"88807","name":"Lyse","state_id":1637,"state_code":"MZ","country_id":176,"country_code":"PL","latitude":"53.36443000","longitude":"21.56487000"},{"id":"88868","name":"Zabia Wola","state_id":1637,"state_code":"MZ","country_id":176,"country_code":"PL","latitude":"52.03169000","longitude":"20.69112000"},{"id":"88869","name":"Zabieniec","state_id":1637,"state_code":"MZ","country_id":176,"country_code":"PL","latitude":"52.05856000","longitude":"21.04817000"},{"id":"88882","name":"Zelech\u00f3w","state_id":1637,"state_code":"MZ","country_id":176,"country_code":"PL","latitude":"51.81051000","longitude":"21.89721000"},{"id":"88889","name":"Zoliborz","state_id":1637,"state_code":"MZ","country_id":176,"country_code":"PL","latitude":"52.26896000","longitude":"20.98644000"},{"id":"88895","name":"Zuromin","state_id":1637,"state_code":"MZ","country_id":176,"country_code":"PL","latitude":"53.06611000","longitude":"19.90894000"},{"id":"88899","name":"Zyrard\u00f3w","state_id":1637,"state_code":"MZ","country_id":176,"country_code":"PL","latitude":"52.04880000","longitude":"20.44599000"},{"id":"85793","name":"Baboszewo","state_id":1637,"state_code":"MZ","country_id":176,"country_code":"PL","latitude":"52.68070000","longitude":"20.25527000"},{"id":"85801","name":"Baniocha","state_id":1637,"state_code":"MZ","country_id":176,"country_code":"PL","latitude":"52.01653000","longitude":"21.13984000"},{"id":"85802","name":"Baranowo","state_id":1637,"state_code":"MZ","country_id":176,"country_code":"PL","latitude":"53.17554000","longitude":"21.29803000"},{"id":"86017","name":"Bled\u00f3w","state_id":1637,"state_code":"MZ","country_id":176,"country_code":"PL","latitude":"51.77767000","longitude":"20.69798000"},{"id":"86016","name":"Blonie","state_id":1637,"state_code":"MZ","country_id":176,"country_code":"PL","latitude":"52.19849000","longitude":"20.61709000"},{"id":"85824","name":"Bemowo","state_id":1637,"state_code":"MZ","country_id":176,"country_code":"PL","latitude":"52.25460000","longitude":"20.90844000"},{"id":"85834","name":"Biala","state_id":1637,"state_code":"MZ","country_id":176,"country_code":"PL","latitude":"52.60524000","longitude":"19.64956000"},{"id":"85846","name":"Bialoleka","state_id":1637,"state_code":"MZ","country_id":176,"country_code":"PL","latitude":"52.32127000","longitude":"20.97204000"},{"id":"85843","name":"Bialobrzegi","state_id":1637,"state_code":"MZ","country_id":176,"country_code":"PL","latitude":"51.64695000","longitude":"20.95041000"},{"id":"85870","name":"Biezun","state_id":1637,"state_code":"MZ","country_id":176,"country_code":"PL","latitude":"52.96107000","longitude":"19.88976000"},{"id":"85852","name":"Bielany","state_id":1637,"state_code":"MZ","country_id":176,"country_code":"PL","latitude":"52.29242000","longitude":"20.93531000"},{"id":"85859","name":"Bielsk","state_id":1637,"state_code":"MZ","country_id":176,"country_code":"PL","latitude":"52.67180000","longitude":"19.80500000"},{"id":"85863","name":"Bieniewice","state_id":1637,"state_code":"MZ","country_id":176,"country_code":"PL","latitude":"52.18268000","longitude":"20.56306000"},{"id":"85893","name":"Bodzan\u00f3w","state_id":1637,"state_code":"MZ","country_id":176,"country_code":"PL","latitude":"52.49992000","longitude":"20.02945000"},{"id":"85900","name":"Boguty-Pianki","state_id":1637,"state_code":"MZ","country_id":176,"country_code":"PL","latitude":"52.71680000","longitude":"22.41546000"},{"id":"85921","name":"Borkowice","state_id":1637,"state_code":"MZ","country_id":176,"country_code":"PL","latitude":"51.32025000","longitude":"20.68339000"},{"id":"85925","name":"Borowie","state_id":1637,"state_code":"MZ","country_id":176,"country_code":"PL","latitude":"51.94908000","longitude":"21.76580000"},{"id":"85938","name":"Branszczyk","state_id":1637,"state_code":"MZ","country_id":176,"country_code":"PL","latitude":"52.62931000","longitude":"21.58745000"},{"id":"85942","name":"Broch\u00f3w","state_id":1637,"state_code":"MZ","country_id":176,"country_code":"PL","latitude":"52.31950000","longitude":"20.26257000"},{"id":"85948","name":"Brody-Parcele","state_id":1637,"state_code":"MZ","country_id":176,"country_code":"PL","latitude":"52.47797000","longitude":"20.74974000"},{"id":"85951","name":"Brok","state_id":1637,"state_code":"MZ","country_id":176,"country_code":"PL","latitude":"52.69948000","longitude":"21.85704000"},{"id":"85955","name":"Brudzen Duzy","state_id":1637,"state_code":"MZ","country_id":176,"country_code":"PL","latitude":"52.66884000","longitude":"19.50399000"},{"id":"85957","name":"Brwin\u00f3w","state_id":1637,"state_code":"MZ","country_id":176,"country_code":"PL","latitude":"52.14269000","longitude":"20.71697000"},{"id":"85993","name":"Bulkowo","state_id":1637,"state_code":"MZ","country_id":176,"country_code":"PL","latitude":"52.54087000","longitude":"20.11889000"},{"id":"86020","name":"Cegl\u00f3w","state_id":1637,"state_code":"MZ","country_id":176,"country_code":"PL","latitude":"52.14782000","longitude":"21.73739000"},{"id":"86022","name":"Celestyn\u00f3w","state_id":1637,"state_code":"MZ","country_id":176,"country_code":"PL","latitude":"52.06093000","longitude":"21.39107000"},{"id":"86023","name":"Ceran\u00f3w","state_id":1637,"state_code":"MZ","country_id":176,"country_code":"PL","latitude":"52.63082000","longitude":"22.22826000"},{"id":"86033","name":"Chlewiska","state_id":1637,"state_code":"MZ","country_id":176,"country_code":"PL","latitude":"51.24376000","longitude":"20.76871000"},{"id":"86054","name":"Chorzele","state_id":1637,"state_code":"MZ","country_id":176,"country_code":"PL","latitude":"53.26075000","longitude":"20.89728000"},{"id":"86057","name":"Chotcza","state_id":1637,"state_code":"MZ","country_id":176,"country_code":"PL","latitude":"51.24043000","longitude":"21.77662000"},{"id":"86070","name":"Chyn\u00f3w","state_id":1637,"state_code":"MZ","country_id":176,"country_code":"PL","latitude":"51.90425000","longitude":"21.08208000"},{"id":"86077","name":"Ciechan\u00f3w","state_id":1637,"state_code":"MZ","country_id":176,"country_code":"PL","latitude":"52.88141000","longitude":"20.61996000"},{"id":"86083","name":"Ciepiel\u00f3w","state_id":1637,"state_code":"MZ","country_id":176,"country_code":"PL","latitude":"51.24838000","longitude":"21.57475000"},{"id":"86110","name":"Czarnia","state_id":1637,"state_code":"MZ","country_id":176,"country_code":"PL","latitude":"53.35614000","longitude":"21.19520000"},{"id":"86131","name":"Czernice Borowe","state_id":1637,"state_code":"MZ","country_id":176,"country_code":"PL","latitude":"53.03197000","longitude":"20.71944000"},{"id":"86142","name":"Czerwinsk Nad Wisla","state_id":1637,"state_code":"MZ","country_id":176,"country_code":"PL","latitude":"52.39828000","longitude":"20.30960000"},{"id":"86140","name":"Czerwin","state_id":1637,"state_code":"MZ","country_id":176,"country_code":"PL","latitude":"52.94905000","longitude":"21.75842000"},{"id":"86144","name":"Czerwonka","state_id":1637,"state_code":"MZ","country_id":176,"country_code":"PL","latitude":"52.89254000","longitude":"21.21494000"},{"id":"86260","name":"Dlugosiodlo","state_id":1637,"state_code":"MZ","country_id":176,"country_code":"PL","latitude":"52.75998000","longitude":"21.59183000"},{"id":"86244","name":"Dabr\u00f3wka","state_id":1637,"state_code":"MZ","country_id":176,"country_code":"PL","latitude":"52.48388000","longitude":"21.29794000"},{"id":"86246","name":"Debe Wielkie","state_id":1637,"state_code":"MZ","country_id":176,"country_code":"PL","latitude":"52.19961000","longitude":"21.44334000"},{"id":"86170","name":"Dobre","state_id":1637,"state_code":"MZ","country_id":176,"country_code":"PL","latitude":"52.32097000","longitude":"21.67881000"},{"id":"86183","name":"Domanice","state_id":1637,"state_code":"MZ","country_id":176,"country_code":"PL","latitude":"52.03739000","longitude":"22.17642000"},{"id":"86198","name":"Drobin","state_id":1637,"state_code":"MZ","country_id":176,"country_code":"PL","latitude":"52.73775000","longitude":"19.98928000"},{"id":"86206","name":"Duczki","state_id":1637,"state_code":"MZ","country_id":176,"country_code":"PL","latitude":"52.36271000","longitude":"21.29047000"},{"id":"86219","name":"Dziekan\u00f3w Lesny","state_id":1637,"state_code":"MZ","country_id":176,"country_code":"PL","latitude":"52.35243000","longitude":"20.85124000"},{"id":"86224","name":"Dzierzaznia","state_id":1637,"state_code":"MZ","country_id":176,"country_code":"PL","latitude":"52.62811000","longitude":"20.23364000"},{"id":"86222","name":"Dzierzgowo","state_id":1637,"state_code":"MZ","country_id":176,"country_code":"PL","latitude":"53.15279000","longitude":"20.66322000"},{"id":"86281","name":"Garbatka-Letnisko","state_id":1637,"state_code":"MZ","country_id":176,"country_code":"PL","latitude":"51.48320000","longitude":"21.61079000"},{"id":"86286","name":"Garwolin","state_id":1637,"state_code":"MZ","country_id":176,"country_code":"PL","latitude":"51.89747000","longitude":"21.61466000"},{"id":"86410","name":"G\u00f3ra Kalwaria","state_id":1637,"state_code":"MZ","country_id":176,"country_code":"PL","latitude":"51.97653000","longitude":"21.21537000"},{"id":"86418","name":"G\u00f3rzno","state_id":1637,"state_code":"MZ","country_id":176,"country_code":"PL","latitude":"51.84681000","longitude":"21.70933000"},{"id":"86421","name":"G\u00f3zd","state_id":1637,"state_code":"MZ","country_id":176,"country_code":"PL","latitude":"51.37832000","longitude":"21.37914000"},{"id":"86422","name":"Gabin","state_id":1637,"state_code":"MZ","country_id":176,"country_code":"PL","latitude":"52.39849000","longitude":"19.73509000"},{"id":"86425","name":"Gasocin","state_id":1637,"state_code":"MZ","country_id":176,"country_code":"PL","latitude":"52.73754000","longitude":"20.71180000"},{"id":"86297","name":"Gielni\u00f3w","state_id":1637,"state_code":"MZ","country_id":176,"country_code":"PL","latitude":"51.40076000","longitude":"20.48126000"},{"id":"86306","name":"Glinojeck","state_id":1637,"state_code":"MZ","country_id":176,"country_code":"PL","latitude":"52.81983000","longitude":"20.29198000"},{"id":"86358","name":"Golymin-Osrodek","state_id":1637,"state_code":"MZ","country_id":176,"country_code":"PL","latitude":"52.80800000","longitude":"20.87325000"},{"id":"86345","name":"Gostynin","state_id":1637,"state_code":"MZ","country_id":176,"country_code":"PL","latitude":"52.42938000","longitude":"19.46194000"},{"id":"86349","name":"Goszczyn","state_id":1637,"state_code":"MZ","country_id":176,"country_code":"PL","latitude":"51.73187000","longitude":"20.85154000"},{"id":"86351","name":"Goworowo","state_id":1637,"state_code":"MZ","country_id":176,"country_code":"PL","latitude":"52.90083000","longitude":"21.55578000"},{"id":"86353","name":"Gozdowo","state_id":1637,"state_code":"MZ","country_id":176,"country_code":"PL","latitude":"52.72455000","longitude":"19.68501000"},{"id":"86371","name":"Granica","state_id":1637,"state_code":"MZ","country_id":176,"country_code":"PL","latitude":"52.13359000","longitude":"20.80313000"},{"id":"86399","name":"Gr\u00f3jec","state_id":1637,"state_code":"MZ","country_id":176,"country_code":"PL","latitude":"51.86252000","longitude":"20.86757000"},{"id":"86400","name":"Grebk\u00f3w","state_id":1637,"state_code":"MZ","country_id":176,"country_code":"PL","latitude":"52.26931000","longitude":"21.90974000"},{"id":"86375","name":"Grodzisk Mazowiecki","state_id":1637,"state_code":"MZ","country_id":176,"country_code":"PL","latitude":"52.10387000","longitude":"20.63370000"},{"id":"86385","name":"Grudusk","state_id":1637,"state_code":"MZ","country_id":176,"country_code":"PL","latitude":"53.05845000","longitude":"20.62494000"},{"id":"86405","name":"Guz\u00f3w","state_id":1637,"state_code":"MZ","country_id":176,"country_code":"PL","latitude":"52.11626000","longitude":"20.33672000"},{"id":"86407","name":"Gzy","state_id":1637,"state_code":"MZ","country_id":176,"country_code":"PL","latitude":"52.74045000","longitude":"20.94372000"},{"id":"86440","name":"Halin\u00f3w","state_id":1637,"state_code":"MZ","country_id":176,"country_code":"PL","latitude":"52.22880000","longitude":"21.35510000"},{"id":"86449","name":"Horn\u00f3wek","state_id":1637,"state_code":"MZ","country_id":176,"country_code":"PL","latitude":"52.28638000","longitude":"20.80793000"},{"id":"86475","name":"Il\u00f3w","state_id":1637,"state_code":"MZ","country_id":176,"country_code":"PL","latitude":"52.33953000","longitude":"20.02730000"},{"id":"86476","name":"Ilza","state_id":1637,"state_code":"MZ","country_id":176,"country_code":"PL","latitude":"51.16313000","longitude":"21.23979000"},{"id":"86467","name":"Izabelin","state_id":1637,"state_code":"MZ","country_id":176,"country_code":"PL","latitude":"52.29992000","longitude":"20.81729000"},{"id":"86482","name":"Jablonna","state_id":1637,"state_code":"MZ","country_id":176,"country_code":"PL","latitude":"52.37885000","longitude":"20.91745000"},{"id":"86484","name":"Jablonna Lacka","state_id":1637,"state_code":"MZ","country_id":176,"country_code":"PL","latitude":"52.47664000","longitude":"22.44228000"},{"id":"86489","name":"Jad\u00f3w","state_id":1637,"state_code":"MZ","country_id":176,"country_code":"PL","latitude":"52.47849000","longitude":"21.63199000"},{"id":"86492","name":"Jakub\u00f3w","state_id":1637,"state_code":"MZ","country_id":176,"country_code":"PL","latitude":"52.21965000","longitude":"21.68032000"},{"id":"86512","name":"Jasienica","state_id":1637,"state_code":"MZ","country_id":176,"country_code":"PL","latitude":"52.41415000","longitude":"21.41150000"},{"id":"86516","name":"Jasieniec","state_id":1637,"state_code":"MZ","country_id":176,"country_code":"PL","latitude":"51.82104000","longitude":"20.94099000"},{"id":"86523","name":"Jastrzab","state_id":1637,"state_code":"MZ","country_id":176,"country_code":"PL","latitude":"51.24725000","longitude":"20.94758000"},{"id":"86525","name":"Jastrzebia","state_id":1637,"state_code":"MZ","country_id":176,"country_code":"PL","latitude":"51.49742000","longitude":"21.23709000"},{"id":"86576","name":"J\u00f3zef\u00f3w","state_id":1637,"state_code":"MZ","country_id":176,"country_code":"PL","latitude":"52.13707000","longitude":"21.23589000"},{"id":"86574","name":"J\u00f3zefoslaw","state_id":1637,"state_code":"MZ","country_id":176,"country_code":"PL","latitude":"52.10050000","longitude":"21.04629000"},{"id":"86542","name":"Jedlinsk","state_id":1637,"state_code":"MZ","country_id":176,"country_code":"PL","latitude":"51.51400000","longitude":"21.11577000"},{"id":"86543","name":"Jedlnia-Letnisko","state_id":1637,"state_code":"MZ","country_id":176,"country_code":"PL","latitude":"51.43074000","longitude":"21.33536000"},{"id":"86544","name":"Jednorozec","state_id":1637,"state_code":"MZ","country_id":176,"country_code":"PL","latitude":"53.14116000","longitude":"21.05161000"},{"id":"86566","name":"Joniec","state_id":1637,"state_code":"MZ","country_id":176,"country_code":"PL","latitude":"52.60128000","longitude":"20.58177000"},{"id":"86628","name":"Kaluszyn","state_id":1637,"state_code":"MZ","country_id":176,"country_code":"PL","latitude":"52.20669000","longitude":"21.80838000"},{"id":"86579","name":"Kabaty","state_id":1637,"state_code":"MZ","country_id":176,"country_code":"PL","latitude":"52.13012000","longitude":"21.08148000"},{"id":"86582","name":"Kadzidlo","state_id":1637,"state_code":"MZ","country_id":176,"country_code":"PL","latitude":"53.23435000","longitude":"21.46454000"},{"id":"86605","name":"Kampinos","state_id":1637,"state_code":"MZ","country_id":176,"country_code":"PL","latitude":"52.26837000","longitude":"20.46307000"},{"id":"86609","name":"Karczew","state_id":1637,"state_code":"MZ","country_id":176,"country_code":"PL","latitude":"52.07655000","longitude":"21.24962000"},{"id":"86614","name":"Karniewo","state_id":1637,"state_code":"MZ","country_id":176,"country_code":"PL","latitude":"52.83700000","longitude":"20.98886000"},{"id":"86624","name":"Kazan\u00f3w","state_id":1637,"state_code":"MZ","country_id":176,"country_code":"PL","latitude":"51.27593000","longitude":"21.46737000"},{"id":"86637","name":"Kielpin","state_id":1637,"state_code":"MZ","country_id":176,"country_code":"PL","latitude":"52.35796000","longitude":"20.86214000"},{"id":"86644","name":"Klemb\u00f3w","state_id":1637,"state_code":"MZ","country_id":176,"country_code":"PL","latitude":"52.40650000","longitude":"21.33176000"},{"id":"86657","name":"Klw\u00f3w","state_id":1637,"state_code":"MZ","country_id":176,"country_code":"PL","latitude":"51.53448000","longitude":"20.63644000"},{"id":"86743","name":"Kolbiel","state_id":1637,"state_code":"MZ","country_id":176,"country_code":"PL","latitude":"52.06431000","longitude":"21.48153000"},{"id":"86669","name":"Kobylka","state_id":1637,"state_code":"MZ","country_id":176,"country_code":"PL","latitude":"52.33953000","longitude":"21.19589000"},{"id":"86687","name":"Komor\u00f3w","state_id":1637,"state_code":"MZ","country_id":176,"country_code":"PL","latitude":"52.14560000","longitude":"20.81566000"},{"id":"86696","name":"Konstancin-Jeziorna","state_id":1637,"state_code":"MZ","country_id":176,"country_code":"PL","latitude":"52.09380000","longitude":"21.11761000"},{"id":"86701","name":"Korczew","state_id":1637,"state_code":"MZ","country_id":176,"country_code":"PL","latitude":"52.35327000","longitude":"22.61338000"},{"id":"86708","name":"Korytnica","state_id":1637,"state_code":"MZ","country_id":176,"country_code":"PL","latitude":"52.41441000","longitude":"21.84949000"},{"id":"86721","name":"Kos\u00f3w Lacki","state_id":1637,"state_code":"MZ","country_id":176,"country_code":"PL","latitude":"52.59541000","longitude":"22.14707000"},{"id":"86724","name":"Kotun","state_id":1637,"state_code":"MZ","country_id":176,"country_code":"PL","latitude":"52.17643000","longitude":"22.06819000"},{"id":"86726","name":"Kowala","state_id":1637,"state_code":"MZ","country_id":176,"country_code":"PL","latitude":"51.32503000","longitude":"21.06972000"},{"id":"86735","name":"Kozienice","state_id":1637,"state_code":"MZ","country_id":176,"country_code":"PL","latitude":"51.58294000","longitude":"21.54779000"},{"id":"86768","name":"Krasne","state_id":1637,"state_code":"MZ","country_id":176,"country_code":"PL","latitude":"52.92401000","longitude":"20.96732000"},{"id":"86772","name":"Krasnosielc","state_id":1637,"state_code":"MZ","country_id":176,"country_code":"PL","latitude":"53.03378000","longitude":"21.15735000"},{"id":"86815","name":"Krzynowloga Mala","state_id":1637,"state_code":"MZ","country_id":176,"country_code":"PL","latitude":"53.15773000","longitude":"20.78579000"},{"id":"86834","name":"Kuczbork-Osada","state_id":1637,"state_code":"MZ","country_id":176,"country_code":"PL","latitude":"53.08619000","longitude":"20.04782000"},{"id":"86874","name":"Latowicz","state_id":1637,"state_code":"MZ","country_id":176,"country_code":"PL","latitude":"52.02636000","longitude":"21.80829000"},{"id":"86876","name":"Legionowo","state_id":1637,"state_code":"MZ","country_id":176,"country_code":"PL","latitude":"52.40149000","longitude":"20.92664000"},{"id":"86882","name":"Leszno","state_id":1637,"state_code":"MZ","country_id":176,"country_code":"PL","latitude":"52.25799000","longitude":"20.59121000"},{"id":"86884","name":"Lesznowola","state_id":1637,"state_code":"MZ","country_id":176,"country_code":"PL","latitude":"52.09095000","longitude":"20.93479000"},{"id":"86920","name":"Lipowiec Koscielny","state_id":1637,"state_code":"MZ","country_id":176,"country_code":"PL","latitude":"53.10459000","longitude":"20.17639000"},{"id":"86922","name":"Lipsko","state_id":1637,"state_code":"MZ","country_id":176,"country_code":"PL","latitude":"51.15954000","longitude":"21.64933000"},{"id":"86955","name":"Lubowidz","state_id":1637,"state_code":"MZ","country_id":176,"country_code":"PL","latitude":"53.11865000","longitude":"19.84594000"},{"id":"86967","name":"Lutocin","state_id":1637,"state_code":"MZ","country_id":176,"country_code":"PL","latitude":"52.98152000","longitude":"19.76655000"},{"id":"87005","name":"Mala Wies","state_id":1637,"state_code":"MZ","country_id":176,"country_code":"PL","latitude":"52.45779000","longitude":"20.10223000"},{"id":"87007","name":"Malkinia G\u00f3rna","state_id":1637,"state_code":"MZ","country_id":176,"country_code":"PL","latitude":"52.69220000","longitude":"22.02836000"},{"id":"86980","name":"Maciejowice","state_id":1637,"state_code":"MZ","country_id":176,"country_code":"PL","latitude":"51.69222000","longitude":"21.55342000"},{"id":"86983","name":"Mak\u00f3w Mazowiecki","state_id":1637,"state_code":"MZ","country_id":176,"country_code":"PL","latitude":"52.86493000","longitude":"21.10053000"},{"id":"86994","name":"Marki","state_id":1637,"state_code":"MZ","country_id":176,"country_code":"PL","latitude":"52.32065000","longitude":"21.10474000"},{"id":"87001","name":"Maszewo Duze","state_id":1637,"state_code":"MZ","country_id":176,"country_code":"PL","latitude":"52.58026000","longitude":"19.62905000"},{"id":"87127","name":"Mlawa","state_id":1637,"state_code":"MZ","country_id":176,"country_code":"PL","latitude":"53.11278000","longitude":"20.38410000"},{"id":"87128","name":"Mlodzieszyn","state_id":1637,"state_code":"MZ","country_id":176,"country_code":"PL","latitude":"52.29945000","longitude":"20.20017000"},{"id":"87130","name":"Mlynarze","state_id":1637,"state_code":"MZ","country_id":176,"country_code":"PL","latitude":"52.95417000","longitude":"21.41141000"},{"id":"87018","name":"Miastk\u00f3w Koscielny","state_id":1637,"state_code":"MZ","country_id":176,"country_code":"PL","latitude":"51.88407000","longitude":"21.82528000"},{"id":"87075","name":"Minsk Mazowiecki","state_id":1637,"state_code":"MZ","country_id":176,"country_code":"PL","latitude":"52.17935000","longitude":"21.57251000"},{"id":"87069","name":"Mietne","state_id":1637,"state_code":"MZ","country_id":176,"country_code":"PL","latitude":"51.92135000","longitude":"21.57457000"},{"id":"87024","name":"Michal\u00f3w-Regin\u00f3w","state_id":1637,"state_code":"MZ","country_id":176,"country_code":"PL","latitude":"52.41711000","longitude":"20.96595000"},{"id":"87019","name":"Michalowice","state_id":1637,"state_code":"MZ","country_id":176,"country_code":"PL","latitude":"52.17435000","longitude":"20.88089000"},{"id":"87030","name":"Miedzna","state_id":1637,"state_code":"MZ","country_id":176,"country_code":"PL","latitude":"52.46778000","longitude":"22.08947000"},{"id":"87047","name":"Milan\u00f3wek","state_id":1637,"state_code":"MZ","country_id":176,"country_code":"PL","latitude":"52.11879000","longitude":"20.67155000"},{"id":"87080","name":"Mochowo","state_id":1637,"state_code":"MZ","country_id":176,"country_code":"PL","latitude":"52.76570000","longitude":"19.55592000"},{"id":"87084","name":"Mogielnica","state_id":1637,"state_code":"MZ","country_id":176,"country_code":"PL","latitude":"51.69432000","longitude":"20.72227000"},{"id":"87087","name":"Mokobody","state_id":1637,"state_code":"MZ","country_id":176,"country_code":"PL","latitude":"52.26523000","longitude":"22.11182000"},{"id":"87088","name":"Mokot\u00f3w","state_id":1637,"state_code":"MZ","country_id":176,"country_code":"PL","latitude":"52.19340000","longitude":"21.03487000"},{"id":"87091","name":"Mordy","state_id":1637,"state_code":"MZ","country_id":176,"country_code":"PL","latitude":"52.21160000","longitude":"22.51725000"},{"id":"87102","name":"Mrozy","state_id":1637,"state_code":"MZ","country_id":176,"country_code":"PL","latitude":"52.01975000","longitude":"20.36702000"},{"id":"87111","name":"Mszczon\u00f3w","state_id":1637,"state_code":"MZ","country_id":176,"country_code":"PL","latitude":"51.97415000","longitude":"20.52083000"},{"id":"87117","name":"Mysiadlo","state_id":1637,"state_code":"MZ","country_id":176,"country_code":"PL","latitude":"52.10216000","longitude":"21.01856000"},{"id":"87119","name":"Myszyniec","state_id":1637,"state_code":"MZ","country_id":176,"country_code":"PL","latitude":"53.38055000","longitude":"21.34961000"},{"id":"87131","name":"Nadarzyn","state_id":1637,"state_code":"MZ","country_id":176,"country_code":"PL","latitude":"52.09438000","longitude":"20.80776000"},{"id":"87140","name":"Naruszewo","state_id":1637,"state_code":"MZ","country_id":176,"country_code":"PL","latitude":"52.52687000","longitude":"20.35157000"},{"id":"87141","name":"Nasielsk","state_id":1637,"state_code":"MZ","country_id":176,"country_code":"PL","latitude":"52.58887000","longitude":"20.80553000"},{"id":"87166","name":"Nieporet","state_id":1637,"state_code":"MZ","country_id":176,"country_code":"PL","latitude":"52.43152000","longitude":"21.03212000"},{"id":"87182","name":"Nowe Grocholice","state_id":1637,"state_code":"MZ","country_id":176,"country_code":"PL","latitude":"52.15924000","longitude":"20.91110000"},{"id":"87183","name":"Nowe Lipiny","state_id":1637,"state_code":"MZ","country_id":176,"country_code":"PL","latitude":"52.35789000","longitude":"21.27125000"},{"id":"87185","name":"Nowe Miasto","state_id":1637,"state_code":"MZ","country_id":176,"country_code":"PL","latitude":"52.65691000","longitude":"20.62838000"},{"id":"87187","name":"Nowe Miasto nad Pilica","state_id":1637,"state_code":"MZ","country_id":176,"country_code":"PL","latitude":"51.61812000","longitude":"20.57619000"},{"id":"87201","name":"Nowy Dunin\u00f3w","state_id":1637,"state_code":"MZ","country_id":176,"country_code":"PL","latitude":"52.58271000","longitude":"19.47996000"},{"id":"87203","name":"Nowy Dw\u00f3r Mazowiecki","state_id":1637,"state_code":"MZ","country_id":176,"country_code":"PL","latitude":"52.43022000","longitude":"20.71652000"},{"id":"87212","name":"Nur","state_id":1637,"state_code":"MZ","country_id":176,"country_code":"PL","latitude":"52.66826000","longitude":"22.32207000"},{"id":"87329","name":"Ozar\u00f3w Mazowiecki","state_id":1637,"state_code":"MZ","country_id":176,"country_code":"PL","latitude":"52.21039000","longitude":"20.79716000"},{"id":"87220","name":"Obryte","state_id":1637,"state_code":"MZ","country_id":176,"country_code":"PL","latitude":"52.71633000","longitude":"21.24945000"},{"id":"87226","name":"Ochota","state_id":1637,"state_code":"MZ","country_id":176,"country_code":"PL","latitude":"52.22096000","longitude":"20.98526000"},{"id":"87230","name":"Odrzyw\u00f3l","state_id":1637,"state_code":"MZ","country_id":176,"country_code":"PL","latitude":"51.51953000","longitude":"20.55559000"},{"id":"87232","name":"Ojrzen","state_id":1637,"state_code":"MZ","country_id":176,"country_code":"PL","latitude":"52.76570000","longitude":"20.54315000"},{"id":"87260","name":"Opinog\u00f3ra G\u00f3rna","state_id":1637,"state_code":"MZ","country_id":176,"country_code":"PL","latitude":"52.90554000","longitude":"20.71781000"},{"id":"87270","name":"Oronsko","state_id":1637,"state_code":"MZ","country_id":176,"country_code":"PL","latitude":"51.31339000","longitude":"20.99067000"},{"id":"87277","name":"Osieck","state_id":1637,"state_code":"MZ","country_id":176,"country_code":"PL","latitude":"51.96653000","longitude":"21.41913000"},{"id":"87310","name":"Ostr\u00f3w Mazowiecka","state_id":1637,"state_code":"MZ","country_id":176,"country_code":"PL","latitude":"52.80245000","longitude":"21.89507000"},{"id":"87312","name":"Ostr\u00f3wek","state_id":1637,"state_code":"MZ","country_id":176,"country_code":"PL","latitude":"52.55350000","longitude":"21.76014000"},{"id":"87305","name":"Ostroleka","state_id":1637,"state_code":"MZ","country_id":176,"country_code":"PL","latitude":"53.08621000","longitude":"21.57566000"},{"id":"87316","name":"Otrebusy","state_id":1637,"state_code":"MZ","country_id":176,"country_code":"PL","latitude":"52.12843000","longitude":"20.76073000"},{"id":"87317","name":"Otwock","state_id":1637,"state_code":"MZ","country_id":176,"country_code":"PL","latitude":"52.10577000","longitude":"21.26129000"},{"id":"87319","name":"Owczarnia","state_id":1637,"state_code":"MZ","country_id":176,"country_code":"PL","latitude":"52.11114000","longitude":"20.70468000"},{"id":"87332","name":"Pacyna","state_id":1637,"state_code":"MZ","country_id":176,"country_code":"PL","latitude":"52.30281000","longitude":"19.70982000"},{"id":"87344","name":"Paprotnia","state_id":1637,"state_code":"MZ","country_id":176,"country_code":"PL","latitude":"52.20513000","longitude":"20.42320000"},{"id":"87349","name":"Parys\u00f3w","state_id":1637,"state_code":"MZ","country_id":176,"country_code":"PL","latitude":"51.97584000","longitude":"21.68006000"},{"id":"87867","name":"Plonsk","state_id":1637,"state_code":"MZ","country_id":176,"country_code":"PL","latitude":"52.62348000","longitude":"20.37552000"},{"id":"87864","name":"Plock","state_id":1637,"state_code":"MZ","country_id":176,"country_code":"PL","latitude":"52.54682000","longitude":"19.70638000"},{"id":"87865","name":"Ploniawy-Bramura","state_id":1637,"state_code":"MZ","country_id":176,"country_code":"PL","latitude":"52.97780000","longitude":"21.07178000"},{"id":"87368","name":"Piaseczno","state_id":1637,"state_code":"MZ","country_id":176,"country_code":"PL","latitude":"52.08140000","longitude":"21.02397000"},{"id":"87372","name":"Piast\u00f3w","state_id":1637,"state_code":"MZ","country_id":176,"country_code":"PL","latitude":"52.18435000","longitude":"20.83952000"},{"id":"87387","name":"Pilawa","state_id":1637,"state_code":"MZ","country_id":176,"country_code":"PL","latitude":"51.95945000","longitude":"21.53089000"},{"id":"87392","name":"Pionki","state_id":1637,"state_code":"MZ","country_id":176,"country_code":"PL","latitude":"51.47604000","longitude":"21.44995000"},{"id":"87780","name":"Poswietne","state_id":1637,"state_code":"MZ","country_id":176,"country_code":"PL","latitude":"52.32967000","longitude":"21.42137000"},{"id":"87413","name":"Podeblocie","state_id":1637,"state_code":"MZ","country_id":176,"country_code":"PL","latitude":"51.64023000","longitude":"21.74420000"},{"id":"87417","name":"Podkowa Lesna","state_id":1637,"state_code":"MZ","country_id":176,"country_code":"PL","latitude":"52.12237000","longitude":"20.72665000"},{"id":"87427","name":"Pokrzywnica","state_id":1637,"state_code":"MZ","country_id":176,"country_code":"PL","latitude":"52.62072000","longitude":"21.01925000"},{"id":"87435","name":"Policzna","state_id":1637,"state_code":"MZ","country_id":176,"country_code":"PL","latitude":"51.45545000","longitude":"21.62684000"},{"id":"87438","name":"Pomiech\u00f3wek","state_id":1637,"state_code":"MZ","country_id":176,"country_code":"PL","latitude":"52.47138000","longitude":"20.72923000"},{"id":"87455","name":"Potwor\u00f3w","state_id":1637,"state_code":"MZ","country_id":176,"country_code":"PL","latitude":"51.50874000","longitude":"20.72176000"},{"id":"87767","name":"Powiat zurominski","state_id":1637,"state_code":"MZ","country_id":176,"country_code":"PL","latitude":"53.01658000","longitude":"19.89102000"},{"id":"87768","name":"Powiat zyrardowski","state_id":1637,"state_code":"MZ","country_id":176,"country_code":"PL","latitude":"52.00028000","longitude":"20.43275000"},{"id":"87751","name":"Powiat losicki","state_id":1637,"state_code":"MZ","country_id":176,"country_code":"PL","latitude":"52.22363000","longitude":"22.84510000"},{"id":"87462","name":"Powiat bialobrzeski","state_id":1637,"state_code":"MZ","country_id":176,"country_code":"PL","latitude":"51.62102000","longitude":"20.94328000"},{"id":"87488","name":"Powiat ciechanowski","state_id":1637,"state_code":"MZ","country_id":176,"country_code":"PL","latitude":"52.90207000","longitude":"20.57631000"},{"id":"87500","name":"Powiat garwolinski","state_id":1637,"state_code":"MZ","country_id":176,"country_code":"PL","latitude":"51.82657000","longitude":"21.61615000"},{"id":"87509","name":"Powiat gostyninski","state_id":1637,"state_code":"MZ","country_id":176,"country_code":"PL","latitude":"52.38988000","longitude":"19.62187000"},{"id":"87518","name":"Powiat gr\u00f3jecki","state_id":1637,"state_code":"MZ","country_id":176,"country_code":"PL","latitude":"51.75742000","longitude":"20.83661000"},{"id":"87513","name":"Powiat grodziski","state_id":1637,"state_code":"MZ","country_id":176,"country_code":"PL","latitude":"52.06391000","longitude":"20.59408000"},{"id":"87546","name":"Powiat kozienicki","state_id":1637,"state_code":"MZ","country_id":176,"country_code":"PL","latitude":"51.63946000","longitude":"21.49580000"},{"id":"87564","name":"Powiat legionowski","state_id":1637,"state_code":"MZ","country_id":176,"country_code":"PL","latitude":"52.45179000","longitude":"20.94356000"},{"id":"87572","name":"Powiat lipski","state_id":1637,"state_code":"MZ","country_id":176,"country_code":"PL","latitude":"51.15879000","longitude":"21.56753000"},{"id":"87581","name":"Powiat makowski","state_id":1637,"state_code":"MZ","country_id":176,"country_code":"PL","latitude":"52.94770000","longitude":"21.17950000"},{"id":"87596","name":"Powiat mlawski","state_id":1637,"state_code":"MZ","country_id":176,"country_code":"PL","latitude":"53.05496000","longitude":"20.37708000"},{"id":"87589","name":"Powiat minski","state_id":1637,"state_code":"MZ","country_id":176,"country_code":"PL","latitude":"52.18429000","longitude":"21.60893000"},{"id":"87601","name":"Powiat nowodworski","state_id":1637,"state_code":"MZ","country_id":176,"country_code":"PL","latitude":"52.46585000","longitude":"20.66405000"},{"id":"87622","name":"Powiat ostrolecki","state_id":1637,"state_code":"MZ","country_id":176,"country_code":"PL","latitude":"53.14001000","longitude":"21.50699000"},{"id":"87620","name":"Powiat ostrowski","state_id":1637,"state_code":"MZ","country_id":176,"country_code":"PL","latitude":"52.79495000","longitude":"22.03250000"},{"id":"87625","name":"Powiat otwocki","state_id":1637,"state_code":"MZ","country_id":176,"country_code":"PL","latitude":"52.04898000","longitude":"21.37251000"},{"id":"87654","name":"Powiat plonski","state_id":1637,"state_code":"MZ","country_id":176,"country_code":"PL","latitude":"52.63894000","longitude":"20.34710000"},{"id":"87653","name":"Powiat plocki","state_id":1637,"state_code":"MZ","country_id":176,"country_code":"PL","latitude":"52.55465000","longitude":"19.78570000"},{"id":"87631","name":"Powiat piaseczynski","state_id":1637,"state_code":"MZ","country_id":176,"country_code":"PL","latitude":"52.01634000","longitude":"20.98319000"},{"id":"87643","name":"Powiat pruszkowski","state_id":1637,"state_code":"MZ","country_id":176,"country_code":"PL","latitude":"52.10088000","longitude":"20.80992000"},{"id":"87644","name":"Powiat przasnyski","state_id":1637,"state_code":"MZ","country_id":176,"country_code":"PL","latitude":"53.11360000","longitude":"20.93940000"},{"id":"87647","name":"Powiat przysuski","state_id":1637,"state_code":"MZ","country_id":176,"country_code":"PL","latitude":"51.42366000","longitude":"20.65098000"},{"id":"87651","name":"Powiat pultuski","state_id":1637,"state_code":"MZ","country_id":176,"country_code":"PL","latitude":"52.67207000","longitude":"21.02401000"},{"id":"87656","name":"Powiat radomski","state_id":1637,"state_code":"MZ","country_id":176,"country_code":"PL","latitude":"51.33582000","longitude":"21.16193000"},{"id":"87670","name":"Powiat siedlecki","state_id":1637,"state_code":"MZ","country_id":176,"country_code":"PL","latitude":"52.19186000","longitude":"22.30406000"},{"id":"87673","name":"Powiat sierpecki","state_id":1637,"state_code":"MZ","country_id":176,"country_code":"PL","latitude":"52.83353000","longitude":"19.71216000"},{"id":"87676","name":"Powiat sochaczewski","state_id":1637,"state_code":"MZ","country_id":176,"country_code":"PL","latitude":"52.26689000","longitude":"20.21338000"},{"id":"87677","name":"Powiat sokolowski","state_id":1637,"state_code":"MZ","country_id":176,"country_code":"PL","latitude":"52.49538000","longitude":"22.26897000"},{"id":"87695","name":"Powiat szydlowiecki","state_id":1637,"state_code":"MZ","country_id":176,"country_code":"PL","latitude":"51.25600000","longitude":"20.84256000"},{"id":"87713","name":"Powiat warszawski zachodni","state_id":1637,"state_code":"MZ","country_id":176,"country_code":"PL","latitude":"52.26838000","longitude":"20.61913000"},{"id":"87732","name":"Powiat wegrowski","state_id":1637,"state_code":"MZ","country_id":176,"country_code":"PL","latitude":"52.45628000","longitude":"21.87342000"},{"id":"87722","name":"Powiat wolominski","state_id":1637,"state_code":"MZ","country_id":176,"country_code":"PL","latitude":"52.40616000","longitude":"21.40121000"},{"id":"87728","name":"Powiat wyszkowski","state_id":1637,"state_code":"MZ","country_id":176,"country_code":"PL","latitude":"52.65137000","longitude":"21.44537000"},{"id":"87743","name":"Powiat zwolenski","state_id":1637,"state_code":"MZ","country_id":176,"country_code":"PL","latitude":"51.36079000","longitude":"21.59279000"},{"id":"87788","name":"Prazm\u00f3w","state_id":1637,"state_code":"MZ","country_id":176,"country_code":"PL","latitude":"51.94040000","longitude":"20.95479000"},{"id":"87786","name":"Praga P\u00f3lnoc","state_id":1637,"state_code":"MZ","country_id":176,"country_code":"PL","latitude":"52.25443000","longitude":"21.03472000"},{"id":"87785","name":"Praga Poludnie","state_id":1637,"state_code":"MZ","country_id":176,"country_code":"PL","latitude":"52.24424000","longitude":"21.08545000"},{"id":"87790","name":"Promna","state_id":1637,"state_code":"MZ","country_id":176,"country_code":"PL","latitude":"51.68006000","longitude":"20.95917000"},{"id":"87799","name":"Pruszk\u00f3w","state_id":1637,"state_code":"MZ","country_id":176,"country_code":"PL","latitude":"52.17072000","longitude":"20.81214000"},{"id":"87800","name":"Przasnysz","state_id":1637,"state_code":"MZ","country_id":176,"country_code":"PL","latitude":"53.01907000","longitude":"20.88029000"},{"id":"87814","name":"Przesmyki","state_id":1637,"state_code":"MZ","country_id":176,"country_code":"PL","latitude":"52.26816000","longitude":"22.58394000"},{"id":"87835","name":"Przylek","state_id":1637,"state_code":"MZ","country_id":176,"country_code":"PL","latitude":"51.30856000","longitude":"21.74744000"},{"id":"87828","name":"Przysucha","state_id":1637,"state_code":"MZ","country_id":176,"country_code":"PL","latitude":"51.35858000","longitude":"20.62889000"},{"id":"87833","name":"Przytyk","state_id":1637,"state_code":"MZ","country_id":176,"country_code":"PL","latitude":"51.46567000","longitude":"20.90587000"},{"id":"87852","name":"Pultusk","state_id":1637,"state_code":"MZ","country_id":176,"country_code":"PL","latitude":"52.70250000","longitude":"21.08276000"},{"id":"87849","name":"Puszcza Marianska","state_id":1637,"state_code":"MZ","country_id":176,"country_code":"PL","latitude":"51.97901000","longitude":"20.35037000"},{"id":"87873","name":"Raciaz","state_id":1637,"state_code":"MZ","country_id":176,"country_code":"PL","latitude":"52.78152000","longitude":"20.11770000"},{"id":"87884","name":"Radom","state_id":1637,"state_code":"MZ","country_id":176,"country_code":"PL","latitude":"51.40253000","longitude":"21.14714000"},{"id":"87895","name":"Radzan\u00f3w","state_id":1637,"state_code":"MZ","country_id":176,"country_code":"PL","latitude":"52.94238000","longitude":"20.09219000"},{"id":"87894","name":"Radzanowo","state_id":1637,"state_code":"MZ","country_id":176,"country_code":"PL","latitude":"52.57306000","longitude":"19.89109000"},{"id":"87897","name":"Radziejowice","state_id":1637,"state_code":"MZ","country_id":176,"country_code":"PL","latitude":"52.00834000","longitude":"20.54770000"},{"id":"87902","name":"Radzymin","state_id":1637,"state_code":"MZ","country_id":176,"country_code":"PL","latitude":"52.41592000","longitude":"21.18415000"},{"id":"87916","name":"Raszyn","state_id":1637,"state_code":"MZ","country_id":176,"country_code":"PL","latitude":"52.15603000","longitude":"20.92260000"},{"id":"88033","name":"R\u00f3zan","state_id":1637,"state_code":"MZ","country_id":176,"country_code":"PL","latitude":"52.88757000","longitude":"21.39105000"},{"id":"87922","name":"Regimin","state_id":1637,"state_code":"MZ","country_id":176,"country_code":"PL","latitude":"52.94166000","longitude":"20.55319000"},{"id":"87936","name":"Rembert\u00f3w","state_id":1637,"state_code":"MZ","country_id":176,"country_code":"PL","latitude":"52.26059000","longitude":"21.16355000"},{"id":"87937","name":"Repki","state_id":1637,"state_code":"MZ","country_id":176,"country_code":"PL","latitude":"52.38555000","longitude":"22.39117000"},{"id":"87968","name":"Rosciszewo","state_id":1637,"state_code":"MZ","country_id":176,"country_code":"PL","latitude":"52.90331000","longitude":"19.77419000"},{"id":"87988","name":"Rusin\u00f3w","state_id":1637,"state_code":"MZ","country_id":176,"country_code":"PL","latitude":"51.43678000","longitude":"20.58701000"},{"id":"87993","name":"Rybie","state_id":1637,"state_code":"MZ","country_id":176,"country_code":"PL","latitude":"52.15229000","longitude":"20.93655000"},{"id":"87995","name":"Rybno","state_id":1637,"state_code":"MZ","country_id":176,"country_code":"PL","latitude":"52.24278000","longitude":"20.10301000"},{"id":"88001","name":"Ryczyw\u00f3l","state_id":1637,"state_code":"MZ","country_id":176,"country_code":"PL","latitude":"51.69118000","longitude":"21.42197000"},{"id":"88032","name":"Rzasnik","state_id":1637,"state_code":"MZ","country_id":176,"country_code":"PL","latitude":"52.71332000","longitude":"21.36772000"},{"id":"88016","name":"Rzeczni\u00f3w","state_id":1637,"state_code":"MZ","country_id":176,"country_code":"PL","latitude":"51.12804000","longitude":"21.44008000"},{"id":"88019","name":"Rzekun","state_id":1637,"state_code":"MZ","country_id":176,"country_code":"PL","latitude":"53.04756000","longitude":"21.62069000"},{"id":"88025","name":"Rzewnie","state_id":1637,"state_code":"MZ","country_id":176,"country_code":"PL","latitude":"52.83508000","longitude":"21.33682000"},{"id":"88039","name":"Sabnie","state_id":1637,"state_code":"MZ","country_id":176,"country_code":"PL","latitude":"52.50097000","longitude":"22.30697000"},{"id":"88044","name":"Sadowne","state_id":1637,"state_code":"MZ","country_id":176,"country_code":"PL","latitude":"52.64124000","longitude":"21.84563000"},{"id":"88048","name":"Sanniki","state_id":1637,"state_code":"MZ","country_id":176,"country_code":"PL","latitude":"52.33046000","longitude":"19.86766000"},{"id":"88051","name":"Sarnaki","state_id":1637,"state_code":"MZ","country_id":176,"country_code":"PL","latitude":"52.31504000","longitude":"22.89044000"},{"id":"88346","name":"Slubice","state_id":1637,"state_code":"MZ","country_id":176,"country_code":"PL","latitude":"52.36942000","longitude":"19.93881000"},{"id":"88352","name":"Slupno","state_id":1637,"state_code":"MZ","country_id":176,"country_code":"PL","latitude":"52.38409000","longitude":"21.15572000"},{"id":"88057","name":"Serock","state_id":1637,"state_code":"MZ","country_id":176,"country_code":"PL","latitude":"52.51036000","longitude":"21.06910000"},{"id":"88064","name":"Siedlce","state_id":1637,"state_code":"MZ","country_id":176,"country_code":"PL","latitude":"52.16772000","longitude":"22.29006000"},{"id":"88075","name":"Siemiatkowo","state_id":1637,"state_code":"MZ","country_id":176,"country_code":"PL","latitude":"52.88110000","longitude":"20.02893000"},{"id":"88081","name":"Siennica","state_id":1637,"state_code":"MZ","country_id":176,"country_code":"PL","latitude":"52.09164000","longitude":"21.61921000"},{"id":"88083","name":"Sienno","state_id":1637,"state_code":"MZ","country_id":176,"country_code":"PL","latitude":"51.08773000","longitude":"21.48325000"},{"id":"88091","name":"Sierpc","state_id":1637,"state_code":"MZ","country_id":176,"country_code":"PL","latitude":"52.85680000","longitude":"19.66913000"},{"id":"88099","name":"Skaryszew","state_id":1637,"state_code":"MZ","country_id":176,"country_code":"PL","latitude":"51.31075000","longitude":"21.25233000"},{"id":"88122","name":"Sk\u00f3rzec","state_id":1637,"state_code":"MZ","country_id":176,"country_code":"PL","latitude":"52.10727000","longitude":"22.13052000"},{"id":"88156","name":"Sonsk","state_id":1637,"state_code":"MZ","country_id":176,"country_code":"PL","latitude":"52.78164000","longitude":"20.69901000"},{"id":"88130","name":"Sobienie Jeziory","state_id":1637,"state_code":"MZ","country_id":176,"country_code":"PL","latitude":"51.93273000","longitude":"21.30335000"},{"id":"88132","name":"Sobolew","state_id":1637,"state_code":"MZ","country_id":176,"country_code":"PL","latitude":"51.73660000","longitude":"21.66349000"},{"id":"88134","name":"Sochaczew","state_id":1637,"state_code":"MZ","country_id":176,"country_code":"PL","latitude":"52.22944000","longitude":"20.23838000"},{"id":"88135","name":"Sochocin","state_id":1637,"state_code":"MZ","country_id":176,"country_code":"PL","latitude":"52.68715000","longitude":"20.47259000"},{"id":"88140","name":"Sokol\u00f3w Podlaski","state_id":1637,"state_code":"MZ","country_id":176,"country_code":"PL","latitude":"52.40677000","longitude":"22.25307000"},{"id":"88143","name":"Solec Nad Wisla","state_id":1637,"state_code":"MZ","country_id":176,"country_code":"PL","latitude":"51.13633000","longitude":"21.76563000"},{"id":"88169","name":"Stanislaw\u00f3w","state_id":1637,"state_code":"MZ","country_id":176,"country_code":"PL","latitude":"52.28937000","longitude":"21.54848000"},{"id":"88170","name":"Stanislaw\u00f3w Pierwszy","state_id":1637,"state_code":"MZ","country_id":176,"country_code":"PL","latitude":"52.37485000","longitude":"21.05184000"},{"id":"88173","name":"Stara Blotnica","state_id":1637,"state_code":"MZ","country_id":176,"country_code":"PL","latitude":"51.54676000","longitude":"20.97479000"},{"id":"88177","name":"Stara Kornica","state_id":1637,"state_code":"MZ","country_id":176,"country_code":"PL","latitude":"52.18183000","longitude":"22.93752000"},{"id":"88181","name":"Stare Babice","state_id":1637,"state_code":"MZ","country_id":176,"country_code":"PL","latitude":"52.26028000","longitude":"20.83403000"},{"id":"88193","name":"Starozreby","state_id":1637,"state_code":"MZ","country_id":176,"country_code":"PL","latitude":"52.63265000","longitude":"19.98550000"},{"id":"88204","name":"Sterdyn","state_id":1637,"state_code":"MZ","country_id":176,"country_code":"PL","latitude":"52.58026000","longitude":"22.29358000"},{"id":"88205","name":"Stoczek","state_id":1637,"state_code":"MZ","country_id":176,"country_code":"PL","latitude":"52.54332000","longitude":"21.90013000"},{"id":"88211","name":"Strach\u00f3wka","state_id":1637,"state_code":"MZ","country_id":176,"country_code":"PL","latitude":"52.42692000","longitude":"21.63500000"},{"id":"88215","name":"Stromiec","state_id":1637,"state_code":"MZ","country_id":176,"country_code":"PL","latitude":"51.64700000","longitude":"21.09229000"},{"id":"88225","name":"Strzegowo","state_id":1637,"state_code":"MZ","country_id":176,"country_code":"PL","latitude":"52.89394000","longitude":"20.28548000"},{"id":"88241","name":"Stupsk","state_id":1637,"state_code":"MZ","country_id":176,"country_code":"PL","latitude":"53.02258000","longitude":"20.43680000"},{"id":"88270","name":"Sulkowice","state_id":1637,"state_code":"MZ","country_id":176,"country_code":"PL","latitude":"51.92310000","longitude":"21.08929000"},{"id":"88247","name":"Sucha","state_id":1637,"state_code":"MZ","country_id":176,"country_code":"PL","latitude":"51.61999000","longitude":"20.94887000"},{"id":"88252","name":"Suchozebry","state_id":1637,"state_code":"MZ","country_id":176,"country_code":"PL","latitude":"52.25948000","longitude":"22.25289000"},{"id":"88255","name":"Sulbiny G\u00f3rne","state_id":1637,"state_code":"MZ","country_id":176,"country_code":"PL","latitude":"51.87321000","longitude":"21.63174000"},{"id":"88258","name":"Sulej\u00f3wek","state_id":1637,"state_code":"MZ","country_id":176,"country_code":"PL","latitude":"52.25221000","longitude":"21.26902000"},{"id":"88279","name":"Sypniewo","state_id":1637,"state_code":"MZ","country_id":176,"country_code":"PL","latitude":"53.00580000","longitude":"21.30730000"},{"id":"88302","name":"Szczutowo","state_id":1637,"state_code":"MZ","country_id":176,"country_code":"PL","latitude":"52.94047000","longitude":"19.57438000"},{"id":"88306","name":"Szelk\u00f3w","state_id":1637,"state_code":"MZ","country_id":176,"country_code":"PL","latitude":"52.83487000","longitude":"21.21769000"},{"id":"88314","name":"Szrensk","state_id":1637,"state_code":"MZ","country_id":176,"country_code":"PL","latitude":"53.01277000","longitude":"20.12009000"},{"id":"88319","name":"Szydlowiec","state_id":1637,"state_code":"MZ","country_id":176,"country_code":"PL","latitude":"51.22823000","longitude":"20.86106000"},{"id":"88320","name":"Szydlowo","state_id":1637,"state_code":"MZ","country_id":176,"country_code":"PL","latitude":"53.08062000","longitude":"20.45071000"},{"id":"88354","name":"Tarczyn","state_id":1637,"state_code":"MZ","country_id":176,"country_code":"PL","latitude":"51.98197000","longitude":"20.83394000"},{"id":"88357","name":"Targ\u00f3wek","state_id":1637,"state_code":"MZ","country_id":176,"country_code":"PL","latitude":"52.29185000","longitude":"21.04845000"},{"id":"88445","name":"Tluszcz","state_id":1637,"state_code":"MZ","country_id":176,"country_code":"PL","latitude":"52.43058000","longitude":"21.43561000"},{"id":"88370","name":"Tcz\u00f3w","state_id":1637,"state_code":"MZ","country_id":176,"country_code":"PL","latitude":"51.32600000","longitude":"21.44677000"},{"id":"88373","name":"Teresin","state_id":1637,"state_code":"MZ","country_id":176,"country_code":"PL","latitude":"52.19887000","longitude":"20.41672000"},{"id":"88387","name":"Trablice","state_id":1637,"state_code":"MZ","country_id":176,"country_code":"PL","latitude":"51.35249000","longitude":"21.12877000"},{"id":"88415","name":"Trabki","state_id":1637,"state_code":"MZ","country_id":176,"country_code":"PL","latitude":"51.94792000","longitude":"21.59929000"},{"id":"88389","name":"Trojan\u00f3w","state_id":1637,"state_code":"MZ","country_id":176,"country_code":"PL","latitude":"51.69225000","longitude":"21.81112000"},{"id":"88390","name":"Troszyn","state_id":1637,"state_code":"MZ","country_id":176,"country_code":"PL","latitude":"53.03115000","longitude":"21.73083000"},{"id":"88391","name":"Truskaw","state_id":1637,"state_code":"MZ","country_id":176,"country_code":"PL","latitude":"52.30124000","longitude":"20.78244000"},{"id":"88457","name":"Ursus","state_id":1637,"state_code":"MZ","country_id":176,"country_code":"PL","latitude":"52.19517000","longitude":"20.88419000"},{"id":"88458","name":"Ursyn\u00f3w","state_id":1637,"state_code":"MZ","country_id":176,"country_code":"PL","latitude":"52.15051000","longitude":"21.05041000"},{"id":"88477","name":"Warka","state_id":1637,"state_code":"MZ","country_id":176,"country_code":"PL","latitude":"51.78430000","longitude":"21.19091000"},{"id":"88480","name":"Warsaw","state_id":1637,"state_code":"MZ","country_id":176,"country_code":"PL","latitude":"52.22977000","longitude":"21.01178000"},{"id":"88481","name":"Warszawa","state_id":1637,"state_code":"MZ","country_id":176,"country_code":"PL","latitude":"52.23547000","longitude":"21.04191000"},{"id":"88485","name":"Wawer","state_id":1637,"state_code":"MZ","country_id":176,"country_code":"PL","latitude":"52.19656000","longitude":"21.17752000"},{"id":"88648","name":"Wlochy","state_id":1637,"state_code":"MZ","country_id":176,"country_code":"PL","latitude":"52.17941000","longitude":"20.94612000"},{"id":"88645","name":"Wegr\u00f3w","state_id":1637,"state_code":"MZ","country_id":176,"country_code":"PL","latitude":"52.39954000","longitude":"22.01634000"},{"id":"88493","name":"Wesola","state_id":1637,"state_code":"MZ","country_id":176,"country_code":"PL","latitude":"52.25451000","longitude":"21.22407000"},{"id":"88561","name":"Wisniew","state_id":1637,"state_code":"MZ","country_id":176,"country_code":"PL","latitude":"52.07265000","longitude":"22.29392000"},{"id":"88562","name":"Wisniewo","state_id":1637,"state_code":"MZ","country_id":176,"country_code":"PL","latitude":"53.06474000","longitude":"20.34805000"},{"id":"88497","name":"Wieczfnia Koscielna","state_id":1637,"state_code":"MZ","country_id":176,"country_code":"PL","latitude":"53.19534000","longitude":"20.47637000"},{"id":"88503","name":"Wieliszew","state_id":1637,"state_code":"MZ","country_id":176,"country_code":"PL","latitude":"52.45130000","longitude":"20.96827000"},{"id":"88512","name":"Wieniawa","state_id":1637,"state_code":"MZ","country_id":176,"country_code":"PL","latitude":"51.36171000","longitude":"20.79489000"},{"id":"88517","name":"Wierzbica","state_id":1637,"state_code":"MZ","country_id":176,"country_code":"PL","latitude":"51.24940000","longitude":"21.08259000"},{"id":"88520","name":"Wierzbno","state_id":1637,"state_code":"MZ","country_id":176,"country_code":"PL","latitude":"52.31008000","longitude":"21.85902000"},{"id":"88531","name":"Wilan\u00f3w","state_id":1637,"state_code":"MZ","country_id":176,"country_code":"PL","latitude":"52.16311000","longitude":"21.08748000"},{"id":"88537","name":"Wilga","state_id":1637,"state_code":"MZ","country_id":176,"country_code":"PL","latitude":"51.85211000","longitude":"21.37751000"},{"id":"88544","name":"Winnica","state_id":1637,"state_code":"MZ","country_id":176,"country_code":"PL","latitude":"52.64306000","longitude":"20.94114000"},{"id":"88545","name":"Wiskitki","state_id":1637,"state_code":"MZ","country_id":176,"country_code":"PL","latitude":"52.08831000","longitude":"20.38708000"},{"id":"88599","name":"Wolomin","state_id":1637,"state_code":"MZ","country_id":176,"country_code":"PL","latitude":"52.34006000","longitude":"21.24207000"},{"id":"88566","name":"Wodynie","state_id":1637,"state_code":"MZ","country_id":176,"country_code":"PL","latitude":"52.04040000","longitude":"21.95575000"},{"id":"88580","name":"Wola","state_id":1637,"state_code":"MZ","country_id":176,"country_code":"PL","latitude":"52.24010000","longitude":"20.98869000"},{"id":"88588","name":"Wola Rebkowska","state_id":1637,"state_code":"MZ","country_id":176,"country_code":"PL","latitude":"51.90181000","longitude":"21.55818000"},{"id":"88593","name":"Wolan\u00f3w","state_id":1637,"state_code":"MZ","country_id":176,"country_code":"PL","latitude":"51.38030000","longitude":"20.97702000"},{"id":"88626","name":"Wysmierzyce","state_id":1637,"state_code":"MZ","country_id":176,"country_code":"PL","latitude":"51.62494000","longitude":"20.81394000"},{"id":"88624","name":"Wyszk\u00f3w","state_id":1637,"state_code":"MZ","country_id":176,"country_code":"PL","latitude":"52.59278000","longitude":"21.45840000"},{"id":"88625","name":"Wyszogr\u00f3d","state_id":1637,"state_code":"MZ","country_id":176,"country_code":"PL","latitude":"52.38988000","longitude":"20.19081000"},{"id":"88707","name":"Zaluski","state_id":1637,"state_code":"MZ","country_id":176,"country_code":"PL","latitude":"52.51152000","longitude":"20.52864000"},{"id":"88676","name":"Zakroczym","state_id":1637,"state_code":"MZ","country_id":176,"country_code":"PL","latitude":"52.43351000","longitude":"20.61207000"},{"id":"88677","name":"Zakrzew","state_id":1637,"state_code":"MZ","country_id":176,"country_code":"PL","latitude":"51.44095000","longitude":"21.00105000"},{"id":"88685","name":"Zalesie G\u00f3rne","state_id":1637,"state_code":"MZ","country_id":176,"country_code":"PL","latitude":"52.02768000","longitude":"21.03659000"},{"id":"88700","name":"Zatory","state_id":1637,"state_code":"MZ","country_id":176,"country_code":"PL","latitude":"52.59929000","longitude":"21.18258000"},{"id":"88703","name":"Zawidz","state_id":1637,"state_code":"MZ","country_id":176,"country_code":"PL","latitude":"52.82745000","longitude":"19.87367000"},{"id":"88738","name":"Zabki","state_id":1637,"state_code":"MZ","country_id":176,"country_code":"PL","latitude":"52.29271000","longitude":"21.10539000"},{"id":"88710","name":"Zbuczyn","state_id":1637,"state_code":"MZ","country_id":176,"country_code":"PL","latitude":"52.08974000","longitude":"22.43829000"},{"id":"88729","name":"Zielonka","state_id":1637,"state_code":"MZ","country_id":176,"country_code":"PL","latitude":"52.30376000","longitude":"21.16018000"},{"id":"88737","name":"Zwolen","state_id":1637,"state_code":"MZ","country_id":176,"country_code":"PL","latitude":"51.35542000","longitude":"21.58768000"}]