[{"id":"17388","name":"Altdorf","state_id":1642,"state_code":"UR","country_id":214,"country_code":"CH","latitude":"46.88042000","longitude":"8.64441000"},{"id":"17397","name":"Andermatt","state_id":1642,"state_code":"UR","country_id":214,"country_code":"CH","latitude":"46.63565000","longitude":"8.59388000"},{"id":"17416","name":"Attinghausen","state_id":1642,"state_code":"UR","country_id":214,"country_code":"CH","latitude":"46.86255000","longitude":"8.63036000"},{"id":"17444","name":"Bauen","state_id":1642,"state_code":"UR","country_id":214,"country_code":"CH","latitude":"46.93559000","longitude":"8.57836000"},{"id":"17602","name":"B\u00fcrglen","state_id":1642,"state_code":"UR","country_id":214,"country_code":"CH","latitude":"46.87565000","longitude":"8.66539000"},{"id":"17768","name":"Erstfeld","state_id":1642,"state_code":"UR","country_id":214,"country_code":"CH","latitude":"46.81885000","longitude":"8.65052000"},{"id":"17796","name":"Fl\u00fcelen","state_id":1642,"state_code":"UR","country_id":214,"country_code":"CH","latitude":"46.90478000","longitude":"8.62396000"},{"id":"18458","name":"Schattdorf","state_id":1642,"state_code":"UR","country_id":214,"country_code":"CH","latitude":"46.86550000","longitude":"8.65465000"},{"id":"18492","name":"Seedorf","state_id":1642,"state_code":"UR","country_id":214,"country_code":"CH","latitude":"46.88199000","longitude":"8.61611000"},{"id":"18521","name":"Silenen","state_id":1642,"state_code":"UR","country_id":214,"country_code":"CH","latitude":"46.78910000","longitude":"8.67325000"}]