[{"id":"17358","name":"Aarberg","state_id":1645,"state_code":"BE","country_id":214,"country_code":"CH","latitude":"47.04439000","longitude":"7.27578000"},{"id":"17360","name":"Aarwangen","state_id":1645,"state_code":"BE","country_id":214,"country_code":"CH","latitude":"47.23845000","longitude":"7.76854000"},{"id":"17362","name":"Adelboden","state_id":1645,"state_code":"BE","country_id":214,"country_code":"CH","latitude":"46.49142000","longitude":"7.56031000"},{"id":"17373","name":"Aeschi b. Spiez","state_id":1645,"state_code":"BE","country_id":214,"country_code":"CH","latitude":"46.65848000","longitude":"7.69650000"},{"id":"17404","name":"Arch","state_id":1645,"state_code":"BE","country_id":214,"country_code":"CH","latitude":"47.16533000","longitude":"7.43139000"},{"id":"17417","name":"Attiswil","state_id":1645,"state_code":"BE","country_id":214,"country_code":"CH","latitude":"47.24673000","longitude":"7.61353000"},{"id":"17592","name":"B\u00e4riswil","state_id":1645,"state_code":"BE","country_id":214,"country_code":"CH","latitude":"47.01947000","longitude":"7.52709000"},{"id":"17593","name":"B\u00e4tterkinden","state_id":1645,"state_code":"BE","country_id":214,"country_code":"CH","latitude":"47.13164000","longitude":"7.53817000"},{"id":"17594","name":"B\u00e9vilard","state_id":1645,"state_code":"BE","country_id":214,"country_code":"CH","latitude":"47.23711000","longitude":"7.28325000"},{"id":"17595","name":"B\u00f6nigen","state_id":1645,"state_code":"BE","country_id":214,"country_code":"CH","latitude":"46.68736000","longitude":"7.89350000"},{"id":"17447","name":"Beatenberg","state_id":1645,"state_code":"BE","country_id":214,"country_code":"CH","latitude":"46.69896000","longitude":"7.79428000"},{"id":"17454","name":"Bellmund","state_id":1645,"state_code":"BE","country_id":214,"country_code":"CH","latitude":"47.10852000","longitude":"7.24608000"},{"id":"17456","name":"Belp","state_id":1645,"state_code":"BE","country_id":214,"country_code":"CH","latitude":"46.89129000","longitude":"7.49825000"},{"id":"17462","name":"Bern","state_id":1645,"state_code":"BE","country_id":214,"country_code":"CH","latitude":"46.94809000","longitude":"7.44744000"},{"id":"17463","name":"Bern-Mittelland District","state_id":1645,"state_code":"BE","country_id":214,"country_code":"CH","latitude":"46.92526000","longitude":"7.49024000"},{"id":"17526","name":"Biel\/Bienne","state_id":1645,"state_code":"BE","country_id":214,"country_code":"CH","latitude":"47.13713000","longitude":"7.24608000"},{"id":"17527","name":"Biel\/Bienne District","state_id":1645,"state_code":"BE","country_id":214,"country_code":"CH","latitude":"47.12725000","longitude":"7.26174000"},{"id":"17528","name":"Biglen","state_id":1645,"state_code":"BE","country_id":214,"country_code":"CH","latitude":"46.92629000","longitude":"7.62508000"},{"id":"17542","name":"Blumenstein","state_id":1645,"state_code":"BE","country_id":214,"country_code":"CH","latitude":"46.74210000","longitude":"7.52136000"},{"id":"17545","name":"Bolligen","state_id":1645,"state_code":"BE","country_id":214,"country_code":"CH","latitude":"46.97510000","longitude":"7.49697000"},{"id":"17546","name":"Boltigen","state_id":1645,"state_code":"BE","country_id":214,"country_code":"CH","latitude":"46.62847000","longitude":"7.39054000"},{"id":"17556","name":"Bowil","state_id":1645,"state_code":"BE","country_id":214,"country_code":"CH","latitude":"46.89304000","longitude":"7.69757000"},{"id":"17572","name":"Br\u00fcgg","state_id":1645,"state_code":"BE","country_id":214,"country_code":"CH","latitude":"47.12370000","longitude":"7.27887000"},{"id":"17560","name":"Brienz","state_id":1645,"state_code":"BE","country_id":214,"country_code":"CH","latitude":"46.75450000","longitude":"8.03847000"},{"id":"17577","name":"Buchholterberg","state_id":1645,"state_code":"BE","country_id":214,"country_code":"CH","latitude":"46.81351000","longitude":"7.67463000"},{"id":"17583","name":"Burgdorf","state_id":1645,"state_code":"BE","country_id":214,"country_code":"CH","latitude":"47.05901000","longitude":"7.62786000"},{"id":"17584","name":"Burgistein","state_id":1645,"state_code":"BE","country_id":214,"country_code":"CH","latitude":"46.78464000","longitude":"7.49988000"},{"id":"17653","name":"Corg\u00e9mont","state_id":1645,"state_code":"BE","country_id":214,"country_code":"CH","latitude":"47.19457000","longitude":"7.14517000"},{"id":"17664","name":"Court","state_id":1645,"state_code":"BE","country_id":214,"country_code":"CH","latitude":"47.23956000","longitude":"7.33655000"},{"id":"17665","name":"Courtelary","state_id":1645,"state_code":"BE","country_id":214,"country_code":"CH","latitude":"47.17822000","longitude":"7.07236000"},{"id":"17708","name":"D\u00e4rligen","state_id":1645,"state_code":"BE","country_id":214,"country_code":"CH","latitude":"46.66175000","longitude":"7.80808000"},{"id":"17716","name":"D\u00fcrrenroth","state_id":1645,"state_code":"BE","country_id":214,"country_code":"CH","latitude":"47.08953000","longitude":"7.79170000"},{"id":"17686","name":"Diemtigen","state_id":1645,"state_code":"BE","country_id":214,"country_code":"CH","latitude":"46.64928000","longitude":"7.56477000"},{"id":"17731","name":"Eggiwil","state_id":1645,"state_code":"BE","country_id":214,"country_code":"CH","latitude":"46.87575000","longitude":"7.79567000"},{"id":"17747","name":"Emmental District","state_id":1645,"state_code":"BE","country_id":214,"country_code":"CH","latitude":"47.04425000","longitude":"7.66176000"},{"id":"17758","name":"Eriswil","state_id":1645,"state_code":"BE","country_id":214,"country_code":"CH","latitude":"47.07816000","longitude":"7.85149000"},{"id":"17759","name":"Erlach","state_id":1645,"state_code":"BE","country_id":214,"country_code":"CH","latitude":"47.04220000","longitude":"7.09728000"},{"id":"17764","name":"Erlenbach im Simmental","state_id":1645,"state_code":"BE","country_id":214,"country_code":"CH","latitude":"46.66021000","longitude":"7.55445000"},{"id":"17767","name":"Ersigen","state_id":1645,"state_code":"BE","country_id":214,"country_code":"CH","latitude":"47.09368000","longitude":"7.59507000"},{"id":"17777","name":"Evilard","state_id":1645,"state_code":"BE","country_id":214,"country_code":"CH","latitude":"47.15046000","longitude":"7.23895000"},{"id":"17784","name":"Ferenbalm","state_id":1645,"state_code":"BE","country_id":214,"country_code":"CH","latitude":"46.94880000","longitude":"7.21124000"},{"id":"17802","name":"Fraubrunnen","state_id":1645,"state_code":"BE","country_id":214,"country_code":"CH","latitude":"47.08620000","longitude":"7.52727000"},{"id":"17805","name":"Frauenkappelen","state_id":1645,"state_code":"BE","country_id":214,"country_code":"CH","latitude":"46.95425000","longitude":"7.33835000"},{"id":"17812","name":"Frutigen","state_id":1645,"state_code":"BE","country_id":214,"country_code":"CH","latitude":"46.58723000","longitude":"7.64945000"},{"id":"17813","name":"Frutigen-Niedersimmental District","state_id":1645,"state_code":"BE","country_id":214,"country_code":"CH","latitude":"46.60236000","longitude":"7.62292000"},{"id":"17870","name":"Grindelwald","state_id":1645,"state_code":"BE","country_id":214,"country_code":"CH","latitude":"46.62396000","longitude":"8.03601000"},{"id":"17874","name":"Grossaffoltern","state_id":1645,"state_code":"BE","country_id":214,"country_code":"CH","latitude":"47.06534000","longitude":"7.35689000"},{"id":"17884","name":"Gstaad","state_id":1645,"state_code":"BE","country_id":214,"country_code":"CH","latitude":"46.47215000","longitude":"7.28685000"},{"id":"17885","name":"Guggisberg","state_id":1645,"state_code":"BE","country_id":214,"country_code":"CH","latitude":"46.76756000","longitude":"7.32946000"},{"id":"17902","name":"Heimberg","state_id":1645,"state_code":"BE","country_id":214,"country_code":"CH","latitude":"46.79482000","longitude":"7.60433000"},{"id":"17903","name":"Heimiswil","state_id":1645,"state_code":"BE","country_id":214,"country_code":"CH","latitude":"47.06755000","longitude":"7.66665000"},{"id":"17908","name":"Hermiswil","state_id":1645,"state_code":"BE","country_id":214,"country_code":"CH","latitude":"46.83125000","longitude":"7.47775000"},{"id":"17910","name":"Herzogenbuchsee","state_id":1645,"state_code":"BE","country_id":214,"country_code":"CH","latitude":"47.18795000","longitude":"7.70620000"},{"id":"17913","name":"Hilterfingen","state_id":1645,"state_code":"BE","country_id":214,"country_code":"CH","latitude":"46.73521000","longitude":"7.66185000"},{"id":"17915","name":"Hindelbank","state_id":1645,"state_code":"BE","country_id":214,"country_code":"CH","latitude":"47.04270000","longitude":"7.54143000"},{"id":"17936","name":"Huttwil","state_id":1645,"state_code":"BE","country_id":214,"country_code":"CH","latitude":"47.11502000","longitude":"7.86209000"},{"id":"17952","name":"Ins","state_id":1645,"state_code":"BE","country_id":214,"country_code":"CH","latitude":"47.00584000","longitude":"7.10609000"},{"id":"17953","name":"Interlaken","state_id":1645,"state_code":"BE","country_id":214,"country_code":"CH","latitude":"46.68387000","longitude":"7.86638000"},{"id":"17954","name":"Interlaken-Oberhasli District","state_id":1645,"state_code":"BE","country_id":214,"country_code":"CH","latitude":"46.68931000","longitude":"7.98869000"},{"id":"17957","name":"Jegenstorf","state_id":1645,"state_code":"BE","country_id":214,"country_code":"CH","latitude":"47.04802000","longitude":"7.50787000"},{"id":"17963","name":"Jura bernois","state_id":1645,"state_code":"BE","country_id":214,"country_code":"CH","latitude":"47.21892000","longitude":"7.21981000"},{"id":"17968","name":"Kallnach","state_id":1645,"state_code":"BE","country_id":214,"country_code":"CH","latitude":"47.02032000","longitude":"7.23545000"},{"id":"17970","name":"Kandersteg","state_id":1645,"state_code":"BE","country_id":214,"country_code":"CH","latitude":"46.49467000","longitude":"7.67326000"},{"id":"17971","name":"Kappelen","state_id":1645,"state_code":"BE","country_id":214,"country_code":"CH","latitude":"47.06015000","longitude":"7.26860000"},{"id":"18011","name":"K\u00f6niz","state_id":1645,"state_code":"BE","country_id":214,"country_code":"CH","latitude":"46.92436000","longitude":"7.41457000"},{"id":"17972","name":"Kehrsatz","state_id":1645,"state_code":"BE","country_id":214,"country_code":"CH","latitude":"46.91035000","longitude":"7.47096000"},{"id":"17981","name":"Kirchberg","state_id":1645,"state_code":"BE","country_id":214,"country_code":"CH","latitude":"47.08538000","longitude":"7.58288000"},{"id":"17982","name":"Kirchlindach","state_id":1645,"state_code":"BE","country_id":214,"country_code":"CH","latitude":"46.99965000","longitude":"7.41735000"},{"id":"18002","name":"Konolfingen","state_id":1645,"state_code":"BE","country_id":214,"country_code":"CH","latitude":"46.87909000","longitude":"7.62013000"},{"id":"18003","name":"Koppigen","state_id":1645,"state_code":"BE","country_id":214,"country_code":"CH","latitude":"47.13125000","longitude":"7.60525000"},{"id":"18004","name":"Krauchthal","state_id":1645,"state_code":"BE","country_id":214,"country_code":"CH","latitude":"47.00964000","longitude":"7.56640000"},{"id":"18023","name":"La Neuveville","state_id":1645,"state_code":"BE","country_id":214,"country_code":"CH","latitude":"47.06592000","longitude":"7.09717000"},{"id":"18036","name":"Langenthal","state_id":1645,"state_code":"BE","country_id":214,"country_code":"CH","latitude":"47.21526000","longitude":"7.79607000"},{"id":"18037","name":"Langnau","state_id":1645,"state_code":"BE","country_id":214,"country_code":"CH","latitude":"46.93936000","longitude":"7.78738000"},{"id":"18045","name":"Laupen","state_id":1645,"state_code":"BE","country_id":214,"country_code":"CH","latitude":"46.90214000","longitude":"7.23973000"},{"id":"18047","name":"Lauperswil","state_id":1645,"state_code":"BE","country_id":214,"country_code":"CH","latitude":"46.96564000","longitude":"7.74214000"},{"id":"18051","name":"Lauterbrunnen","state_id":1645,"state_code":"BE","country_id":214,"country_code":"CH","latitude":"46.59307000","longitude":"7.90938000"},{"id":"18112","name":"L\u00fctzelfl\u00fch","state_id":1645,"state_code":"BE","country_id":214,"country_code":"CH","latitude":"47.00757000","longitude":"7.69165000"},{"id":"18063","name":"Lengnau","state_id":1645,"state_code":"BE","country_id":214,"country_code":"CH","latitude":"47.18155000","longitude":"7.36814000"},{"id":"18064","name":"Lenk","state_id":1645,"state_code":"BE","country_id":214,"country_code":"CH","latitude":"46.45826000","longitude":"7.44298000"},{"id":"18077","name":"Leuzigen","state_id":1645,"state_code":"BE","country_id":214,"country_code":"CH","latitude":"47.17458000","longitude":"7.45775000"},{"id":"18085","name":"Linden","state_id":1645,"state_code":"BE","country_id":214,"country_code":"CH","latitude":"46.84690000","longitude":"7.67831000"},{"id":"18093","name":"Lotzwil","state_id":1645,"state_code":"BE","country_id":214,"country_code":"CH","latitude":"47.19135000","longitude":"7.79102000"},{"id":"18107","name":"Lyss","state_id":1645,"state_code":"BE","country_id":214,"country_code":"CH","latitude":"47.07410000","longitude":"7.30655000"},{"id":"18108","name":"Lyssach","state_id":1645,"state_code":"BE","country_id":214,"country_code":"CH","latitude":"47.06445000","longitude":"7.58228000"},{"id":"18113","name":"Madiswil","state_id":1645,"state_code":"BE","country_id":214,"country_code":"CH","latitude":"47.16463000","longitude":"7.79858000"},{"id":"18118","name":"Malleray","state_id":1645,"state_code":"BE","country_id":214,"country_code":"CH","latitude":"47.23839000","longitude":"7.27286000"},{"id":"18129","name":"Matten","state_id":1645,"state_code":"BE","country_id":214,"country_code":"CH","latitude":"46.67833000","longitude":"7.86889000"},{"id":"18195","name":"M\u00fchleberg","state_id":1645,"state_code":"BE","country_id":214,"country_code":"CH","latitude":"46.95466000","longitude":"7.26102000"},{"id":"18197","name":"M\u00fchlethurnen","state_id":1645,"state_code":"BE","country_id":214,"country_code":"CH","latitude":"46.81345000","longitude":"7.50881000"},{"id":"18199","name":"M\u00fcnchenbuchsee","state_id":1645,"state_code":"BE","country_id":214,"country_code":"CH","latitude":"47.02175000","longitude":"7.45036000"},{"id":"18201","name":"M\u00fcnchenwiler","state_id":1645,"state_code":"BE","country_id":214,"country_code":"CH","latitude":"46.91334000","longitude":"7.12556000"},{"id":"18204","name":"M\u00fcnsingen","state_id":1645,"state_code":"BE","country_id":214,"country_code":"CH","latitude":"46.87298000","longitude":"7.56100000"},{"id":"18206","name":"M\u00fcntschemier","state_id":1645,"state_code":"BE","country_id":214,"country_code":"CH","latitude":"46.99548000","longitude":"7.14626000"},{"id":"18142","name":"Meinisberg","state_id":1645,"state_code":"BE","country_id":214,"country_code":"CH","latitude":"47.15965000","longitude":"7.34801000"},{"id":"18143","name":"Meiringen","state_id":1645,"state_code":"BE","country_id":214,"country_code":"CH","latitude":"46.72709000","longitude":"8.18720000"},{"id":"18146","name":"Melchnau","state_id":1645,"state_code":"BE","country_id":214,"country_code":"CH","latitude":"47.18213000","longitude":"7.85128000"},{"id":"18175","name":"Moutier","state_id":1645,"state_code":"BE","country_id":214,"country_code":"CH","latitude":"47.27818000","longitude":"7.36951000"},{"id":"18183","name":"Muri","state_id":1645,"state_code":"BE","country_id":214,"country_code":"CH","latitude":"46.93122000","longitude":"7.48658000"},{"id":"18219","name":"Nidau","state_id":1645,"state_code":"BE","country_id":214,"country_code":"CH","latitude":"47.12545000","longitude":"7.24033000"},{"id":"18220","name":"Niederbipp","state_id":1645,"state_code":"BE","country_id":214,"country_code":"CH","latitude":"47.27175000","longitude":"7.69583000"},{"id":"18239","name":"Oberaargau","state_id":1645,"state_code":"BE","country_id":214,"country_code":"CH","latitude":"47.19202000","longitude":"7.74553000"},{"id":"18240","name":"Oberbipp","state_id":1645,"state_code":"BE","country_id":214,"country_code":"CH","latitude":"47.26070000","longitude":"7.66359000"},{"id":"18242","name":"Oberburg","state_id":1645,"state_code":"BE","country_id":214,"country_code":"CH","latitude":"47.03665000","longitude":"7.62745000"},{"id":"18243","name":"Oberdiessbach","state_id":1645,"state_code":"BE","country_id":214,"country_code":"CH","latitude":"46.84117000","longitude":"7.61730000"},{"id":"18267","name":"Obersimmental-Saanen District","state_id":1645,"state_code":"BE","country_id":214,"country_code":"CH","latitude":"46.47932000","longitude":"7.35803000"},{"id":"18289","name":"Orpund","state_id":1645,"state_code":"BE","country_id":214,"country_code":"CH","latitude":"47.13891000","longitude":"7.30775000"},{"id":"18291","name":"Orvin","state_id":1645,"state_code":"BE","country_id":214,"country_code":"CH","latitude":"47.16068000","longitude":"7.21368000"},{"id":"18332","name":"P\u00e9ry","state_id":1645,"state_code":"BE","country_id":214,"country_code":"CH","latitude":"47.19398000","longitude":"7.24913000"},{"id":"18314","name":"Pieterlen","state_id":1645,"state_code":"BE","country_id":214,"country_code":"CH","latitude":"47.17501000","longitude":"7.33791000"},{"id":"18334","name":"Radelfingen","state_id":1645,"state_code":"BE","country_id":214,"country_code":"CH","latitude":"47.02146000","longitude":"7.27178000"},{"id":"18404","name":"R\u00fcderswil","state_id":1645,"state_code":"BE","country_id":214,"country_code":"CH","latitude":"46.98374000","longitude":"7.72167000"},{"id":"18405","name":"R\u00fceggisberg","state_id":1645,"state_code":"BE","country_id":214,"country_code":"CH","latitude":"46.82216000","longitude":"7.43890000"},{"id":"18408","name":"R\u00fcschegg","state_id":1645,"state_code":"BE","country_id":214,"country_code":"CH","latitude":"46.77977000","longitude":"7.39167000"},{"id":"18343","name":"Reconvilier","state_id":1645,"state_code":"BE","country_id":214,"country_code":"CH","latitude":"47.23431000","longitude":"7.22239000"},{"id":"18376","name":"Riggisberg","state_id":1645,"state_code":"BE","country_id":214,"country_code":"CH","latitude":"46.81028000","longitude":"7.48014000"},{"id":"18377","name":"Ringgenberg","state_id":1645,"state_code":"BE","country_id":214,"country_code":"CH","latitude":"46.70114000","longitude":"7.89445000"},{"id":"18382","name":"Roggwil","state_id":1645,"state_code":"BE","country_id":214,"country_code":"CH","latitude":"47.24119000","longitude":"7.82141000"},{"id":"18385","name":"Rohrbach","state_id":1645,"state_code":"BE","country_id":214,"country_code":"CH","latitude":"47.13521000","longitude":"7.81334000"},{"id":"18396","name":"Rubigen","state_id":1645,"state_code":"BE","country_id":214,"country_code":"CH","latitude":"46.89868000","longitude":"7.54460000"},{"id":"18415","name":"Saanen","state_id":1645,"state_code":"BE","country_id":214,"country_code":"CH","latitude":"46.48945000","longitude":"7.26003000"},{"id":"18425","name":"Saint-Imier","state_id":1645,"state_code":"BE","country_id":214,"country_code":"CH","latitude":"47.15284000","longitude":"6.99692000"},{"id":"18443","name":"Sankt Stephan","state_id":1645,"state_code":"BE","country_id":214,"country_code":"CH","latitude":"46.50827000","longitude":"7.39559000"},{"id":"18488","name":"Sch\u00fcpfen","state_id":1645,"state_code":"BE","country_id":214,"country_code":"CH","latitude":"47.03661000","longitude":"7.37723000"},{"id":"18491","name":"Seeberg","state_id":1645,"state_code":"BE","country_id":214,"country_code":"CH","latitude":"47.15585000","longitude":"7.66567000"},{"id":"18493","name":"Seedorf","state_id":1645,"state_code":"BE","country_id":214,"country_code":"CH","latitude":"47.03445000","longitude":"7.31249000"},{"id":"18494","name":"Seeland District","state_id":1645,"state_code":"BE","country_id":214,"country_code":"CH","latitude":"47.06635000","longitude":"7.26333000"},{"id":"18502","name":"Seftigen","state_id":1645,"state_code":"BE","country_id":214,"country_code":"CH","latitude":"46.78765000","longitude":"7.53937000"},{"id":"18519","name":"Signau","state_id":1645,"state_code":"BE","country_id":214,"country_code":"CH","latitude":"46.91944000","longitude":"7.72418000"},{"id":"18520","name":"Sigriswil","state_id":1645,"state_code":"BE","country_id":214,"country_code":"CH","latitude":"46.71656000","longitude":"7.71335000"},{"id":"18533","name":"Spiez","state_id":1645,"state_code":"BE","country_id":214,"country_code":"CH","latitude":"46.68473000","longitude":"7.69111000"},{"id":"18550","name":"Steffisburg","state_id":1645,"state_code":"BE","country_id":214,"country_code":"CH","latitude":"46.77807000","longitude":"7.63249000"},{"id":"18558","name":"Stettlen","state_id":1645,"state_code":"BE","country_id":214,"country_code":"CH","latitude":"46.95835000","longitude":"7.52508000"},{"id":"18566","name":"Sumiswald","state_id":1645,"state_code":"BE","country_id":214,"country_code":"CH","latitude":"47.02747000","longitude":"7.74526000"},{"id":"18576","name":"Tavannes","state_id":1645,"state_code":"BE","country_id":214,"country_code":"CH","latitude":"47.22079000","longitude":"7.19759000"},{"id":"18617","name":"T\u00e4uffelen","state_id":1645,"state_code":"BE","country_id":214,"country_code":"CH","latitude":"47.06630000","longitude":"7.19883000"},{"id":"18590","name":"Thierachern","state_id":1645,"state_code":"BE","country_id":214,"country_code":"CH","latitude":"46.75319000","longitude":"7.57442000"},{"id":"18591","name":"Thun","state_id":1645,"state_code":"BE","country_id":214,"country_code":"CH","latitude":"46.75118000","longitude":"7.62166000"},{"id":"18592","name":"Thun District","state_id":1645,"state_code":"BE","country_id":214,"country_code":"CH","latitude":"46.76290000","longitude":"7.62503000"},{"id":"18597","name":"Toffen","state_id":1645,"state_code":"BE","country_id":214,"country_code":"CH","latitude":"46.86031000","longitude":"7.49216000"},{"id":"18598","name":"Trachselwald","state_id":1645,"state_code":"BE","country_id":214,"country_code":"CH","latitude":"47.01699000","longitude":"7.73639000"},{"id":"18599","name":"Tramelan","state_id":1645,"state_code":"BE","country_id":214,"country_code":"CH","latitude":"47.22298000","longitude":"7.10287000"},{"id":"18608","name":"Trub","state_id":1645,"state_code":"BE","country_id":214,"country_code":"CH","latitude":"46.94168000","longitude":"7.87996000"},{"id":"18609","name":"Trubschachen","state_id":1645,"state_code":"BE","country_id":214,"country_code":"CH","latitude":"46.92228000","longitude":"7.84520000"},{"id":"18626","name":"Uetendorf","state_id":1645,"state_code":"BE","country_id":214,"country_code":"CH","latitude":"46.77392000","longitude":"7.57251000"},{"id":"18635","name":"Unterseen","state_id":1645,"state_code":"BE","country_id":214,"country_code":"CH","latitude":"46.68530000","longitude":"7.84722000"},{"id":"18644","name":"Urtenen","state_id":1645,"state_code":"BE","country_id":214,"country_code":"CH","latitude":"47.02667000","longitude":"7.50081000"},{"id":"18651","name":"Uttigen","state_id":1645,"state_code":"BE","country_id":214,"country_code":"CH","latitude":"46.79435000","longitude":"7.57789000"},{"id":"18653","name":"Utzenstorf","state_id":1645,"state_code":"BE","country_id":214,"country_code":"CH","latitude":"47.13248000","longitude":"7.55355000"},{"id":"18663","name":"Vechigen","state_id":1645,"state_code":"BE","country_id":214,"country_code":"CH","latitude":"46.94616000","longitude":"7.56065000"},{"id":"18714","name":"Walkringen","state_id":1645,"state_code":"BE","country_id":214,"country_code":"CH","latitude":"46.94856000","longitude":"7.62040000"},{"id":"18723","name":"Wangen an der Aare","state_id":1645,"state_code":"BE","country_id":214,"country_code":"CH","latitude":"47.23208000","longitude":"7.65253000"},{"id":"18724","name":"Wattenwil","state_id":1645,"state_code":"BE","country_id":214,"country_code":"CH","latitude":"46.76973000","longitude":"7.50835000"},{"id":"18744","name":"Wichtrach","state_id":1645,"state_code":"BE","country_id":214,"country_code":"CH","latitude":"46.85010000","longitude":"7.57748000"},{"id":"18745","name":"Wiedlisbach","state_id":1645,"state_code":"BE","country_id":214,"country_code":"CH","latitude":"47.25194000","longitude":"7.64610000"},{"id":"18752","name":"Wilderswil","state_id":1645,"state_code":"BE","country_id":214,"country_code":"CH","latitude":"46.66369000","longitude":"7.86175000"},{"id":"18756","name":"Wimmis","state_id":1645,"state_code":"BE","country_id":214,"country_code":"CH","latitude":"46.67587000","longitude":"7.63972000"},{"id":"18762","name":"Wohlen","state_id":1645,"state_code":"BE","country_id":214,"country_code":"CH","latitude":"46.97118000","longitude":"7.35685000"},{"id":"18768","name":"Worb","state_id":1645,"state_code":"BE","country_id":214,"country_code":"CH","latitude":"46.92984000","longitude":"7.56306000"},{"id":"18769","name":"Worben","state_id":1645,"state_code":"BE","country_id":214,"country_code":"CH","latitude":"47.10279000","longitude":"7.29518000"},{"id":"18770","name":"Wynau","state_id":1645,"state_code":"BE","country_id":214,"country_code":"CH","latitude":"47.25570000","longitude":"7.81626000"},{"id":"18771","name":"Wynigen","state_id":1645,"state_code":"BE","country_id":214,"country_code":"CH","latitude":"47.10586000","longitude":"7.66681000"},{"id":"18772","name":"Wyssachen","state_id":1645,"state_code":"BE","country_id":214,"country_code":"CH","latitude":"47.07851000","longitude":"7.82922000"},{"id":"18808","name":"Z\u00e4ziwil","state_id":1645,"state_code":"BE","country_id":214,"country_code":"CH","latitude":"46.90196000","longitude":"7.66185000"},{"id":"18798","name":"Zollikofen","state_id":1645,"state_code":"BE","country_id":214,"country_code":"CH","latitude":"46.99905000","longitude":"7.45809000"},{"id":"18806","name":"Zweisimmen","state_id":1645,"state_code":"BE","country_id":214,"country_code":"CH","latitude":"46.55539000","longitude":"7.37302000"}]