[{"id":"17428","name":"Baar","state_id":1646,"state_code":"ZG","country_id":214,"country_code":"CH","latitude":"47.19625000","longitude":"8.52954000"},{"id":"17622","name":"Cham","state_id":1646,"state_code":"ZG","country_id":214,"country_code":"CH","latitude":"47.18213000","longitude":"8.46358000"},{"id":"17944","name":"H\u00fcnenberg","state_id":1646,"state_code":"ZG","country_id":214,"country_code":"CH","latitude":"47.17536000","longitude":"8.42497000"},{"id":"18152","name":"Menzingen","state_id":1646,"state_code":"ZG","country_id":214,"country_code":"CH","latitude":"47.17764000","longitude":"8.59215000"},{"id":"18395","name":"Rotkreuz","state_id":1646,"state_code":"ZG","country_id":214,"country_code":"CH","latitude":"47.14283000","longitude":"8.43140000"},{"id":"18554","name":"Steinhausen","state_id":1646,"state_code":"ZG","country_id":214,"country_code":"CH","latitude":"47.19510000","longitude":"8.48581000"},{"id":"18638","name":"Unter\u00e4geri","state_id":1646,"state_code":"ZG","country_id":214,"country_code":"CH","latitude":"47.13645000","longitude":"8.58530000"},{"id":"18708","name":"Walchwil","state_id":1646,"state_code":"ZG","country_id":214,"country_code":"CH","latitude":"47.10169000","longitude":"8.51693000"},{"id":"18801","name":"Zug","state_id":1646,"state_code":"ZG","country_id":214,"country_code":"CH","latitude":"47.17242000","longitude":"8.51745000"}]