[{"id":"17461","name":"Beringen","state_id":1654,"state_code":"SH","country_id":214,"country_code":"CH","latitude":"47.69763000","longitude":"8.57431000"},{"id":"17502","name":"Bezirk Oberklettgau","state_id":1654,"state_code":"SH","country_id":214,"country_code":"CH","latitude":"47.69893000","longitude":"8.51774000"},{"id":"17505","name":"Bezirk Reiat","state_id":1654,"state_code":"SH","country_id":214,"country_code":"CH","latitude":"47.74752000","longitude":"8.70821000"},{"id":"17507","name":"Bezirk Schaffhausen","state_id":1654,"state_code":"SH","country_id":214,"country_code":"CH","latitude":"47.69440000","longitude":"8.63525000"},{"id":"17508","name":"Bezirk Schleitheim","state_id":1654,"state_code":"SH","country_id":214,"country_code":"CH","latitude":"47.75000000","longitude":"8.51111000"},{"id":"17512","name":"Bezirk Stein","state_id":1654,"state_code":"SH","country_id":214,"country_code":"CH","latitude":"47.66429000","longitude":"8.84683000"},{"id":"17515","name":"Bezirk Unterklettgau","state_id":1654,"state_code":"SH","country_id":214,"country_code":"CH","latitude":"47.68000000","longitude":"8.46333000"},{"id":"17892","name":"Hallau","state_id":1654,"state_code":"SH","country_id":214,"country_code":"CH","latitude":"47.69648000","longitude":"8.45827000"},{"id":"18110","name":"L\u00f6hningen","state_id":1654,"state_code":"SH","country_id":214,"country_code":"CH","latitude":"47.70121000","longitude":"8.55236000"},{"id":"18217","name":"Neuhausen","state_id":1654,"state_code":"SH","country_id":214,"country_code":"CH","latitude":"47.68579000","longitude":"8.61474000"},{"id":"18218","name":"Neunkirch","state_id":1654,"state_code":"SH","country_id":214,"country_code":"CH","latitude":"47.69012000","longitude":"8.49981000"},{"id":"18336","name":"Ramsen","state_id":1654,"state_code":"SH","country_id":214,"country_code":"CH","latitude":"47.70797000","longitude":"8.80949000"},{"id":"18455","name":"Schaffhausen","state_id":1654,"state_code":"SH","country_id":214,"country_code":"CH","latitude":"47.69732000","longitude":"8.63493000"},{"id":"18464","name":"Schleitheim","state_id":1654,"state_code":"SH","country_id":214,"country_code":"CH","latitude":"47.74818000","longitude":"8.48213000"},{"id":"18552","name":"Stein am Rhein","state_id":1654,"state_code":"SH","country_id":214,"country_code":"CH","latitude":"47.65933000","longitude":"8.85964000"},{"id":"18556","name":"Stetten","state_id":1654,"state_code":"SH","country_id":214,"country_code":"CH","latitude":"47.74025000","longitude":"8.66298000"},{"id":"18588","name":"Thayngen","state_id":1654,"state_code":"SH","country_id":214,"country_code":"CH","latitude":"47.74717000","longitude":"8.70724000"},{"id":"18751","name":"Wilchingen","state_id":1654,"state_code":"SH","country_id":214,"country_code":"CH","latitude":"47.66745000","longitude":"8.46774000"}]