[{"id":"17364","name":"Adliswil","state_id":1656,"state_code":"ZH","country_id":214,"country_code":"CH","latitude":"47.30997000","longitude":"8.52462000"},{"id":"17365","name":"Adliswil \/ Adliswil (Stadtkern)","state_id":1656,"state_code":"ZH","country_id":214,"country_code":"CH","latitude":"47.31128000","longitude":"8.52675000"},{"id":"17366","name":"Adliswil \/ H\u00fcndli-Zopf","state_id":1656,"state_code":"ZH","country_id":214,"country_code":"CH","latitude":"47.31637000","longitude":"8.51888000"},{"id":"17367","name":"Adliswil \/ Oberleimbach","state_id":1656,"state_code":"ZH","country_id":214,"country_code":"CH","latitude":"47.32020000","longitude":"8.51508000"},{"id":"17368","name":"Adliswil \/ Sonnenberg","state_id":1656,"state_code":"ZH","country_id":214,"country_code":"CH","latitude":"47.30958000","longitude":"8.52055000"},{"id":"17369","name":"Adliswil \/ Sood","state_id":1656,"state_code":"ZH","country_id":214,"country_code":"CH","latitude":"47.31870000","longitude":"8.52425000"},{"id":"17370","name":"Adliswil \/ Tal","state_id":1656,"state_code":"ZH","country_id":214,"country_code":"CH","latitude":"47.31142000","longitude":"8.53446000"},{"id":"17372","name":"Aesch","state_id":1656,"state_code":"ZH","country_id":214,"country_code":"CH","latitude":"47.32970000","longitude":"8.65410000"},{"id":"17375","name":"Affoltern \/ Hasenb\u00fcel","state_id":1656,"state_code":"ZH","country_id":214,"country_code":"CH","latitude":"47.27324000","longitude":"8.45218000"},{"id":"17376","name":"Affoltern \/ Oberdorf","state_id":1656,"state_code":"ZH","country_id":214,"country_code":"CH","latitude":"47.27852000","longitude":"8.45651000"},{"id":"17377","name":"Affoltern \/ Sonnenberg","state_id":1656,"state_code":"ZH","country_id":214,"country_code":"CH","latitude":"47.28055000","longitude":"8.46008000"},{"id":"17378","name":"Affoltern \/ Unterdorf","state_id":1656,"state_code":"ZH","country_id":214,"country_code":"CH","latitude":"47.28277000","longitude":"8.45409000"},{"id":"17379","name":"Affoltern am Albis","state_id":1656,"state_code":"ZH","country_id":214,"country_code":"CH","latitude":"47.27743000","longitude":"8.45128000"},{"id":"17396","name":"Andelfingen","state_id":1656,"state_code":"ZH","country_id":214,"country_code":"CH","latitude":"47.59447000","longitude":"8.67826000"},{"id":"17418","name":"Au","state_id":1656,"state_code":"ZH","country_id":214,"country_code":"CH","latitude":"47.24185000","longitude":"8.64406000"},{"id":"17420","name":"Au \/ Mittel-Dorf","state_id":1656,"state_code":"ZH","country_id":214,"country_code":"CH","latitude":"47.24303000","longitude":"8.64591000"},{"id":"17421","name":"Au \/ Unter-Dorf","state_id":1656,"state_code":"ZH","country_id":214,"country_code":"CH","latitude":"47.24730000","longitude":"8.63270000"},{"id":"17429","name":"Bachenb\u00fclach","state_id":1656,"state_code":"ZH","country_id":214,"country_code":"CH","latitude":"47.50317000","longitude":"8.54556000"},{"id":"17443","name":"Bassersdorf","state_id":1656,"state_code":"ZH","country_id":214,"country_code":"CH","latitude":"47.44342000","longitude":"8.62851000"},{"id":"17445","name":"Bauma","state_id":1656,"state_code":"ZH","country_id":214,"country_code":"CH","latitude":"47.36745000","longitude":"8.87905000"},{"id":"17591","name":"B\u00e4retswil","state_id":1656,"state_code":"ZH","country_id":214,"country_code":"CH","latitude":"47.33709000","longitude":"8.85645000"},{"id":"17598","name":"B\u00fclach","state_id":1656,"state_code":"ZH","country_id":214,"country_code":"CH","latitude":"47.52197000","longitude":"8.54049000"},{"id":"17599","name":"B\u00fclach \/ Gst\u00fcckt","state_id":1656,"state_code":"ZH","country_id":214,"country_code":"CH","latitude":"47.52337000","longitude":"8.54879000"},{"id":"17600","name":"B\u00fclach \/ Seematt","state_id":1656,"state_code":"ZH","country_id":214,"country_code":"CH","latitude":"47.51716000","longitude":"8.54651000"},{"id":"17601","name":"B\u00fclach \/ Solig\u00e4nter","state_id":1656,"state_code":"ZH","country_id":214,"country_code":"CH","latitude":"47.52632000","longitude":"8.54106000"},{"id":"17457","name":"Benglen","state_id":1656,"state_code":"ZH","country_id":214,"country_code":"CH","latitude":"47.36077000","longitude":"8.63687000"},{"id":"17472","name":"Bezirk Affoltern","state_id":1656,"state_code":"ZH","country_id":214,"country_code":"CH","latitude":"47.27311000","longitude":"8.47444000"},{"id":"17473","name":"Bezirk Andelfingen","state_id":1656,"state_code":"ZH","country_id":214,"country_code":"CH","latitude":"47.61328000","longitude":"8.68124000"},{"id":"17479","name":"Bezirk B\u00fclach","state_id":1656,"state_code":"ZH","country_id":214,"country_code":"CH","latitude":"47.49706000","longitude":"8.56764000"},{"id":"17480","name":"Bezirk Dielsdorf","state_id":1656,"state_code":"ZH","country_id":214,"country_code":"CH","latitude":"47.47181000","longitude":"8.45631000"},{"id":"17481","name":"Bezirk Dietikon","state_id":1656,"state_code":"ZH","country_id":214,"country_code":"CH","latitude":"47.38804000","longitude":"8.44260000"},{"id":"17488","name":"Bezirk Hinwil","state_id":1656,"state_code":"ZH","country_id":214,"country_code":"CH","latitude":"47.29646000","longitude":"8.83431000"},{"id":"17489","name":"Bezirk Horgen","state_id":1656,"state_code":"ZH","country_id":214,"country_code":"CH","latitude":"47.25767000","longitude":"8.59702000"},{"id":"17499","name":"Bezirk Meilen","state_id":1656,"state_code":"ZH","country_id":214,"country_code":"CH","latitude":"47.27920000","longitude":"8.66259000"},{"id":"17504","name":"Bezirk Pf\u00e4ffikon","state_id":1656,"state_code":"ZH","country_id":214,"country_code":"CH","latitude":"47.40905000","longitude":"8.77208000"},{"id":"17516","name":"Bezirk Uster","state_id":1656,"state_code":"ZH","country_id":214,"country_code":"CH","latitude":"47.34952000","longitude":"8.71353000"},{"id":"17520","name":"Bezirk Winterthur","state_id":1656,"state_code":"ZH","country_id":214,"country_code":"CH","latitude":"47.50781000","longitude":"8.76900000"},{"id":"17523","name":"Bezirk Z\u00fcrich","state_id":1656,"state_code":"ZH","country_id":214,"country_code":"CH","latitude":"47.37110000","longitude":"8.54323000"},{"id":"17531","name":"Binz","state_id":1656,"state_code":"ZH","country_id":214,"country_code":"CH","latitude":"47.35635000","longitude":"8.62657000"},{"id":"17532","name":"Binzikon","state_id":1656,"state_code":"ZH","country_id":214,"country_code":"CH","latitude":"47.27632000","longitude":"8.75851000"},{"id":"17534","name":"Birchwil","state_id":1656,"state_code":"ZH","country_id":214,"country_code":"CH","latitude":"47.45431000","longitude":"8.63477000"},{"id":"17535","name":"Birmensdorf","state_id":1656,"state_code":"ZH","country_id":214,"country_code":"CH","latitude":"47.35515000","longitude":"8.44256000"},{"id":"17550","name":"Bonstetten","state_id":1656,"state_code":"ZH","country_id":214,"country_code":"CH","latitude":"47.31505000","longitude":"8.46836000"},{"id":"17573","name":"Br\u00fctten","state_id":1656,"state_code":"ZH","country_id":214,"country_code":"CH","latitude":"47.47318000","longitude":"8.67569000"},{"id":"17574","name":"Br\u00fcttisellen","state_id":1656,"state_code":"ZH","country_id":214,"country_code":"CH","latitude":"47.42173000","longitude":"8.63263000"},{"id":"17576","name":"Bubikon","state_id":1656,"state_code":"ZH","country_id":214,"country_code":"CH","latitude":"47.26698000","longitude":"8.81790000"},{"id":"17673","name":"Dachsen","state_id":1656,"state_code":"ZH","country_id":214,"country_code":"CH","latitude":"47.66515000","longitude":"8.61790000"},{"id":"17706","name":"D\u00e4llikon \/ D\u00e4llikon (Dorf)","state_id":1656,"state_code":"ZH","country_id":214,"country_code":"CH","latitude":"47.43983000","longitude":"8.43813000"},{"id":"17707","name":"D\u00e4nikon","state_id":1656,"state_code":"ZH","country_id":214,"country_code":"CH","latitude":"47.44674000","longitude":"8.40648000"},{"id":"17709","name":"D\u00fcbendorf","state_id":1656,"state_code":"ZH","country_id":214,"country_code":"CH","latitude":"47.39724000","longitude":"8.61872000"},{"id":"17710","name":"D\u00fcbendorf \/ Kunklerstrasse","state_id":1656,"state_code":"ZH","country_id":214,"country_code":"CH","latitude":"47.40109000","longitude":"8.62724000"},{"id":"17711","name":"D\u00fcbendorf \/ Sonnenberg","state_id":1656,"state_code":"ZH","country_id":214,"country_code":"CH","latitude":"47.39469000","longitude":"8.63162000"},{"id":"17712","name":"D\u00fcbendorf \/ Vogelquartier","state_id":1656,"state_code":"ZH","country_id":214,"country_code":"CH","latitude":"47.39502000","longitude":"8.61184000"},{"id":"17713","name":"D\u00fcbendorf \/ Wasserfurren","state_id":1656,"state_code":"ZH","country_id":214,"country_code":"CH","latitude":"47.39352000","longitude":"8.60850000"},{"id":"17715","name":"D\u00fcrnten","state_id":1656,"state_code":"ZH","country_id":214,"country_code":"CH","latitude":"47.27856000","longitude":"8.84156000"},{"id":"17685","name":"Dielsdorf","state_id":1656,"state_code":"ZH","country_id":214,"country_code":"CH","latitude":"47.48146000","longitude":"8.45850000"},{"id":"17689","name":"Dietikon","state_id":1656,"state_code":"ZH","country_id":214,"country_code":"CH","latitude":"47.40165000","longitude":"8.40015000"},{"id":"17690","name":"Dietikon \/ Almend","state_id":1656,"state_code":"ZH","country_id":214,"country_code":"CH","latitude":"47.40477000","longitude":"8.39168000"},{"id":"17691","name":"Dietikon \/ Guggenb\u00fchl","state_id":1656,"state_code":"ZH","country_id":214,"country_code":"CH","latitude":"47.40009000","longitude":"8.40818000"},{"id":"17692","name":"Dietikon \/ Hofacker","state_id":1656,"state_code":"ZH","country_id":214,"country_code":"CH","latitude":"47.39718000","longitude":"8.41609000"},{"id":"17693","name":"Dietikon \/ Kreuzacker","state_id":1656,"state_code":"ZH","country_id":214,"country_code":"CH","latitude":"47.39919000","longitude":"8.40146000"},{"id":"17694","name":"Dietikon \/ Oberdorf","state_id":1656,"state_code":"ZH","country_id":214,"country_code":"CH","latitude":"47.40065000","longitude":"8.39416000"},{"id":"17695","name":"Dietikon \/ Sch\u00f6nenwerd","state_id":1656,"state_code":"ZH","country_id":214,"country_code":"CH","latitude":"47.39706000","longitude":"8.42576000"},{"id":"17696","name":"Dietikon \/ Vorstadt","state_id":1656,"state_code":"ZH","country_id":214,"country_code":"CH","latitude":"47.40819000","longitude":"8.39719000"},{"id":"17697","name":"Dietlikon \/ Dietlikon (Dorf)","state_id":1656,"state_code":"ZH","country_id":214,"country_code":"CH","latitude":"47.41827000","longitude":"8.61880000"},{"id":"17698","name":"Dietlikon \/ Eichwiesen","state_id":1656,"state_code":"ZH","country_id":214,"country_code":"CH","latitude":"47.41910000","longitude":"8.62078000"},{"id":"17703","name":"Dorf","state_id":1656,"state_code":"ZH","country_id":214,"country_code":"CH","latitude":"47.23900000","longitude":"8.73567000"},{"id":"17719","name":"Ebmatingen","state_id":1656,"state_code":"ZH","country_id":214,"country_code":"CH","latitude":"47.34987000","longitude":"8.64013000"},{"id":"17724","name":"Effretikon","state_id":1656,"state_code":"ZH","country_id":214,"country_code":"CH","latitude":"47.42575000","longitude":"8.69094000"},{"id":"17725","name":"Effretikon \/ Rappenhalde-Bannhalde","state_id":1656,"state_code":"ZH","country_id":214,"country_code":"CH","latitude":"47.42388000","longitude":"8.69653000"},{"id":"17726","name":"Effretikon \/ Rikon","state_id":1656,"state_code":"ZH","country_id":214,"country_code":"CH","latitude":"47.43099000","longitude":"8.68624000"},{"id":"17727","name":"Effretikon \/ Watt","state_id":1656,"state_code":"ZH","country_id":214,"country_code":"CH","latitude":"47.42797000","longitude":"8.69822000"},{"id":"17729","name":"Egg","state_id":1656,"state_code":"ZH","country_id":214,"country_code":"CH","latitude":"47.29976000","longitude":"8.69032000"},{"id":"17739","name":"Elgg","state_id":1656,"state_code":"ZH","country_id":214,"country_code":"CH","latitude":"47.49715000","longitude":"8.86523000"},{"id":"17740","name":"Elgg \/ St\u00e4dtchen und Umgebung","state_id":1656,"state_code":"ZH","country_id":214,"country_code":"CH","latitude":"47.49265000","longitude":"8.86680000"},{"id":"17741","name":"Elsau-R\u00e4terschen","state_id":1656,"state_code":"ZH","country_id":214,"country_code":"CH","latitude":"47.50238000","longitude":"8.79874000"},{"id":"17742","name":"Elsau-R\u00e4terschen \/ R\u00e4terschen","state_id":1656,"state_code":"ZH","country_id":214,"country_code":"CH","latitude":"47.49927000","longitude":"8.79600000"},{"id":"17743","name":"Embrach","state_id":1656,"state_code":"ZH","country_id":214,"country_code":"CH","latitude":"47.50561000","longitude":"8.59406000"},{"id":"17744","name":"Embrach \/ Embrach (Dorfkern)","state_id":1656,"state_code":"ZH","country_id":214,"country_code":"CH","latitude":"47.50400000","longitude":"8.59477000"},{"id":"17745","name":"Embrach \/ Kellersacker","state_id":1656,"state_code":"ZH","country_id":214,"country_code":"CH","latitude":"47.51455000","longitude":"8.59146000"},{"id":"17761","name":"Erlenbach","state_id":1656,"state_code":"ZH","country_id":214,"country_code":"CH","latitude":"47.30298000","longitude":"8.59743000"},{"id":"17762","name":"Erlenbach \/ links des Dorfbachs oberhalb Bahnlinie","state_id":1656,"state_code":"ZH","country_id":214,"country_code":"CH","latitude":"47.29950000","longitude":"8.60188000"},{"id":"17763","name":"Erlenbach \/ rechts des Dorfbachs oberhalb Bahnlinie","state_id":1656,"state_code":"ZH","country_id":214,"country_code":"CH","latitude":"47.30658000","longitude":"8.60271000"},{"id":"17773","name":"Esslingen","state_id":1656,"state_code":"ZH","country_id":214,"country_code":"CH","latitude":"47.28325000","longitude":"8.71038000"},{"id":"17816","name":"F\u00e4llanden","state_id":1656,"state_code":"ZH","country_id":214,"country_code":"CH","latitude":"47.37169000","longitude":"8.63869000"},{"id":"17781","name":"Fehraltorf","state_id":1656,"state_code":"ZH","country_id":214,"country_code":"CH","latitude":"47.38775000","longitude":"8.75149000"},{"id":"17782","name":"Feldmeilen","state_id":1656,"state_code":"ZH","country_id":214,"country_code":"CH","latitude":"47.27873000","longitude":"8.62165000"},{"id":"17786","name":"Feuerthalen","state_id":1656,"state_code":"ZH","country_id":214,"country_code":"CH","latitude":"47.69054000","longitude":"8.64357000"},{"id":"17795","name":"Flurlingen","state_id":1656,"state_code":"ZH","country_id":214,"country_code":"CH","latitude":"47.68390000","longitude":"8.62995000"},{"id":"17807","name":"Freienstein","state_id":1656,"state_code":"ZH","country_id":214,"country_code":"CH","latitude":"47.53307000","longitude":"8.58455000"},{"id":"17823","name":"Gattikon","state_id":1656,"state_code":"ZH","country_id":214,"country_code":"CH","latitude":"47.28439000","longitude":"8.54830000"},{"id":"17829","name":"Geroldswil","state_id":1656,"state_code":"ZH","country_id":214,"country_code":"CH","latitude":"47.42213000","longitude":"8.41085000"},{"id":"17840","name":"Glattbrugg","state_id":1656,"state_code":"ZH","country_id":214,"country_code":"CH","latitude":"47.43130000","longitude":"8.56272000"},{"id":"17841","name":"Glattbrugg \/ Rohr\/Platten-Balsberg","state_id":1656,"state_code":"ZH","country_id":214,"country_code":"CH","latitude":"47.43721000","longitude":"8.56642000"},{"id":"17842","name":"Glattbrugg \/ Wydacker\/Bettacker\/L\u00e4ttenwiesen","state_id":1656,"state_code":"ZH","country_id":214,"country_code":"CH","latitude":"47.42908000","longitude":"8.56657000"},{"id":"17843","name":"Glattfelden","state_id":1656,"state_code":"ZH","country_id":214,"country_code":"CH","latitude":"47.55871000","longitude":"8.50167000"},{"id":"17846","name":"Gockhausen","state_id":1656,"state_code":"ZH","country_id":214,"country_code":"CH","latitude":"47.38098000","longitude":"8.59978000"},{"id":"17857","name":"Gossau","state_id":1656,"state_code":"ZH","country_id":214,"country_code":"CH","latitude":"47.30510000","longitude":"8.75831000"},{"id":"17883","name":"Gr\u00fct","state_id":1656,"state_code":"ZH","country_id":214,"country_code":"CH","latitude":"47.31151000","longitude":"8.78339000"},{"id":"17864","name":"Greifensee","state_id":1656,"state_code":"ZH","country_id":214,"country_code":"CH","latitude":"47.36717000","longitude":"8.68115000"},{"id":"17865","name":"Greifensee \/ M\u00fcllerwis \/ Seilerwis","state_id":1656,"state_code":"ZH","country_id":214,"country_code":"CH","latitude":"47.37042000","longitude":"8.68151000"},{"id":"17866","name":"Greifensee \/ Pfisterh\u00f6lzli","state_id":1656,"state_code":"ZH","country_id":214,"country_code":"CH","latitude":"47.36430000","longitude":"8.68979000"},{"id":"17873","name":"Grossacker\/Opfikon","state_id":1656,"state_code":"ZH","country_id":214,"country_code":"CH","latitude":"47.42696000","longitude":"8.57886000"},{"id":"17888","name":"Gutenswil","state_id":1656,"state_code":"ZH","country_id":214,"country_code":"CH","latitude":"47.38387000","longitude":"8.71763000"},{"id":"17891","name":"Hadlikon","state_id":1656,"state_code":"ZH","country_id":214,"country_code":"CH","latitude":"47.28750000","longitude":"8.85719000"},{"id":"17896","name":"Hausen am Albis \/ Hausen (Dorf)","state_id":1656,"state_code":"ZH","country_id":214,"country_code":"CH","latitude":"47.24496000","longitude":"8.53299000"},{"id":"17943","name":"H\u00f6ri","state_id":1656,"state_code":"ZH","country_id":214,"country_code":"CH","latitude":"47.50799000","longitude":"8.51203000"},{"id":"17897","name":"Hedingen","state_id":1656,"state_code":"ZH","country_id":214,"country_code":"CH","latitude":"47.29794000","longitude":"8.44833000"},{"id":"17898","name":"Hegnau","state_id":1656,"state_code":"ZH","country_id":214,"country_code":"CH","latitude":"47.39227000","longitude":"8.66988000"},{"id":"17899","name":"Hegnau \/ Dammboden-Grindel","state_id":1656,"state_code":"ZH","country_id":214,"country_code":"CH","latitude":"47.38713000","longitude":"8.66657000"},{"id":"17900","name":"Hegnau \/ Sunneb\u00fcel-Eich","state_id":1656,"state_code":"ZH","country_id":214,"country_code":"CH","latitude":"47.39246000","longitude":"8.67910000"},{"id":"17905","name":"Henggart","state_id":1656,"state_code":"ZH","country_id":214,"country_code":"CH","latitude":"47.56272000","longitude":"8.68215000"},{"id":"17909","name":"Herrliberg","state_id":1656,"state_code":"ZH","country_id":214,"country_code":"CH","latitude":"47.29064000","longitude":"8.61464000"},{"id":"17911","name":"Hettlingen","state_id":1656,"state_code":"ZH","country_id":214,"country_code":"CH","latitude":"47.54610000","longitude":"8.70532000"},{"id":"17916","name":"Hinteregg","state_id":1656,"state_code":"ZH","country_id":214,"country_code":"CH","latitude":"47.30736000","longitude":"8.68339000"},{"id":"17918","name":"Hinwil","state_id":1656,"state_code":"ZH","country_id":214,"country_code":"CH","latitude":"47.29426000","longitude":"8.84393000"},{"id":"17919","name":"Hittnau \/ Hittnau (Dorf)","state_id":1656,"state_code":"ZH","country_id":214,"country_code":"CH","latitude":"47.36334000","longitude":"8.82418000"},{"id":"17923","name":"Hochfelden","state_id":1656,"state_code":"ZH","country_id":214,"country_code":"CH","latitude":"47.52262000","longitude":"8.51564000"},{"id":"17925","name":"Hofstetten","state_id":1656,"state_code":"ZH","country_id":214,"country_code":"CH","latitude":"47.47778000","longitude":"8.50646000"},{"id":"17927","name":"Hombrechtikon","state_id":1656,"state_code":"ZH","country_id":214,"country_code":"CH","latitude":"47.25298000","longitude":"8.77212000"},{"id":"17929","name":"Horgen","state_id":1656,"state_code":"ZH","country_id":214,"country_code":"CH","latitude":"47.25983000","longitude":"8.59778000"},{"id":"17930","name":"Horgen \/ Allmend","state_id":1656,"state_code":"ZH","country_id":214,"country_code":"CH","latitude":"47.24729000","longitude":"8.60660000"},{"id":"17931","name":"Horgen \/ Horgen (Dorfkern)","state_id":1656,"state_code":"ZH","country_id":214,"country_code":"CH","latitude":"47.25604000","longitude":"8.60159000"},{"id":"17932","name":"Horgen \/ Oberdorf","state_id":1656,"state_code":"ZH","country_id":214,"country_code":"CH","latitude":"47.25837000","longitude":"8.59013000"},{"id":"17933","name":"Horgen \/ Scheller-Stockerstrasse","state_id":1656,"state_code":"ZH","country_id":214,"country_code":"CH","latitude":"47.26584000","longitude":"8.58760000"},{"id":"17949","name":"Illnau","state_id":1656,"state_code":"ZH","country_id":214,"country_code":"CH","latitude":"47.41130000","longitude":"8.72125000"},{"id":"17950","name":"Illnau \/ Unter-Illnau","state_id":1656,"state_code":"ZH","country_id":214,"country_code":"CH","latitude":"47.40787000","longitude":"8.72607000"},{"id":"18013","name":"K\u00fcsnacht","state_id":1656,"state_code":"ZH","country_id":214,"country_code":"CH","latitude":"47.31805000","longitude":"8.58401000"},{"id":"18014","name":"K\u00fcsnacht \/ Dorf","state_id":1656,"state_code":"ZH","country_id":214,"country_code":"CH","latitude":"47.31783000","longitude":"8.58303000"},{"id":"18015","name":"K\u00fcsnacht \/ Goldbach","state_id":1656,"state_code":"ZH","country_id":214,"country_code":"CH","latitude":"47.32729000","longitude":"8.58077000"},{"id":"18016","name":"K\u00fcsnacht \/ Heslibach","state_id":1656,"state_code":"ZH","country_id":214,"country_code":"CH","latitude":"47.31307000","longitude":"8.58849000"},{"id":"18017","name":"K\u00fcsnacht \/ Itschnach","state_id":1656,"state_code":"ZH","country_id":214,"country_code":"CH","latitude":"47.32714000","longitude":"8.60068000"},{"id":"18018","name":"K\u00fcsnacht \/ Schiedhalden","state_id":1656,"state_code":"ZH","country_id":214,"country_code":"CH","latitude":"47.32112000","longitude":"8.58881000"},{"id":"17975","name":"Kilchberg","state_id":1656,"state_code":"ZH","country_id":214,"country_code":"CH","latitude":"47.32438000","longitude":"8.54548000"},{"id":"17976","name":"Kilchberg \/ B\u00e4chler-Stocken","state_id":1656,"state_code":"ZH","country_id":214,"country_code":"CH","latitude":"47.32728000","longitude":"8.53957000"},{"id":"17977","name":"Kilchberg \/ Kilchberg (Dorfkern)","state_id":1656,"state_code":"ZH","country_id":214,"country_code":"CH","latitude":"47.32012000","longitude":"8.54306000"},{"id":"17979","name":"Kindhausen \/ Kindhausen (Dorf)","state_id":1656,"state_code":"ZH","country_id":214,"country_code":"CH","latitude":"47.40644000","longitude":"8.68296000"},{"id":"17983","name":"Kleinandelfingen","state_id":1656,"state_code":"ZH","country_id":214,"country_code":"CH","latitude":"47.60058000","longitude":"8.68362000"},{"id":"17987","name":"Kloten","state_id":1656,"state_code":"ZH","country_id":214,"country_code":"CH","latitude":"47.45152000","longitude":"8.58491000"},{"id":"17988","name":"Kloten \/ Balsberg","state_id":1656,"state_code":"ZH","country_id":214,"country_code":"CH","latitude":"47.44233000","longitude":"8.57496000"},{"id":"17989","name":"Kloten \/ Freienberg (Chanzler-Chlini Chaseren)","state_id":1656,"state_code":"ZH","country_id":214,"country_code":"CH","latitude":"47.46584000","longitude":"8.58145000"},{"id":"17990","name":"Kloten \/ Geissberg","state_id":1656,"state_code":"ZH","country_id":214,"country_code":"CH","latitude":"47.45424000","longitude":"8.59066000"},{"id":"17991","name":"Kloten \/ Holberg","state_id":1656,"state_code":"ZH","country_id":214,"country_code":"CH","latitude":"47.44642000","longitude":"8.57661000"},{"id":"17992","name":"Kloten \/ Horainli","state_id":1656,"state_code":"ZH","country_id":214,"country_code":"CH","latitude":"47.45399000","longitude":"8.58306000"},{"id":"17993","name":"Kloten \/ Hostrass","state_id":1656,"state_code":"ZH","country_id":214,"country_code":"CH","latitude":"47.45255000","longitude":"8.59464000"},{"id":"17994","name":"Kloten \/ Kloten (Zentrum)","state_id":1656,"state_code":"ZH","country_id":214,"country_code":"CH","latitude":"47.45134000","longitude":"8.58683000"},{"id":"17995","name":"Kloten \/ R\u00fctlen","state_id":1656,"state_code":"ZH","country_id":214,"country_code":"CH","latitude":"47.44726000","longitude":"8.58808000"},{"id":"17996","name":"Kloten \/ Spitz","state_id":1656,"state_code":"ZH","country_id":214,"country_code":"CH","latitude":"47.44455000","longitude":"8.58724000"},{"id":"17997","name":"Knonau","state_id":1656,"state_code":"ZH","country_id":214,"country_code":"CH","latitude":"47.22350000","longitude":"8.46197000"},{"id":"18000","name":"Kollbrunn","state_id":1656,"state_code":"ZH","country_id":214,"country_code":"CH","latitude":"47.45793000","longitude":"8.78295000"},{"id":"18001","name":"Kollbrunn \/ Kollbrunn (Dorfkern)","state_id":1656,"state_code":"ZH","country_id":214,"country_code":"CH","latitude":"47.45748000","longitude":"8.77413000"},{"id":"18038","name":"Langnau \/ Langnau (Dorf)","state_id":1656,"state_code":"ZH","country_id":214,"country_code":"CH","latitude":"47.28643000","longitude":"8.53627000"},{"id":"18039","name":"Langnau \/ Vitaquartier","state_id":1656,"state_code":"ZH","country_id":214,"country_code":"CH","latitude":"47.29377000","longitude":"8.53758000"},{"id":"18040","name":"Langnau am Albis","state_id":1656,"state_code":"ZH","country_id":214,"country_code":"CH","latitude":"47.28885000","longitude":"8.54110000"},{"id":"18124","name":"Marthalen","state_id":1656,"state_code":"ZH","country_id":214,"country_code":"CH","latitude":"47.62913000","longitude":"8.65326000"},{"id":"18130","name":"Mattenbach (Kreis 7)","state_id":1656,"state_code":"ZH","country_id":214,"country_code":"CH","latitude":"47.48705000","longitude":"8.74681000"},{"id":"18131","name":"Mattenbach (Kreis 7) \/ Deutweg","state_id":1656,"state_code":"ZH","country_id":214,"country_code":"CH","latitude":"47.49419000","longitude":"8.73948000"},{"id":"18132","name":"Mattenbach (Kreis 7) \/ Endliker","state_id":1656,"state_code":"ZH","country_id":214,"country_code":"CH","latitude":"47.48821000","longitude":"8.74938000"},{"id":"18133","name":"Mattenbach (Kreis 7) \/ Gutschick","state_id":1656,"state_code":"ZH","country_id":214,"country_code":"CH","latitude":"47.49104000","longitude":"8.75258000"},{"id":"18186","name":"M\u00e4nnedorf","state_id":1656,"state_code":"ZH","country_id":214,"country_code":"CH","latitude":"47.25686000","longitude":"8.69893000"},{"id":"18187","name":"M\u00e4nnedorf \/ Ausserfeld","state_id":1656,"state_code":"ZH","country_id":214,"country_code":"CH","latitude":"47.24636000","longitude":"8.70608000"},{"id":"18188","name":"M\u00e4nnedorf \/ Dorfkern","state_id":1656,"state_code":"ZH","country_id":214,"country_code":"CH","latitude":"47.25612000","longitude":"8.69161000"},{"id":"18192","name":"M\u00f6nchaltorf","state_id":1656,"state_code":"ZH","country_id":214,"country_code":"CH","latitude":"47.30958000","longitude":"8.72029000"},{"id":"18193","name":"M\u00f6nchaltorf \/ Dorf","state_id":1656,"state_code":"ZH","country_id":214,"country_code":"CH","latitude":"47.30401000","longitude":"8.72211000"},{"id":"18196","name":"M\u00fchlehalde","state_id":1656,"state_code":"ZH","country_id":214,"country_code":"CH","latitude":"47.28306000","longitude":"8.53386000"},{"id":"18140","name":"Meilen","state_id":1656,"state_code":"ZH","country_id":214,"country_code":"CH","latitude":"47.27232000","longitude":"8.64617000"},{"id":"18157","name":"Mettmenstetten","state_id":1656,"state_code":"ZH","country_id":214,"country_code":"CH","latitude":"47.24529000","longitude":"8.46347000"},{"id":"18236","name":"N\u00e4nikon","state_id":1656,"state_code":"ZH","country_id":214,"country_code":"CH","latitude":"47.36975000","longitude":"8.68894000"},{"id":"18237","name":"N\u00e4nikon \/ N\u00e4nikon (Dorfkern)","state_id":1656,"state_code":"ZH","country_id":214,"country_code":"CH","latitude":"47.37099000","longitude":"8.69254000"},{"id":"18238","name":"N\u00fcrensdorf","state_id":1656,"state_code":"ZH","country_id":214,"country_code":"CH","latitude":"47.44814000","longitude":"8.64908000"},{"id":"18209","name":"Neerach","state_id":1656,"state_code":"ZH","country_id":214,"country_code":"CH","latitude":"47.51096000","longitude":"8.47099000"},{"id":"18210","name":"Neftenbach \/ Dorf Neftenbach","state_id":1656,"state_code":"ZH","country_id":214,"country_code":"CH","latitude":"47.52764000","longitude":"8.66490000"},{"id":"18222","name":"Niederglatt","state_id":1656,"state_code":"ZH","country_id":214,"country_code":"CH","latitude":"47.49066000","longitude":"8.49987000"},{"id":"18223","name":"Niederglatt \/ Niederglatt (Dorfkern)","state_id":1656,"state_code":"ZH","country_id":214,"country_code":"CH","latitude":"47.49065000","longitude":"8.50048000"},{"id":"18225","name":"Niederhasli","state_id":1656,"state_code":"ZH","country_id":214,"country_code":"CH","latitude":"47.48012000","longitude":"8.48576000"},{"id":"18246","name":"Oberengstringen","state_id":1656,"state_code":"ZH","country_id":214,"country_code":"CH","latitude":"47.40841000","longitude":"8.46515000"},{"id":"18247","name":"Oberengstringen \/ Rauchacher","state_id":1656,"state_code":"ZH","country_id":214,"country_code":"CH","latitude":"47.40919000","longitude":"8.45627000"},{"id":"18248","name":"Oberengstringen \/ Sonnenberg","state_id":1656,"state_code":"ZH","country_id":214,"country_code":"CH","latitude":"47.41211000","longitude":"8.46055000"},{"id":"18249","name":"Oberengstringen \/ Zentrum","state_id":1656,"state_code":"ZH","country_id":214,"country_code":"CH","latitude":"47.40711000","longitude":"8.46276000"},{"id":"18251","name":"Oberglatt","state_id":1656,"state_code":"ZH","country_id":214,"country_code":"CH","latitude":"47.47576000","longitude":"8.51896000"},{"id":"18252","name":"Oberglatt \/ Bahnhofquartier","state_id":1656,"state_code":"ZH","country_id":214,"country_code":"CH","latitude":"47.47143000","longitude":"8.51289000"},{"id":"18253","name":"Oberglatt \/ Oberglatt (Dorfkern)","state_id":1656,"state_code":"ZH","country_id":214,"country_code":"CH","latitude":"47.47596000","longitude":"8.51929000"},{"id":"18258","name":"Obermeilen","state_id":1656,"state_code":"ZH","country_id":214,"country_code":"CH","latitude":"47.26574000","longitude":"8.65567000"},{"id":"18259","name":"Oberrieden","state_id":1656,"state_code":"ZH","country_id":214,"country_code":"CH","latitude":"47.27444000","longitude":"8.57838000"},{"id":"18260","name":"Oberrieden \/ Berg","state_id":1656,"state_code":"ZH","country_id":214,"country_code":"CH","latitude":"47.27628000","longitude":"8.57257000"},{"id":"18261","name":"Oberrieden \/ Mitte","state_id":1656,"state_code":"ZH","country_id":214,"country_code":"CH","latitude":"47.27242000","longitude":"8.58021000"},{"id":"18271","name":"Oberwinterthur (Kreis 2)","state_id":1656,"state_code":"ZH","country_id":214,"country_code":"CH","latitude":"47.51692000","longitude":"8.76863000"},{"id":"18272","name":"Oberwinterthur (Kreis 2) \/ Guggenb\u00fchl","state_id":1656,"state_code":"ZH","country_id":214,"country_code":"CH","latitude":"47.51339000","longitude":"8.75998000"},{"id":"18273","name":"Oberwinterthur (Kreis 2) \/ Hegi","state_id":1656,"state_code":"ZH","country_id":214,"country_code":"CH","latitude":"47.50716000","longitude":"8.77057000"},{"id":"18274","name":"Oberwinterthur (Kreis 2) \/ Talacker","state_id":1656,"state_code":"ZH","country_id":214,"country_code":"CH","latitude":"47.50596000","longitude":"8.75150000"},{"id":"18275","name":"Oberwinterthur (Kreis 2) \/ Zinzikon","state_id":1656,"state_code":"ZH","country_id":214,"country_code":"CH","latitude":"47.51950000","longitude":"8.75640000"},{"id":"18276","name":"Obfelden","state_id":1656,"state_code":"ZH","country_id":214,"country_code":"CH","latitude":"47.26413000","longitude":"8.42150000"},{"id":"18277","name":"Obfelden \/ Oberlunnern","state_id":1656,"state_code":"ZH","country_id":214,"country_code":"CH","latitude":"47.26197000","longitude":"8.41588000"},{"id":"18278","name":"Obfelden \/ Toussen","state_id":1656,"state_code":"ZH","country_id":214,"country_code":"CH","latitude":"47.26574000","longitude":"8.43013000"},{"id":"18280","name":"Oetwil","state_id":1656,"state_code":"ZH","country_id":214,"country_code":"CH","latitude":"47.27049000","longitude":"8.72023000"},{"id":"18285","name":"Opfikon","state_id":1656,"state_code":"ZH","country_id":214,"country_code":"CH","latitude":"47.43169000","longitude":"8.57588000"},{"id":"18292","name":"Otelfingen","state_id":1656,"state_code":"ZH","country_id":214,"country_code":"CH","latitude":"47.46053000","longitude":"8.39141000"},{"id":"18294","name":"Ottenbach","state_id":1656,"state_code":"ZH","country_id":214,"country_code":"CH","latitude":"47.28228000","longitude":"8.40432000"},{"id":"18305","name":"Pfaffhausen","state_id":1656,"state_code":"ZH","country_id":214,"country_code":"CH","latitude":"47.36476000","longitude":"8.62375000"},{"id":"18311","name":"Pf\u00e4ffikon","state_id":1656,"state_code":"ZH","country_id":214,"country_code":"CH","latitude":"47.36453000","longitude":"8.79202000"},{"id":"18312","name":"Pf\u00e4ffikon \/ Irgenhausen","state_id":1656,"state_code":"ZH","country_id":214,"country_code":"CH","latitude":"47.36240000","longitude":"8.79265000"},{"id":"18313","name":"Pf\u00e4ffikon \/ Pf\u00e4ffikon (Dorfkern)","state_id":1656,"state_code":"ZH","country_id":214,"country_code":"CH","latitude":"47.36943000","longitude":"8.78309000"},{"id":"18308","name":"Pfungen","state_id":1656,"state_code":"ZH","country_id":214,"country_code":"CH","latitude":"47.51394000","longitude":"8.64230000"},{"id":"18335","name":"Rafz","state_id":1656,"state_code":"ZH","country_id":214,"country_code":"CH","latitude":"47.60438000","longitude":"8.54305000"},{"id":"18406","name":"R\u00fcmlang","state_id":1656,"state_code":"ZH","country_id":214,"country_code":"CH","latitude":"47.45041000","longitude":"8.52993000"},{"id":"18407","name":"R\u00fcmlang \/ R\u00fcmlang (Dorfkern)","state_id":1656,"state_code":"ZH","country_id":214,"country_code":"CH","latitude":"47.44940000","longitude":"8.53255000"},{"id":"18409","name":"R\u00fcschlikon","state_id":1656,"state_code":"ZH","country_id":214,"country_code":"CH","latitude":"47.30688000","longitude":"8.55135000"},{"id":"18411","name":"R\u00fcti","state_id":1656,"state_code":"ZH","country_id":214,"country_code":"CH","latitude":"47.25603000","longitude":"8.85552000"},{"id":"18412","name":"R\u00fcti \/ Dorfzentrum, S\u00fcdl. Teil","state_id":1656,"state_code":"ZH","country_id":214,"country_code":"CH","latitude":"47.25368000","longitude":"8.85654000"},{"id":"18413","name":"R\u00fcti \/ Oberdorf","state_id":1656,"state_code":"ZH","country_id":214,"country_code":"CH","latitude":"47.25894000","longitude":"8.86512000"},{"id":"18414","name":"R\u00fcti \/ Westlicher Dorfteil","state_id":1656,"state_code":"ZH","country_id":214,"country_code":"CH","latitude":"47.25548000","longitude":"8.84490000"},{"id":"18344","name":"Regensdorf","state_id":1656,"state_code":"ZH","country_id":214,"country_code":"CH","latitude":"47.43410000","longitude":"8.46874000"},{"id":"18345","name":"Regensdorf \/ Feldblumen-Riedthofstrasse","state_id":1656,"state_code":"ZH","country_id":214,"country_code":"CH","latitude":"47.43618000","longitude":"8.46659000"},{"id":"18346","name":"Regensdorf \/ Hofacher-Geeren","state_id":1656,"state_code":"ZH","country_id":214,"country_code":"CH","latitude":"47.43525000","longitude":"8.46240000"},{"id":"18347","name":"Regensdorf \/ Obstgarten","state_id":1656,"state_code":"ZH","country_id":214,"country_code":"CH","latitude":"47.42772000","longitude":"8.46566000"},{"id":"18369","name":"Richterswil","state_id":1656,"state_code":"ZH","country_id":214,"country_code":"CH","latitude":"47.20622000","longitude":"8.69686000"},{"id":"18370","name":"Richterswil \/ Burghalde","state_id":1656,"state_code":"ZH","country_id":214,"country_code":"CH","latitude":"47.20973000","longitude":"8.69133000"},{"id":"18371","name":"Richterswil \/ Dorfkern","state_id":1656,"state_code":"ZH","country_id":214,"country_code":"CH","latitude":"47.20715000","longitude":"8.70607000"},{"id":"18372","name":"Richterswil \/ Richterswil (Dorfkern)","state_id":1656,"state_code":"ZH","country_id":214,"country_code":"CH","latitude":"47.20323000","longitude":"8.70516000"},{"id":"18391","name":"Rorbas","state_id":1656,"state_code":"ZH","country_id":214,"country_code":"CH","latitude":"47.53092000","longitude":"8.57555000"},{"id":"18400","name":"Russikon","state_id":1656,"state_code":"ZH","country_id":214,"country_code":"CH","latitude":"47.39669000","longitude":"8.77515000"},{"id":"18436","name":"Samstagern","state_id":1656,"state_code":"ZH","country_id":214,"country_code":"CH","latitude":"47.19167000","longitude":"8.68196000"},{"id":"18454","name":"Schachen","state_id":1656,"state_code":"ZH","country_id":214,"country_code":"CH","latitude":"47.32419000","longitude":"8.47251000"},{"id":"18465","name":"Schlieren","state_id":1656,"state_code":"ZH","country_id":214,"country_code":"CH","latitude":"47.39668000","longitude":"8.44763000"},{"id":"18466","name":"Schlieren \/ Boden","state_id":1656,"state_code":"ZH","country_id":214,"country_code":"CH","latitude":"47.39721000","longitude":"8.45734000"},{"id":"18467","name":"Schlieren \/ Engstingerquartier","state_id":1656,"state_code":"ZH","country_id":214,"country_code":"CH","latitude":"47.40338000","longitude":"8.44352000"},{"id":"18468","name":"Schlieren \/ Freiestrasse","state_id":1656,"state_code":"ZH","country_id":214,"country_code":"CH","latitude":"47.39598000","longitude":"8.44202000"},{"id":"18469","name":"Schlieren \/ Kamp","state_id":1656,"state_code":"ZH","country_id":214,"country_code":"CH","latitude":"47.39358000","longitude":"8.44453000"},{"id":"18470","name":"Schlieren \/ Spital","state_id":1656,"state_code":"ZH","country_id":214,"country_code":"CH","latitude":"47.39489000","longitude":"8.43027000"},{"id":"18471","name":"Schlieren \/ Zentrum","state_id":1656,"state_code":"ZH","country_id":214,"country_code":"CH","latitude":"47.39779000","longitude":"8.44770000"},{"id":"18478","name":"Schwerzenbach","state_id":1656,"state_code":"ZH","country_id":214,"country_code":"CH","latitude":"47.38213000","longitude":"8.65727000"},{"id":"18479","name":"Schwerzenbach \/ Blatten","state_id":1656,"state_code":"ZH","country_id":214,"country_code":"CH","latitude":"47.38308000","longitude":"8.64954000"},{"id":"18480","name":"Schwerzenbach \/ Chimli","state_id":1656,"state_code":"ZH","country_id":214,"country_code":"CH","latitude":"47.38592000","longitude":"8.65888000"},{"id":"18495","name":"Seen (Kreis 3)","state_id":1656,"state_code":"ZH","country_id":214,"country_code":"CH","latitude":"47.47646000","longitude":"8.76996000"},{"id":"18496","name":"Seen (Kreis 3) \/ B\u00fcelwiesen","state_id":1656,"state_code":"ZH","country_id":214,"country_code":"CH","latitude":"47.48446000","longitude":"8.76517000"},{"id":"18497","name":"Seen (Kreis 3) \/ Ganzenb\u00fchl","state_id":1656,"state_code":"ZH","country_id":214,"country_code":"CH","latitude":"47.48100000","longitude":"8.76249000"},{"id":"18498","name":"Seen (Kreis 3) \/ Oberseen","state_id":1656,"state_code":"ZH","country_id":214,"country_code":"CH","latitude":"47.48205000","longitude":"8.77289000"},{"id":"18499","name":"Seen (Kreis 3) \/ Waldegg","state_id":1656,"state_code":"ZH","country_id":214,"country_code":"CH","latitude":"47.48393000","longitude":"8.75586000"},{"id":"18500","name":"Seen (Kreis 3) \/ Waser","state_id":1656,"state_code":"ZH","country_id":214,"country_code":"CH","latitude":"47.48913000","longitude":"8.76034000"},{"id":"18503","name":"Seglingen","state_id":1656,"state_code":"ZH","country_id":214,"country_code":"CH","latitude":"47.57244000","longitude":"8.52093000"},{"id":"18504","name":"Sellenb\u00fcren","state_id":1656,"state_code":"ZH","country_id":214,"country_code":"CH","latitude":"47.34361000","longitude":"8.48301000"},{"id":"18512","name":"Seuzach \/ Seuzach (Dorf)","state_id":1656,"state_code":"ZH","country_id":214,"country_code":"CH","latitude":"47.53545000","longitude":"8.73728000"},{"id":"18513","name":"Seuzach Dorf","state_id":1656,"state_code":"ZH","country_id":214,"country_code":"CH","latitude":"47.53560000","longitude":"8.73209000"},{"id":"18514","name":"Seuzach Dorf \/ Breite-Weid","state_id":1656,"state_code":"ZH","country_id":214,"country_code":"CH","latitude":"47.53345000","longitude":"8.73415000"},{"id":"18529","name":"Sonnhalde","state_id":1656,"state_code":"ZH","country_id":214,"country_code":"CH","latitude":"47.45329000","longitude":"8.46091000"},{"id":"18537","name":"Stadt Winterthur (Kreis 1)","state_id":1656,"state_code":"ZH","country_id":214,"country_code":"CH","latitude":"47.49494000","longitude":"8.71954000"},{"id":"18538","name":"Stadt Winterthur (Kreis 1) \/ Altstadt","state_id":1656,"state_code":"ZH","country_id":214,"country_code":"CH","latitude":"47.49951000","longitude":"8.72872000"},{"id":"18539","name":"Stadt Winterthur (Kreis 1) \/ Br\u00fchlberg","state_id":1656,"state_code":"ZH","country_id":214,"country_code":"CH","latitude":"47.49764000","longitude":"8.71272000"},{"id":"18540","name":"Stadt Winterthur (Kreis 1) \/ Heiligberg","state_id":1656,"state_code":"ZH","country_id":214,"country_code":"CH","latitude":"47.49409000","longitude":"8.72334000"},{"id":"18541","name":"Stadt Winterthur (Kreis 1) \/ Lind","state_id":1656,"state_code":"ZH","country_id":214,"country_code":"CH","latitude":"47.50571000","longitude":"8.73372000"},{"id":"18542","name":"Stadt Winterthur (Kreis 1) \/ Neuwiesen","state_id":1656,"state_code":"ZH","country_id":214,"country_code":"CH","latitude":"47.50207000","longitude":"8.71625000"},{"id":"18543","name":"Stadt Winterthur (Kreis 1) \/ T\u00f6ssfeld","state_id":1656,"state_code":"ZH","country_id":214,"country_code":"CH","latitude":"47.49340000","longitude":"8.71512000"},{"id":"18560","name":"St\u00e4fa","state_id":1656,"state_code":"ZH","country_id":214,"country_code":"CH","latitude":"47.24254000","longitude":"8.72342000"},{"id":"18555","name":"Steinmaur","state_id":1656,"state_code":"ZH","country_id":214,"country_code":"CH","latitude":"47.49710000","longitude":"8.45216000"},{"id":"18565","name":"Sulz","state_id":1656,"state_code":"ZH","country_id":214,"country_code":"CH","latitude":"47.53954000","longitude":"8.78887000"},{"id":"18571","name":"Tagelswangen","state_id":1656,"state_code":"ZH","country_id":214,"country_code":"CH","latitude":"47.43070000","longitude":"8.67284000"},{"id":"18574","name":"Tann","state_id":1656,"state_code":"ZH","country_id":214,"country_code":"CH","latitude":"47.26898000","longitude":"8.85024000"},{"id":"18575","name":"Tann \/ Tann (Dorfkern)","state_id":1656,"state_code":"ZH","country_id":214,"country_code":"CH","latitude":"47.26494000","longitude":"8.85048000"},{"id":"18618","name":"T\u00f6ss (Kreis 4)","state_id":1656,"state_code":"ZH","country_id":214,"country_code":"CH","latitude":"47.47890000","longitude":"8.70215000"},{"id":"18619","name":"T\u00f6ss (Kreis 4) \/ Eichliacker","state_id":1656,"state_code":"ZH","country_id":214,"country_code":"CH","latitude":"47.48727000","longitude":"8.70740000"},{"id":"18620","name":"T\u00f6ss (Kreis 4) \/ Schlosstal","state_id":1656,"state_code":"ZH","country_id":214,"country_code":"CH","latitude":"47.49279000","longitude":"8.70223000"},{"id":"18621","name":"T\u00f6ss (Kreis 4) \/ Vorder-D\u00e4ttnau","state_id":1656,"state_code":"ZH","country_id":214,"country_code":"CH","latitude":"47.48135000","longitude":"8.69855000"},{"id":"18582","name":"Thalwil","state_id":1656,"state_code":"ZH","country_id":214,"country_code":"CH","latitude":"47.29175000","longitude":"8.56351000"},{"id":"18583","name":"Thalwil \/ Berg","state_id":1656,"state_code":"ZH","country_id":214,"country_code":"CH","latitude":"47.29178000","longitude":"8.55602000"},{"id":"18584","name":"Thalwil \/ Dorfkern","state_id":1656,"state_code":"ZH","country_id":214,"country_code":"CH","latitude":"47.29047000","longitude":"8.56633000"},{"id":"18585","name":"Thalwil \/ Nord","state_id":1656,"state_code":"ZH","country_id":214,"country_code":"CH","latitude":"47.29748000","longitude":"8.55634000"},{"id":"18587","name":"Thalwil \/ S\u00fcd","state_id":1656,"state_code":"ZH","country_id":214,"country_code":"CH","latitude":"47.28495000","longitude":"8.56954000"},{"id":"18586","name":"Thalwil \/ See","state_id":1656,"state_code":"ZH","country_id":214,"country_code":"CH","latitude":"47.29409000","longitude":"8.56929000"},{"id":"18613","name":"Turbenthal","state_id":1656,"state_code":"ZH","country_id":214,"country_code":"CH","latitude":"47.43633000","longitude":"8.84629000"},{"id":"18624","name":"Uerikon","state_id":1656,"state_code":"ZH","country_id":214,"country_code":"CH","latitude":"47.23672000","longitude":"8.75730000"},{"id":"18627","name":"Uetikon","state_id":1656,"state_code":"ZH","country_id":214,"country_code":"CH","latitude":"47.26441000","longitude":"8.67925000"},{"id":"18628","name":"Uetikon \/ Grossdorf","state_id":1656,"state_code":"ZH","country_id":214,"country_code":"CH","latitude":"47.26654000","longitude":"8.67765000"},{"id":"18629","name":"Uhwiesen","state_id":1656,"state_code":"ZH","country_id":214,"country_code":"CH","latitude":"47.67074000","longitude":"8.63542000"},{"id":"18630","name":"Uitikon","state_id":1656,"state_code":"ZH","country_id":214,"country_code":"CH","latitude":"47.36911000","longitude":"8.45699000"},{"id":"18631","name":"Unterengstringen","state_id":1656,"state_code":"ZH","country_id":214,"country_code":"CH","latitude":"47.41396000","longitude":"8.44761000"},{"id":"18639","name":"Urdorf","state_id":1656,"state_code":"ZH","country_id":214,"country_code":"CH","latitude":"47.38507000","longitude":"8.42581000"},{"id":"18640","name":"Urdorf \/ Bodenfeld","state_id":1656,"state_code":"ZH","country_id":214,"country_code":"CH","latitude":"47.38920000","longitude":"8.42265000"},{"id":"18641","name":"Urdorf \/ Moos","state_id":1656,"state_code":"ZH","country_id":214,"country_code":"CH","latitude":"47.38977000","longitude":"8.42886000"},{"id":"18642","name":"Urdorf \/ Oberurdorf","state_id":1656,"state_code":"ZH","country_id":214,"country_code":"CH","latitude":"47.38072000","longitude":"8.42343000"},{"id":"18645","name":"Uster","state_id":1656,"state_code":"ZH","country_id":214,"country_code":"CH","latitude":"47.34713000","longitude":"8.72091000"},{"id":"18646","name":"Uster \/ Gschwader","state_id":1656,"state_code":"ZH","country_id":214,"country_code":"CH","latitude":"47.36016000","longitude":"8.71390000"},{"id":"18647","name":"Uster \/ Kirch-Uster","state_id":1656,"state_code":"ZH","country_id":214,"country_code":"CH","latitude":"47.34579000","longitude":"8.71839000"},{"id":"18648","name":"Uster \/ Nieder-Uster","state_id":1656,"state_code":"ZH","country_id":214,"country_code":"CH","latitude":"47.34743000","longitude":"8.70088000"},{"id":"18649","name":"Uster \/ Nossikon","state_id":1656,"state_code":"ZH","country_id":214,"country_code":"CH","latitude":"47.34088000","longitude":"8.72555000"},{"id":"18650","name":"Uster \/ Ober-Uster","state_id":1656,"state_code":"ZH","country_id":214,"country_code":"CH","latitude":"47.34874000","longitude":"8.73319000"},{"id":"18665","name":"Veltheim (Kreis 5)","state_id":1656,"state_code":"ZH","country_id":214,"country_code":"CH","latitude":"47.51419000","longitude":"8.71700000"},{"id":"18666","name":"Veltheim (Kreis 5) \/ Blumenau","state_id":1656,"state_code":"ZH","country_id":214,"country_code":"CH","latitude":"47.50618000","longitude":"8.71563000"},{"id":"18667","name":"Veltheim (Kreis 5) \/ Rosenberg","state_id":1656,"state_code":"ZH","country_id":214,"country_code":"CH","latitude":"47.51386000","longitude":"8.71583000"},{"id":"18691","name":"Volketswil \/ Volketswil (Dorf)","state_id":1656,"state_code":"ZH","country_id":214,"country_code":"CH","latitude":"47.39016000","longitude":"8.69085000"},{"id":"18709","name":"Wald","state_id":1656,"state_code":"ZH","country_id":214,"country_code":"CH","latitude":"47.27595000","longitude":"8.91405000"},{"id":"18715","name":"Wallisellen","state_id":1656,"state_code":"ZH","country_id":214,"country_code":"CH","latitude":"47.41499000","longitude":"8.59672000"},{"id":"18716","name":"Wallisellen \/ Rieden","state_id":1656,"state_code":"ZH","country_id":214,"country_code":"CH","latitude":"47.41738000","longitude":"8.60028000"},{"id":"18717","name":"Wallisellen \/ Wallisellen-Ost","state_id":1656,"state_code":"ZH","country_id":214,"country_code":"CH","latitude":"47.41446000","longitude":"8.59727000"},{"id":"18718","name":"Wallisellen \/ Wallisellen-West","state_id":1656,"state_code":"ZH","country_id":214,"country_code":"CH","latitude":"47.41906000","longitude":"8.58586000"},{"id":"18722","name":"Wangen","state_id":1656,"state_code":"ZH","country_id":214,"country_code":"CH","latitude":"47.41182000","longitude":"8.64516000"},{"id":"18773","name":"W\u00e4denswil","state_id":1656,"state_code":"ZH","country_id":214,"country_code":"CH","latitude":"47.22683000","longitude":"8.66870000"},{"id":"18775","name":"W\u00e4denswil \/ B\u00fcelen","state_id":1656,"state_code":"ZH","country_id":214,"country_code":"CH","latitude":"47.23395000","longitude":"8.66346000"},{"id":"18774","name":"W\u00e4denswil \/ Boller-Giessen","state_id":1656,"state_code":"ZH","country_id":214,"country_code":"CH","latitude":"47.22115000","longitude":"8.68385000"},{"id":"18776","name":"W\u00e4denswil \/ Dorf (W\u00e4denswil)","state_id":1656,"state_code":"ZH","country_id":214,"country_code":"CH","latitude":"47.22923000","longitude":"8.67220000"},{"id":"18777","name":"W\u00e4denswil \/ Eichweid","state_id":1656,"state_code":"ZH","country_id":214,"country_code":"CH","latitude":"47.21847000","longitude":"8.67440000"},{"id":"18778","name":"W\u00e4denswil \/ Hangenmoos","state_id":1656,"state_code":"ZH","country_id":214,"country_code":"CH","latitude":"47.23367000","longitude":"8.65251000"},{"id":"18779","name":"W\u00e4denswil \/ Leihof-M\u00fchlebach","state_id":1656,"state_code":"ZH","country_id":214,"country_code":"CH","latitude":"47.22364000","longitude":"8.67149000"},{"id":"18780","name":"W\u00e4denswil \/ Untermosen-Fuhr","state_id":1656,"state_code":"ZH","country_id":214,"country_code":"CH","latitude":"47.22772000","longitude":"8.66303000"},{"id":"18783","name":"W\u00fclflingen (Kreis 6)","state_id":1656,"state_code":"ZH","country_id":214,"country_code":"CH","latitude":"47.51036000","longitude":"8.68333000"},{"id":"18784","name":"W\u00fclflingen (Kreis 6) \/ H\u00e4rti","state_id":1656,"state_code":"ZH","country_id":214,"country_code":"CH","latitude":"47.51262000","longitude":"8.68400000"},{"id":"18785","name":"W\u00fclflingen (Kreis 6) \/ Lindenplatz","state_id":1656,"state_code":"ZH","country_id":214,"country_code":"CH","latitude":"47.51098000","longitude":"8.69290000"},{"id":"18786","name":"W\u00fclflingen (Kreis 6) \/ Niederfeld","state_id":1656,"state_code":"ZH","country_id":214,"country_code":"CH","latitude":"47.50904000","longitude":"8.67968000"},{"id":"18787","name":"W\u00fclflingen (Kreis 6) \/ Oberfeld","state_id":1656,"state_code":"ZH","country_id":214,"country_code":"CH","latitude":"47.49873000","longitude":"8.69897000"},{"id":"18732","name":"Weiningen","state_id":1656,"state_code":"ZH","country_id":214,"country_code":"CH","latitude":"47.42022000","longitude":"8.43644000"},{"id":"18733","name":"Weisslingen","state_id":1656,"state_code":"ZH","country_id":214,"country_code":"CH","latitude":"47.43063000","longitude":"8.76787000"},{"id":"18737","name":"Wettswil \/ Ausser-Dorf","state_id":1656,"state_code":"ZH","country_id":214,"country_code":"CH","latitude":"47.33197000","longitude":"8.47732000"},{"id":"18738","name":"Wettswil \/ Wettswil (Dorf)","state_id":1656,"state_code":"ZH","country_id":214,"country_code":"CH","latitude":"47.34152000","longitude":"8.47149000"},{"id":"18739","name":"Wetzikon","state_id":1656,"state_code":"ZH","country_id":214,"country_code":"CH","latitude":"47.32640000","longitude":"8.79779000"},{"id":"18740","name":"Wetzikon \/ Kempten","state_id":1656,"state_code":"ZH","country_id":214,"country_code":"CH","latitude":"47.33319000","longitude":"8.80982000"},{"id":"18741","name":"Wetzikon \/ Ober-Wetzikon","state_id":1656,"state_code":"ZH","country_id":214,"country_code":"CH","latitude":"47.32514000","longitude":"8.80005000"},{"id":"18742","name":"Wetzikon \/ Robenhausen","state_id":1656,"state_code":"ZH","country_id":214,"country_code":"CH","latitude":"47.33089000","longitude":"8.78762000"},{"id":"18743","name":"Wetzikon \/ Unter-Wetzikon","state_id":1656,"state_code":"ZH","country_id":214,"country_code":"CH","latitude":"47.31637000","longitude":"8.79369000"},{"id":"18746","name":"Wiesendangen \/ Wiesendangen (Dorf)","state_id":1656,"state_code":"ZH","country_id":214,"country_code":"CH","latitude":"47.52170000","longitude":"8.78967000"},{"id":"18750","name":"Wila","state_id":1656,"state_code":"ZH","country_id":214,"country_code":"CH","latitude":"47.41928000","longitude":"8.84524000"},{"id":"18758","name":"Winterthur","state_id":1656,"state_code":"ZH","country_id":214,"country_code":"CH","latitude":"47.50564000","longitude":"8.72413000"},{"id":"18764","name":"Wolfhausen","state_id":1656,"state_code":"ZH","country_id":214,"country_code":"CH","latitude":"47.25619000","longitude":"8.79910000"},{"id":"18809","name":"Z\u00fcrich","state_id":1656,"state_code":"ZH","country_id":214,"country_code":"CH","latitude":"47.36667000","longitude":"8.55000000"},{"id":"18810","name":"Z\u00fcrich (Kreis 1)","state_id":1656,"state_code":"ZH","country_id":214,"country_code":"CH","latitude":"47.37055000","longitude":"8.54177000"},{"id":"18811","name":"Z\u00fcrich (Kreis 1) \/ City","state_id":1656,"state_code":"ZH","country_id":214,"country_code":"CH","latitude":"47.37269000","longitude":"8.53576000"},{"id":"18812","name":"Z\u00fcrich (Kreis 1) \/ Lindenhof","state_id":1656,"state_code":"ZH","country_id":214,"country_code":"CH","latitude":"47.37188000","longitude":"8.54036000"},{"id":"18813","name":"Z\u00fcrich (Kreis 1) \/ Rathaus","state_id":1656,"state_code":"ZH","country_id":214,"country_code":"CH","latitude":"47.37161000","longitude":"8.54501000"},{"id":"18814","name":"Z\u00fcrich (Kreis 10)","state_id":1656,"state_code":"ZH","country_id":214,"country_code":"CH","latitude":"47.40773000","longitude":"8.50050000"},{"id":"18815","name":"Z\u00fcrich (Kreis 10) \/ H\u00f6ngg","state_id":1656,"state_code":"ZH","country_id":214,"country_code":"CH","latitude":"47.40313000","longitude":"8.49710000"},{"id":"18816","name":"Z\u00fcrich (Kreis 10) \/ R\u00fctihof","state_id":1656,"state_code":"ZH","country_id":214,"country_code":"CH","latitude":"47.41444000","longitude":"8.47928000"},{"id":"18817","name":"Z\u00fcrich (Kreis 10) \/ Wipkingen","state_id":1656,"state_code":"ZH","country_id":214,"country_code":"CH","latitude":"47.39503000","longitude":"8.52529000"},{"id":"18818","name":"Z\u00fcrich (Kreis 11)","state_id":1656,"state_code":"ZH","country_id":214,"country_code":"CH","latitude":"47.42326000","longitude":"8.52166000"},{"id":"18819","name":"Z\u00fcrich (Kreis 11) \/ Affoltern","state_id":1656,"state_code":"ZH","country_id":214,"country_code":"CH","latitude":"47.41814000","longitude":"8.51220000"},{"id":"18820","name":"Z\u00fcrich (Kreis 11) \/ Oerlikon","state_id":1656,"state_code":"ZH","country_id":214,"country_code":"CH","latitude":"47.40823000","longitude":"8.54258000"},{"id":"18821","name":"Z\u00fcrich (Kreis 11) \/ Schwandenholz","state_id":1656,"state_code":"ZH","country_id":214,"country_code":"CH","latitude":"47.42476000","longitude":"8.52125000"},{"id":"18822","name":"Z\u00fcrich (Kreis 11) \/ Seebach","state_id":1656,"state_code":"ZH","country_id":214,"country_code":"CH","latitude":"47.42181000","longitude":"8.54779000"},{"id":"18823","name":"Z\u00fcrich (Kreis 12)","state_id":1656,"state_code":"ZH","country_id":214,"country_code":"CH","latitude":"47.40372000","longitude":"8.57608000"},{"id":"18824","name":"Z\u00fcrich (Kreis 12) \/ Auzelg","state_id":1656,"state_code":"ZH","country_id":214,"country_code":"CH","latitude":"47.41511000","longitude":"8.57014000"},{"id":"18825","name":"Z\u00fcrich (Kreis 12) \/ Hirzenbach","state_id":1656,"state_code":"ZH","country_id":214,"country_code":"CH","latitude":"47.40187000","longitude":"8.58633000"},{"id":"18826","name":"Z\u00fcrich (Kreis 12) \/ Saatlen","state_id":1656,"state_code":"ZH","country_id":214,"country_code":"CH","latitude":"47.41127000","longitude":"8.56480000"},{"id":"18827","name":"Z\u00fcrich (Kreis 12) \/ Schwamendingen-Mitte","state_id":1656,"state_code":"ZH","country_id":214,"country_code":"CH","latitude":"47.40630000","longitude":"8.57242000"},{"id":"18828","name":"Z\u00fcrich (Kreis 2)","state_id":1656,"state_code":"ZH","country_id":214,"country_code":"CH","latitude":"47.33756000","longitude":"8.52110000"},{"id":"18829","name":"Z\u00fcrich (Kreis 2) \/ Enge","state_id":1656,"state_code":"ZH","country_id":214,"country_code":"CH","latitude":"47.36050000","longitude":"8.53127000"},{"id":"18830","name":"Z\u00fcrich (Kreis 2) \/ Mittel-Leimbach","state_id":1656,"state_code":"ZH","country_id":214,"country_code":"CH","latitude":"47.32538000","longitude":"8.51391000"},{"id":"18831","name":"Z\u00fcrich (Kreis 2) \/ Unter-Leimbach","state_id":1656,"state_code":"ZH","country_id":214,"country_code":"CH","latitude":"47.33362000","longitude":"8.51433000"},{"id":"18832","name":"Z\u00fcrich (Kreis 2) \/ Wollishofen","state_id":1656,"state_code":"ZH","country_id":214,"country_code":"CH","latitude":"47.34010000","longitude":"8.53134000"},{"id":"18833","name":"Z\u00fcrich (Kreis 3)","state_id":1656,"state_code":"ZH","country_id":214,"country_code":"CH","latitude":"47.35785000","longitude":"8.50296000"},{"id":"18834","name":"Z\u00fcrich (Kreis 3) \/ Alt-Wiedikon","state_id":1656,"state_code":"ZH","country_id":214,"country_code":"CH","latitude":"47.36201000","longitude":"8.51497000"},{"id":"18835","name":"Z\u00fcrich (Kreis 3) \/ Friesenberg","state_id":1656,"state_code":"ZH","country_id":214,"country_code":"CH","latitude":"47.36372000","longitude":"8.50417000"},{"id":"18836","name":"Z\u00fcrich (Kreis 3) \/ Sihlfeld","state_id":1656,"state_code":"ZH","country_id":214,"country_code":"CH","latitude":"47.37382000","longitude":"8.51164000"},{"id":"18837","name":"Z\u00fcrich (Kreis 4) \/ Aussersihl","state_id":1656,"state_code":"ZH","country_id":214,"country_code":"CH","latitude":"47.37752000","longitude":"8.52127000"},{"id":"18838","name":"Z\u00fcrich (Kreis 4) \/ Hard","state_id":1656,"state_code":"ZH","country_id":214,"country_code":"CH","latitude":"47.38311000","longitude":"8.50942000"},{"id":"18839","name":"Z\u00fcrich (Kreis 4) \/ Langstrasse","state_id":1656,"state_code":"ZH","country_id":214,"country_code":"CH","latitude":"47.37767000","longitude":"8.52854000"},{"id":"18840","name":"Z\u00fcrich (Kreis 4) \/ Werd","state_id":1656,"state_code":"ZH","country_id":214,"country_code":"CH","latitude":"47.37178000","longitude":"8.52584000"},{"id":"18841","name":"Z\u00fcrich (Kreis 5)","state_id":1656,"state_code":"ZH","country_id":214,"country_code":"CH","latitude":"47.38767000","longitude":"8.52152000"},{"id":"18842","name":"Z\u00fcrich (Kreis 5) \/ Escher-Wyss","state_id":1656,"state_code":"ZH","country_id":214,"country_code":"CH","latitude":"47.39052000","longitude":"8.51292000"},{"id":"18843","name":"Z\u00fcrich (Kreis 5) \/ Gewerbeschule","state_id":1656,"state_code":"ZH","country_id":214,"country_code":"CH","latitude":"47.38481000","longitude":"8.53011000"},{"id":"18844","name":"Z\u00fcrich (Kreis 6)","state_id":1656,"state_code":"ZH","country_id":214,"country_code":"CH","latitude":"47.39223000","longitude":"8.54381000"},{"id":"18845","name":"Z\u00fcrich (Kreis 6) \/ Oberstrass","state_id":1656,"state_code":"ZH","country_id":214,"country_code":"CH","latitude":"47.38917000","longitude":"8.55040000"},{"id":"18846","name":"Z\u00fcrich (Kreis 6) \/ Unterstrass","state_id":1656,"state_code":"ZH","country_id":214,"country_code":"CH","latitude":"47.39530000","longitude":"8.53721000"},{"id":"18847","name":"Z\u00fcrich (Kreis 7)","state_id":1656,"state_code":"ZH","country_id":214,"country_code":"CH","latitude":"47.37328000","longitude":"8.58038000"},{"id":"18848","name":"Z\u00fcrich (Kreis 7) \/ Fluntern","state_id":1656,"state_code":"ZH","country_id":214,"country_code":"CH","latitude":"47.38013000","longitude":"8.56133000"},{"id":"18849","name":"Z\u00fcrich (Kreis 7) \/ Hirslanden","state_id":1656,"state_code":"ZH","country_id":214,"country_code":"CH","latitude":"47.36240000","longitude":"8.56755000"},{"id":"18850","name":"Z\u00fcrich (Kreis 7) \/ Hottingen","state_id":1656,"state_code":"ZH","country_id":214,"country_code":"CH","latitude":"47.37011000","longitude":"8.56306000"},{"id":"18851","name":"Z\u00fcrich (Kreis 7) \/ Witikon","state_id":1656,"state_code":"ZH","country_id":214,"country_code":"CH","latitude":"47.35751000","longitude":"8.59105000"},{"id":"18852","name":"Z\u00fcrich (Kreis 8)","state_id":1656,"state_code":"ZH","country_id":214,"country_code":"CH","latitude":"47.35480000","longitude":"8.56097000"},{"id":"18853","name":"Z\u00fcrich (Kreis 8) \/ M\u00fchlebach","state_id":1656,"state_code":"ZH","country_id":214,"country_code":"CH","latitude":"47.35727000","longitude":"8.55744000"},{"id":"18854","name":"Z\u00fcrich (Kreis 8) \/ Seefeld","state_id":1656,"state_code":"ZH","country_id":214,"country_code":"CH","latitude":"47.35462000","longitude":"8.55537000"},{"id":"18855","name":"Z\u00fcrich (Kreis 8) \/ Weinegg","state_id":1656,"state_code":"ZH","country_id":214,"country_code":"CH","latitude":"47.35250000","longitude":"8.57011000"},{"id":"18856","name":"Z\u00fcrich (Kreis 9)","state_id":1656,"state_code":"ZH","country_id":214,"country_code":"CH","latitude":"47.38245000","longitude":"8.47993000"},{"id":"18857","name":"Z\u00fcrich (Kreis 9) \/ Albisrieden","state_id":1656,"state_code":"ZH","country_id":214,"country_code":"CH","latitude":"47.37398000","longitude":"8.49007000"},{"id":"18858","name":"Z\u00fcrich (Kreis 9) \/ Altstetten","state_id":1656,"state_code":"ZH","country_id":214,"country_code":"CH","latitude":"47.38946000","longitude":"8.48533000"},{"id":"18797","name":"Zollikerberg","state_id":1656,"state_code":"ZH","country_id":214,"country_code":"CH","latitude":"47.34510000","longitude":"8.60088000"},{"id":"18799","name":"Zollikon","state_id":1656,"state_code":"ZH","country_id":214,"country_code":"CH","latitude":"47.34019000","longitude":"8.57407000"},{"id":"18802","name":"Zumikon","state_id":1656,"state_code":"ZH","country_id":214,"country_code":"CH","latitude":"47.33158000","longitude":"8.62271000"}]