[{"id":"17357","name":"Aarau","state_id":1639,"state_code":"AG","country_id":214,"country_code":"CH","latitude":"47.39254000","longitude":"8.04422000"},{"id":"17359","name":"Aarburg","state_id":1639,"state_code":"AG","country_id":214,"country_code":"CH","latitude":"47.32067000","longitude":"7.89986000"},{"id":"17407","name":"Aristau","state_id":1639,"state_code":"AG","country_id":214,"country_code":"CH","latitude":"47.28692000","longitude":"8.36356000"},{"id":"17424","name":"Auw","state_id":1639,"state_code":"AG","country_id":214,"country_code":"CH","latitude":"47.21082000","longitude":"8.36583000"},{"id":"17431","name":"Bad Zurzach","state_id":1639,"state_code":"AG","country_id":214,"country_code":"CH","latitude":"47.58764000","longitude":"8.29365000"},{"id":"17432","name":"Baden","state_id":1639,"state_code":"AG","country_id":214,"country_code":"CH","latitude":"47.47333000","longitude":"8.30592000"},{"id":"17460","name":"Berikon","state_id":1639,"state_code":"AG","country_id":214,"country_code":"CH","latitude":"47.35155000","longitude":"8.37232000"},{"id":"17467","name":"Besenb\u00fcren","state_id":1639,"state_code":"AG","country_id":214,"country_code":"CH","latitude":"47.31439000","longitude":"8.34586000"},{"id":"17471","name":"Bezirk Aarau","state_id":1639,"state_code":"AG","country_id":214,"country_code":"CH","latitude":"47.37706000","longitude":"8.05235000"},{"id":"17475","name":"Bezirk Baden","state_id":1639,"state_code":"AG","country_id":214,"country_code":"CH","latitude":"47.45660000","longitude":"8.30059000"},{"id":"17476","name":"Bezirk Bremgarten","state_id":1639,"state_code":"AG","country_id":214,"country_code":"CH","latitude":"47.34927000","longitude":"8.33343000"},{"id":"17477","name":"Bezirk Brugg","state_id":1639,"state_code":"AG","country_id":214,"country_code":"CH","latitude":"47.47776000","longitude":"8.17798000"},{"id":"17491","name":"Bezirk Kulm","state_id":1639,"state_code":"AG","country_id":214,"country_code":"CH","latitude":"47.28757000","longitude":"8.13302000"},{"id":"17494","name":"Bezirk Laufenburg","state_id":1639,"state_code":"AG","country_id":214,"country_code":"CH","latitude":"47.51844000","longitude":"8.03878000"},{"id":"17496","name":"Bezirk Lenzburg","state_id":1639,"state_code":"AG","country_id":214,"country_code":"CH","latitude":"47.37184000","longitude":"8.18910000"},{"id":"17501","name":"Bezirk Muri","state_id":1639,"state_code":"AG","country_id":214,"country_code":"CH","latitude":"47.25233000","longitude":"8.35362000"},{"id":"17506","name":"Bezirk Rheinfelden","state_id":1639,"state_code":"AG","country_id":214,"country_code":"CH","latitude":"47.54048000","longitude":"7.83331000"},{"id":"17521","name":"Bezirk Zofingen","state_id":1639,"state_code":"AG","country_id":214,"country_code":"CH","latitude":"47.28864000","longitude":"7.95697000"},{"id":"17522","name":"Bezirk Zurzach","state_id":1639,"state_code":"AG","country_id":214,"country_code":"CH","latitude":"47.56182000","longitude":"8.28020000"},{"id":"17536","name":"Birmenstorf","state_id":1639,"state_code":"AG","country_id":214,"country_code":"CH","latitude":"47.46152000","longitude":"8.24816000"},{"id":"17537","name":"Birr","state_id":1639,"state_code":"AG","country_id":214,"country_code":"CH","latitude":"47.43432000","longitude":"8.20891000"},{"id":"17549","name":"Boniswil","state_id":1639,"state_code":"AG","country_id":214,"country_code":"CH","latitude":"47.31725000","longitude":"8.18963000"},{"id":"17558","name":"Bremgarten","state_id":1639,"state_code":"AG","country_id":214,"country_code":"CH","latitude":"47.35109000","longitude":"8.34214000"},{"id":"17565","name":"Brittnau","state_id":1639,"state_code":"AG","country_id":214,"country_code":"CH","latitude":"47.25954000","longitude":"7.94689000"},{"id":"17570","name":"Brugg","state_id":1639,"state_code":"AG","country_id":214,"country_code":"CH","latitude":"47.48096000","longitude":"8.20869000"},{"id":"17579","name":"Buchs","state_id":1639,"state_code":"AG","country_id":214,"country_code":"CH","latitude":"47.39358000","longitude":"8.08233000"},{"id":"17588","name":"Buttwil","state_id":1639,"state_code":"AG","country_id":214,"country_code":"CH","latitude":"47.26828000","longitude":"8.31064000"},{"id":"17717","name":"D\u00fcrren\u00e4sch","state_id":1639,"state_code":"AG","country_id":214,"country_code":"CH","latitude":"47.32094000","longitude":"8.15874000"},{"id":"17682","name":"Densb\u00fcren","state_id":1639,"state_code":"AG","country_id":214,"country_code":"CH","latitude":"47.45260000","longitude":"8.05330000"},{"id":"17705","name":"Dottikon","state_id":1639,"state_code":"AG","country_id":214,"country_code":"CH","latitude":"47.38437000","longitude":"8.23981000"},{"id":"17732","name":"Egliswil","state_id":1639,"state_code":"AG","country_id":214,"country_code":"CH","latitude":"47.34922000","longitude":"8.18553000"},{"id":"17734","name":"Ehrendingen","state_id":1639,"state_code":"AG","country_id":214,"country_code":"CH","latitude":"47.50250000","longitude":"8.34729000"},{"id":"17737","name":"Eiken","state_id":1639,"state_code":"AG","country_id":214,"country_code":"CH","latitude":"47.53361000","longitude":"7.98801000"},{"id":"17749","name":"Endingen","state_id":1639,"state_code":"AG","country_id":214,"country_code":"CH","latitude":"47.53742000","longitude":"8.29036000"},{"id":"17810","name":"Frick","state_id":1639,"state_code":"AG","country_id":214,"country_code":"CH","latitude":"47.51169000","longitude":"8.02471000"},{"id":"17824","name":"Gebenstorf","state_id":1639,"state_code":"AG","country_id":214,"country_code":"CH","latitude":"47.48136000","longitude":"8.23949000"},{"id":"17834","name":"Gipf-Oberfrick","state_id":1639,"state_code":"AG","country_id":214,"country_code":"CH","latitude":"47.49875000","longitude":"8.00497000"},{"id":"17853","name":"Gontenschwil","state_id":1639,"state_code":"AG","country_id":214,"country_code":"CH","latitude":"47.27166000","longitude":"8.14396000"},{"id":"17880","name":"Gr\u00e4nichen","state_id":1639,"state_code":"AG","country_id":214,"country_code":"CH","latitude":"47.35930000","longitude":"8.10243000"},{"id":"17895","name":"Hausen","state_id":1639,"state_code":"AG","country_id":214,"country_code":"CH","latitude":"47.46396000","longitude":"8.20988000"},{"id":"17939","name":"H\u00e4gglingen","state_id":1639,"state_code":"AG","country_id":214,"country_code":"CH","latitude":"47.38851000","longitude":"8.25285000"},{"id":"17960","name":"Jonen","state_id":1639,"state_code":"AG","country_id":214,"country_code":"CH","latitude":"47.29750000","longitude":"8.39282000"},{"id":"17966","name":"Kaiseraugst","state_id":1639,"state_code":"AG","country_id":214,"country_code":"CH","latitude":"47.53966000","longitude":"7.72605000"},{"id":"17967","name":"Kaisten","state_id":1639,"state_code":"AG","country_id":214,"country_code":"CH","latitude":"47.54160000","longitude":"8.04337000"},{"id":"18010","name":"K\u00f6lliken","state_id":1639,"state_code":"AG","country_id":214,"country_code":"CH","latitude":"47.33337000","longitude":"8.02237000"},{"id":"18012","name":"K\u00fcnten","state_id":1639,"state_code":"AG","country_id":214,"country_code":"CH","latitude":"47.38887000","longitude":"8.33045000"},{"id":"18020","name":"K\u00fcttigen","state_id":1639,"state_code":"AG","country_id":214,"country_code":"CH","latitude":"47.41484000","longitude":"8.04979000"},{"id":"17978","name":"Killwangen","state_id":1639,"state_code":"AG","country_id":214,"country_code":"CH","latitude":"47.43223000","longitude":"8.35097000"},{"id":"17985","name":"Klingnau","state_id":1639,"state_code":"AG","country_id":214,"country_code":"CH","latitude":"47.58361000","longitude":"8.24880000"},{"id":"17999","name":"Koblenz","state_id":1639,"state_code":"AG","country_id":214,"country_code":"CH","latitude":"47.60972000","longitude":"8.23750000"},{"id":"18043","name":"Laufenburg","state_id":1639,"state_code":"AG","country_id":214,"country_code":"CH","latitude":"47.55985000","longitude":"8.06225000"},{"id":"18044","name":"Lauffohr (Brugg)","state_id":1639,"state_code":"AG","country_id":214,"country_code":"CH","latitude":"47.50154000","longitude":"8.23122000"},{"id":"18062","name":"Leibstadt","state_id":1639,"state_code":"AG","country_id":214,"country_code":"CH","latitude":"47.58790000","longitude":"8.17611000"},{"id":"18066","name":"Lenzburg","state_id":1639,"state_code":"AG","country_id":214,"country_code":"CH","latitude":"47.38853000","longitude":"8.17503000"},{"id":"18115","name":"Magden","state_id":1639,"state_code":"AG","country_id":214,"country_code":"CH","latitude":"47.52868000","longitude":"7.81128000"},{"id":"18191","name":"M\u00f6hlin","state_id":1639,"state_code":"AG","country_id":214,"country_code":"CH","latitude":"47.55915000","longitude":"7.84329000"},{"id":"18144","name":"Meisterschwanden","state_id":1639,"state_code":"AG","country_id":214,"country_code":"CH","latitude":"47.29489000","longitude":"8.22867000"},{"id":"18148","name":"Mellingen","state_id":1639,"state_code":"AG","country_id":214,"country_code":"CH","latitude":"47.41903000","longitude":"8.27331000"},{"id":"18151","name":"Menziken","state_id":1639,"state_code":"AG","country_id":214,"country_code":"CH","latitude":"47.23965000","longitude":"8.18996000"},{"id":"18154","name":"Merenschwand","state_id":1639,"state_code":"AG","country_id":214,"country_code":"CH","latitude":"47.25944000","longitude":"8.37633000"},{"id":"18176","name":"Muhen","state_id":1639,"state_code":"AG","country_id":214,"country_code":"CH","latitude":"47.33578000","longitude":"8.05536000"},{"id":"18177","name":"Mumpf","state_id":1639,"state_code":"AG","country_id":214,"country_code":"CH","latitude":"47.54563000","longitude":"7.92123000"},{"id":"18181","name":"Murgenthal","state_id":1639,"state_code":"AG","country_id":214,"country_code":"CH","latitude":"47.27145000","longitude":"7.83935000"},{"id":"18182","name":"Muri","state_id":1639,"state_code":"AG","country_id":214,"country_code":"CH","latitude":"47.27428000","longitude":"8.33854000"},{"id":"18215","name":"Neuenhof","state_id":1639,"state_code":"AG","country_id":214,"country_code":"CH","latitude":"47.44985000","longitude":"8.32682000"},{"id":"18227","name":"Niederlenz","state_id":1639,"state_code":"AG","country_id":214,"country_code":"CH","latitude":"47.40079000","longitude":"8.17640000"},{"id":"18228","name":"Niederrohrdorf","state_id":1639,"state_code":"AG","country_id":214,"country_code":"CH","latitude":"47.42409000","longitude":"8.30404000"},{"id":"18250","name":"Oberentfelden","state_id":1639,"state_code":"AG","country_id":214,"country_code":"CH","latitude":"47.35639000","longitude":"8.04594000"},{"id":"18257","name":"Oberlunkhofen","state_id":1639,"state_code":"AG","country_id":214,"country_code":"CH","latitude":"47.31244000","longitude":"8.39242000"},{"id":"18264","name":"Oberr\u00fcti","state_id":1639,"state_code":"AG","country_id":214,"country_code":"CH","latitude":"47.16673000","longitude":"8.39441000"},{"id":"18263","name":"Oberrohrdorf","state_id":1639,"state_code":"AG","country_id":214,"country_code":"CH","latitude":"47.41833000","longitude":"8.31983000"},{"id":"18266","name":"Obersiggenthal","state_id":1639,"state_code":"AG","country_id":214,"country_code":"CH","latitude":"47.48750000","longitude":"8.29652000"},{"id":"18281","name":"Oftringen","state_id":1639,"state_code":"AG","country_id":214,"country_code":"CH","latitude":"47.31382000","longitude":"7.92533000"},{"id":"18293","name":"Othmarsingen","state_id":1639,"state_code":"AG","country_id":214,"country_code":"CH","latitude":"47.40125000","longitude":"8.21383000"},{"id":"18363","name":"Reinach","state_id":1639,"state_code":"AG","country_id":214,"country_code":"CH","latitude":"47.25732000","longitude":"8.18091000"},{"id":"18366","name":"Rheinfelden","state_id":1639,"state_code":"AG","country_id":214,"country_code":"CH","latitude":"47.55437000","longitude":"7.79403000"},{"id":"18394","name":"Rothrist","state_id":1639,"state_code":"AG","country_id":214,"country_code":"CH","latitude":"47.30508000","longitude":"7.89196000"},{"id":"18397","name":"Rudolfstetten","state_id":1639,"state_code":"AG","country_id":214,"country_code":"CH","latitude":"47.37101000","longitude":"8.38083000"},{"id":"18399","name":"Rupperswil","state_id":1639,"state_code":"AG","country_id":214,"country_code":"CH","latitude":"47.40131000","longitude":"8.12877000"},{"id":"18419","name":"Safenwil","state_id":1639,"state_code":"AG","country_id":214,"country_code":"CH","latitude":"47.32163000","longitude":"7.98254000"},{"id":"18446","name":"Sarmenstorf","state_id":1639,"state_code":"AG","country_id":214,"country_code":"CH","latitude":"47.31109000","longitude":"8.24950000"},{"id":"18456","name":"Schafisheim","state_id":1639,"state_code":"AG","country_id":214,"country_code":"CH","latitude":"47.37664000","longitude":"8.14263000"},{"id":"18483","name":"Sch\u00f6ftland","state_id":1639,"state_code":"AG","country_id":214,"country_code":"CH","latitude":"47.30590000","longitude":"8.05119000"},{"id":"18462","name":"Schinznach Bad","state_id":1639,"state_code":"AG","country_id":214,"country_code":"CH","latitude":"47.44992000","longitude":"8.16833000"},{"id":"18463","name":"Schinznach Dorf","state_id":1639,"state_code":"AG","country_id":214,"country_code":"CH","latitude":"47.44650000","longitude":"8.14089000"},{"id":"18474","name":"Schwaderloch","state_id":1639,"state_code":"AG","country_id":214,"country_code":"CH","latitude":"47.58541000","longitude":"8.14455000"},{"id":"18501","name":"Seengen","state_id":1639,"state_code":"AG","country_id":214,"country_code":"CH","latitude":"47.32503000","longitude":"8.20724000"},{"id":"18511","name":"Seon","state_id":1639,"state_code":"AG","country_id":214,"country_code":"CH","latitude":"47.34848000","longitude":"8.16072000"},{"id":"18523","name":"Sins","state_id":1639,"state_code":"AG","country_id":214,"country_code":"CH","latitude":"47.19296000","longitude":"8.39384000"},{"id":"18534","name":"Spreitenbach","state_id":1639,"state_code":"AG","country_id":214,"country_code":"CH","latitude":"47.42285000","longitude":"8.36792000"},{"id":"18544","name":"Staffelbach","state_id":1639,"state_code":"AG","country_id":214,"country_code":"CH","latitude":"47.28395000","longitude":"8.04208000"},{"id":"18548","name":"Staufen","state_id":1639,"state_code":"AG","country_id":214,"country_code":"CH","latitude":"47.38197000","longitude":"8.16681000"},{"id":"18551","name":"Stein","state_id":1639,"state_code":"AG","country_id":214,"country_code":"CH","latitude":"47.54403000","longitude":"7.95256000"},{"id":"18559","name":"Strengelbach","state_id":1639,"state_code":"AG","country_id":214,"country_code":"CH","latitude":"47.27917000","longitude":"7.92895000"},{"id":"18562","name":"Suhr","state_id":1639,"state_code":"AG","country_id":214,"country_code":"CH","latitude":"47.37172000","longitude":"8.07967000"},{"id":"18564","name":"Sulz","state_id":1639,"state_code":"AG","country_id":214,"country_code":"CH","latitude":"47.53602000","longitude":"8.09628000"},{"id":"18577","name":"Tegerfelden","state_id":1639,"state_code":"AG","country_id":214,"country_code":"CH","latitude":"47.55809000","longitude":"8.28914000"},{"id":"18580","name":"Teufenthal","state_id":1639,"state_code":"AG","country_id":214,"country_code":"CH","latitude":"47.32896000","longitude":"8.11777000"},{"id":"18614","name":"Turgi","state_id":1639,"state_code":"AG","country_id":214,"country_code":"CH","latitude":"47.49201000","longitude":"8.25412000"},{"id":"18625","name":"Uerkheim","state_id":1639,"state_code":"AG","country_id":214,"country_code":"CH","latitude":"47.30353000","longitude":"8.02320000"},{"id":"18633","name":"Unterkulm","state_id":1639,"state_code":"AG","country_id":214,"country_code":"CH","latitude":"47.30998000","longitude":"8.11371000"},{"id":"18634","name":"Unterlunkhofen","state_id":1639,"state_code":"AG","country_id":214,"country_code":"CH","latitude":"47.32120000","longitude":"8.38102000"},{"id":"18636","name":"Untersiggenthal","state_id":1639,"state_code":"AG","country_id":214,"country_code":"CH","latitude":"47.50213000","longitude":"8.25554000"},{"id":"18664","name":"Veltheim","state_id":1639,"state_code":"AG","country_id":214,"country_code":"CH","latitude":"47.43796000","longitude":"8.14722000"},{"id":"18683","name":"Villigen","state_id":1639,"state_code":"AG","country_id":214,"country_code":"CH","latitude":"47.52682000","longitude":"8.21486000"},{"id":"18684","name":"Villmergen","state_id":1639,"state_code":"AG","country_id":214,"country_code":"CH","latitude":"47.35009000","longitude":"8.24762000"},{"id":"18685","name":"Villnachern","state_id":1639,"state_code":"AG","country_id":214,"country_code":"CH","latitude":"47.47098000","longitude":"8.15975000"},{"id":"18692","name":"Vordemwald","state_id":1639,"state_code":"AG","country_id":214,"country_code":"CH","latitude":"47.27585000","longitude":"7.90114000"},{"id":"18719","name":"Waltenschwil","state_id":1639,"state_code":"AG","country_id":214,"country_code":"CH","latitude":"47.33339000","longitude":"8.29791000"},{"id":"18782","name":"W\u00f6lflinswil","state_id":1639,"state_code":"AG","country_id":214,"country_code":"CH","latitude":"47.46070000","longitude":"7.99835000"},{"id":"18788","name":"W\u00fcrenlingen","state_id":1639,"state_code":"AG","country_id":214,"country_code":"CH","latitude":"47.53356000","longitude":"8.25666000"},{"id":"18789","name":"W\u00fcrenlos","state_id":1639,"state_code":"AG","country_id":214,"country_code":"CH","latitude":"47.44205000","longitude":"8.36261000"},{"id":"18728","name":"Wegenstetten","state_id":1639,"state_code":"AG","country_id":214,"country_code":"CH","latitude":"47.49797000","longitude":"7.93141000"},{"id":"18736","name":"Wettingen","state_id":1639,"state_code":"AG","country_id":214,"country_code":"CH","latitude":"47.47049000","longitude":"8.31636000"},{"id":"18757","name":"Windisch","state_id":1639,"state_code":"AG","country_id":214,"country_code":"CH","latitude":"47.47899000","longitude":"8.21842000"},{"id":"18760","name":"Wittnau","state_id":1639,"state_code":"AG","country_id":214,"country_code":"CH","latitude":"47.48139000","longitude":"7.97577000"},{"id":"18761","name":"Wohlen","state_id":1639,"state_code":"AG","country_id":214,"country_code":"CH","latitude":"47.35066000","longitude":"8.27517000"},{"id":"18796","name":"Zofingen","state_id":1639,"state_code":"AG","country_id":214,"country_code":"CH","latitude":"47.28779000","longitude":"7.94586000"},{"id":"17390","name":"Alterswil","state_id":1640,"state_code":"FR","country_id":214,"country_code":"CH","latitude":"46.79587000","longitude":"7.25877000"},{"id":"17415","name":"Attalens","state_id":1640,"state_code":"FR","country_id":214,"country_code":"CH","latitude":"46.50555000","longitude":"6.85039000"},{"id":"17426","name":"Avry-sur-Matran","state_id":1640,"state_code":"FR","country_id":214,"country_code":"CH","latitude":"46.78753000","longitude":"7.06735000"},{"id":"17440","name":"Bas-Vully","state_id":1640,"state_code":"FR","country_id":214,"country_code":"CH","latitude":"46.96194000","longitude":"7.11251000"},{"id":"17596","name":"B\u00f6singen","state_id":1640,"state_code":"FR","country_id":214,"country_code":"CH","latitude":"46.89229000","longitude":"7.22770000"},{"id":"17450","name":"Belfaux","state_id":1640,"state_code":"FR","country_id":214,"country_code":"CH","latitude":"46.82171000","longitude":"7.10674000"},{"id":"17566","name":"Broc","state_id":1640,"state_code":"FR","country_id":214,"country_code":"CH","latitude":"46.60513000","longitude":"7.09891000"},{"id":"17568","name":"Broye District","state_id":1640,"state_code":"FR","country_id":214,"country_code":"CH","latitude":"46.82212000","longitude":"6.90249000"},{"id":"17581","name":"Bulle","state_id":1640,"state_code":"FR","country_id":214,"country_code":"CH","latitude":"46.61797000","longitude":"7.05690000"},{"id":"17627","name":"Charmey","state_id":1640,"state_code":"FR","country_id":214,"country_code":"CH","latitude":"46.61957000","longitude":"7.16486000"},{"id":"17641","name":"Ch\u00e2tel-Saint-Denis","state_id":1640,"state_code":"FR","country_id":214,"country_code":"CH","latitude":"46.52691000","longitude":"6.90083000"},{"id":"17654","name":"Corminboeuf","state_id":1640,"state_code":"FR","country_id":214,"country_code":"CH","latitude":"46.81029000","longitude":"7.10535000"},{"id":"17661","name":"Courgevaux","state_id":1640,"state_code":"FR","country_id":214,"country_code":"CH","latitude":"46.90648000","longitude":"7.11215000"},{"id":"17671","name":"Cugy","state_id":1640,"state_code":"FR","country_id":214,"country_code":"CH","latitude":"46.81479000","longitude":"6.88888000"},{"id":"17714","name":"D\u00fcdingen","state_id":1640,"state_code":"FR","country_id":214,"country_code":"CH","latitude":"46.84916000","longitude":"7.19150000"},{"id":"17702","name":"Domdidier","state_id":1640,"state_code":"FR","country_id":214,"country_code":"CH","latitude":"46.86716000","longitude":"7.01337000"},{"id":"17723","name":"Ecublens","state_id":1640,"state_code":"FR","country_id":214,"country_code":"CH","latitude":"46.60735000","longitude":"6.80895000"},{"id":"17757","name":"Ependes","state_id":1640,"state_code":"FR","country_id":214,"country_code":"CH","latitude":"46.75368000","longitude":"7.14609000"},{"id":"17774","name":"Estavayer-le-Lac","state_id":1640,"state_code":"FR","country_id":214,"country_code":"CH","latitude":"46.84876000","longitude":"6.84650000"},{"id":"17790","name":"Flamatt","state_id":1640,"state_code":"FR","country_id":214,"country_code":"CH","latitude":"46.88994000","longitude":"7.32204000"},{"id":"17809","name":"Fribourg","state_id":1640,"state_code":"FR","country_id":214,"country_code":"CH","latitude":"46.80237000","longitude":"7.15128000"},{"id":"17832","name":"Giffers","state_id":1640,"state_code":"FR","country_id":214,"country_code":"CH","latitude":"46.76230000","longitude":"7.20845000"},{"id":"17837","name":"Givisiez","state_id":1640,"state_code":"FR","country_id":214,"country_code":"CH","latitude":"46.81201000","longitude":"7.12639000"},{"id":"17845","name":"Gl\u00e2ne District","state_id":1640,"state_code":"FR","country_id":214,"country_code":"CH","latitude":"46.66667000","longitude":"6.91667000"},{"id":"17871","name":"Grolley","state_id":1640,"state_code":"FR","country_id":214,"country_code":"CH","latitude":"46.83360000","longitude":"7.07116000"},{"id":"17876","name":"Gruy\u00e8re District","state_id":1640,"state_code":"FR","country_id":214,"country_code":"CH","latitude":"46.60753000","longitude":"7.10741000"},{"id":"17877","name":"Gruy\u00e8res","state_id":1640,"state_code":"FR","country_id":214,"country_code":"CH","latitude":"46.58338000","longitude":"7.08207000"},{"id":"17904","name":"Heitenried","state_id":1640,"state_code":"FR","country_id":214,"country_code":"CH","latitude":"46.82762000","longitude":"7.29944000"},{"id":"17974","name":"Kerzers","state_id":1640,"state_code":"FR","country_id":214,"country_code":"CH","latitude":"46.97586000","longitude":"7.19570000"},{"id":"18025","name":"La Roche","state_id":1640,"state_code":"FR","country_id":214,"country_code":"CH","latitude":"46.69620000","longitude":"7.13721000"},{"id":"18028","name":"La Tour-de-Tr\u00eame","state_id":1640,"state_code":"FR","country_id":214,"country_code":"CH","latitude":"46.61061000","longitude":"7.06496000"},{"id":"18031","name":"Lake District","state_id":1640,"state_code":"FR","country_id":214,"country_code":"CH","latitude":"46.91016000","longitude":"7.14088000"},{"id":"18122","name":"Marly","state_id":1640,"state_code":"FR","country_id":214,"country_code":"CH","latitude":"46.77611000","longitude":"7.16459000"},{"id":"18123","name":"Marsens","state_id":1640,"state_code":"FR","country_id":214,"country_code":"CH","latitude":"46.65644000","longitude":"7.05948000"},{"id":"18190","name":"M\u00e9zi\u00e8res","state_id":1640,"state_code":"FR","country_id":214,"country_code":"CH","latitude":"46.67958000","longitude":"6.92630000"},{"id":"18184","name":"Murten\/Morat","state_id":1640,"state_code":"FR","country_id":214,"country_code":"CH","latitude":"46.92827000","longitude":"7.11715000"},{"id":"18265","name":"Oberschrot","state_id":1640,"state_code":"FR","country_id":214,"country_code":"CH","latitude":"46.74126000","longitude":"7.28149000"},{"id":"18315","name":"Plaffeien","state_id":1640,"state_code":"FR","country_id":214,"country_code":"CH","latitude":"46.74198000","longitude":"7.28666000"},{"id":"18323","name":"Praroman","state_id":1640,"state_code":"FR","country_id":214,"country_code":"CH","latitude":"46.75145000","longitude":"7.17778000"},{"id":"18342","name":"Rechthalten","state_id":1640,"state_code":"FR","country_id":214,"country_code":"CH","latitude":"46.76766000","longitude":"7.24028000"},{"id":"18368","name":"Riaz","state_id":1640,"state_code":"FR","country_id":214,"country_code":"CH","latitude":"46.64224000","longitude":"7.06183000"},{"id":"18389","name":"Romont","state_id":1640,"state_code":"FR","country_id":214,"country_code":"CH","latitude":"46.69652000","longitude":"6.91898000"},{"id":"18398","name":"Rue","state_id":1640,"state_code":"FR","country_id":214,"country_code":"CH","latitude":"46.61916000","longitude":"6.82225000"},{"id":"18437","name":"Sankt Antoni","state_id":1640,"state_code":"FR","country_id":214,"country_code":"CH","latitude":"46.82207000","longitude":"7.26091000"},{"id":"18445","name":"Sarine District","state_id":1640,"state_code":"FR","country_id":214,"country_code":"CH","latitude":"46.78435000","longitude":"7.09993000"},{"id":"18569","name":"S\u00e2les","state_id":1640,"state_code":"FR","country_id":214,"country_code":"CH","latitude":"46.63473000","longitude":"6.97336000"},{"id":"18473","name":"Schmitten","state_id":1640,"state_code":"FR","country_id":214,"country_code":"CH","latitude":"46.85750000","longitude":"7.25031000"},{"id":"18510","name":"Sense District","state_id":1640,"state_code":"FR","country_id":214,"country_code":"CH","latitude":"46.80132000","longitude":"7.26028000"},{"id":"18570","name":"Tafers","state_id":1640,"state_code":"FR","country_id":214,"country_code":"CH","latitude":"46.81483000","longitude":"7.21852000"},{"id":"18601","name":"Treyvaux","state_id":1640,"state_code":"FR","country_id":214,"country_code":"CH","latitude":"46.72796000","longitude":"7.13769000"},{"id":"18623","name":"Ueberstorf","state_id":1640,"state_code":"FR","country_id":214,"country_code":"CH","latitude":"46.86587000","longitude":"7.30998000"},{"id":"18674","name":"Veveyse District","state_id":1640,"state_code":"FR","country_id":214,"country_code":"CH","latitude":"46.55083000","longitude":"6.91085000"},{"id":"18679","name":"Villars-sur-Gl\u00e2ne","state_id":1640,"state_code":"FR","country_id":214,"country_code":"CH","latitude":"46.79054000","longitude":"7.11717000"},{"id":"18681","name":"Villaz-Saint-Pierre","state_id":1640,"state_code":"FR","country_id":214,"country_code":"CH","latitude":"46.72074000","longitude":"6.95638000"},{"id":"18695","name":"Vuadens","state_id":1640,"state_code":"FR","country_id":214,"country_code":"CH","latitude":"46.61545000","longitude":"7.01732000"},{"id":"17371","name":"Aesch","state_id":1641,"state_code":"BL","country_id":214,"country_code":"CH","latitude":"47.47104000","longitude":"7.59730000"},{"id":"17386","name":"Allschwil","state_id":1641,"state_code":"BL","country_id":214,"country_code":"CH","latitude":"47.55074000","longitude":"7.53599000"},{"id":"17406","name":"Arisdorf","state_id":1641,"state_code":"BL","country_id":214,"country_code":"CH","latitude":"47.51323000","longitude":"7.76515000"},{"id":"17408","name":"Arlesheim","state_id":1641,"state_code":"BL","country_id":214,"country_code":"CH","latitude":"47.49412000","longitude":"7.61979000"},{"id":"17474","name":"Bezirk Arlesheim","state_id":1641,"state_code":"BL","country_id":214,"country_code":"CH","latitude":"47.51668000","longitude":"7.58733000"},{"id":"17493","name":"Bezirk Laufen","state_id":1641,"state_code":"BL","country_id":214,"country_code":"CH","latitude":"47.42324000","longitude":"7.48750000"},{"id":"17497","name":"Bezirk Liestal","state_id":1641,"state_code":"BL","country_id":214,"country_code":"CH","latitude":"47.48124000","longitude":"7.72714000"},{"id":"17510","name":"Bezirk Sissach","state_id":1641,"state_code":"BL","country_id":214,"country_code":"CH","latitude":"47.44237000","longitude":"7.84871000"},{"id":"17518","name":"Bezirk Waldenburg","state_id":1641,"state_code":"BL","country_id":214,"country_code":"CH","latitude":"47.39367000","longitude":"7.74137000"},{"id":"17530","name":"Binningen","state_id":1641,"state_code":"BL","country_id":214,"country_code":"CH","latitude":"47.54021000","longitude":"7.56932000"},{"id":"17538","name":"Birsfelden","state_id":1641,"state_code":"BL","country_id":214,"country_code":"CH","latitude":"47.55290000","longitude":"7.62322000"},{"id":"17553","name":"Bottmingen","state_id":1641,"state_code":"BL","country_id":214,"country_code":"CH","latitude":"47.52343000","longitude":"7.57211000"},{"id":"17563","name":"Brislach","state_id":1641,"state_code":"BL","country_id":214,"country_code":"CH","latitude":"47.41763000","longitude":"7.54340000"},{"id":"17575","name":"Bubendorf","state_id":1641,"state_code":"BL","country_id":214,"country_code":"CH","latitude":"47.44586000","longitude":"7.73759000"},{"id":"17589","name":"Buus","state_id":1641,"state_code":"BL","country_id":214,"country_code":"CH","latitude":"47.50635000","longitude":"7.86414000"},{"id":"17684","name":"Diegten","state_id":1641,"state_code":"BL","country_id":214,"country_code":"CH","latitude":"47.41380000","longitude":"7.81085000"},{"id":"17775","name":"Ettingen","state_id":1641,"state_code":"BL","country_id":214,"country_code":"CH","latitude":"47.48225000","longitude":"7.54654000"},{"id":"17817","name":"F\u00fcllinsdorf","state_id":1641,"state_code":"BL","country_id":214,"country_code":"CH","latitude":"47.50688000","longitude":"7.73129000"},{"id":"17808","name":"Frenkendorf","state_id":1641,"state_code":"BL","country_id":214,"country_code":"CH","latitude":"47.50686000","longitude":"7.71648000"},{"id":"17825","name":"Gelterkinden","state_id":1641,"state_code":"BL","country_id":214,"country_code":"CH","latitude":"47.46497000","longitude":"7.85174000"},{"id":"17867","name":"Grellingen","state_id":1641,"state_code":"BL","country_id":214,"country_code":"CH","latitude":"47.44231000","longitude":"7.58906000"},{"id":"17942","name":"H\u00f6lstein","state_id":1641,"state_code":"BL","country_id":214,"country_code":"CH","latitude":"47.42290000","longitude":"7.77041000"},{"id":"17956","name":"Itingen","state_id":1641,"state_code":"BL","country_id":214,"country_code":"CH","latitude":"47.46651000","longitude":"7.78502000"},{"id":"18034","name":"Langenbruck","state_id":1641,"state_code":"BL","country_id":214,"country_code":"CH","latitude":"47.34917000","longitude":"7.76802000"},{"id":"18042","name":"Laufen","state_id":1641,"state_code":"BL","country_id":214,"country_code":"CH","latitude":"47.42193000","longitude":"7.49946000"},{"id":"18050","name":"Lausen","state_id":1641,"state_code":"BL","country_id":214,"country_code":"CH","latitude":"47.47139000","longitude":"7.76030000"},{"id":"18109","name":"L\u00e4ufelfingen","state_id":1641,"state_code":"BL","country_id":214,"country_code":"CH","latitude":"47.39457000","longitude":"7.85578000"},{"id":"18082","name":"Liesberg","state_id":1641,"state_code":"BL","country_id":214,"country_code":"CH","latitude":"47.40398000","longitude":"7.42787000"},{"id":"18083","name":"Liestal","state_id":1641,"state_code":"BL","country_id":214,"country_code":"CH","latitude":"47.48455000","longitude":"7.73446000"},{"id":"18200","name":"M\u00fcnchenstein","state_id":1641,"state_code":"BL","country_id":214,"country_code":"CH","latitude":"47.51848000","longitude":"7.60966000"},{"id":"18185","name":"Muttenz","state_id":1641,"state_code":"BL","country_id":214,"country_code":"CH","latitude":"47.52271000","longitude":"7.64511000"},{"id":"18244","name":"Oberdorf","state_id":1641,"state_code":"BL","country_id":214,"country_code":"CH","latitude":"47.39353000","longitude":"7.75169000"},{"id":"18270","name":"Oberwil","state_id":1641,"state_code":"BL","country_id":214,"country_code":"CH","latitude":"47.51407000","longitude":"7.55786000"},{"id":"18287","name":"Ormalingen","state_id":1641,"state_code":"BL","country_id":214,"country_code":"CH","latitude":"47.46936000","longitude":"7.87248000"},{"id":"18307","name":"Pfeffingen","state_id":1641,"state_code":"BL","country_id":214,"country_code":"CH","latitude":"47.45984000","longitude":"7.58975000"},{"id":"18324","name":"Pratteln","state_id":1641,"state_code":"BL","country_id":214,"country_code":"CH","latitude":"47.52071000","longitude":"7.69356000"},{"id":"18403","name":"R\u00f6schenz","state_id":1641,"state_code":"BL","country_id":214,"country_code":"CH","latitude":"47.42366000","longitude":"7.48024000"},{"id":"18362","name":"Reigoldswil","state_id":1641,"state_code":"BL","country_id":214,"country_code":"CH","latitude":"47.39824000","longitude":"7.68718000"},{"id":"18484","name":"Sch\u00f6nenbuch","state_id":1641,"state_code":"BL","country_id":214,"country_code":"CH","latitude":"47.53853000","longitude":"7.50572000"},{"id":"18505","name":"Seltisberg","state_id":1641,"state_code":"BL","country_id":214,"country_code":"CH","latitude":"47.46249000","longitude":"7.72039000"},{"id":"18526","name":"Sissach","state_id":1641,"state_code":"BL","country_id":214,"country_code":"CH","latitude":"47.46408000","longitude":"7.80888000"},{"id":"18589","name":"Therwil","state_id":1641,"state_code":"BL","country_id":214,"country_code":"CH","latitude":"47.49941000","longitude":"7.55669000"},{"id":"18699","name":"Wahlen","state_id":1641,"state_code":"BL","country_id":214,"country_code":"CH","latitude":"47.40226000","longitude":"7.51511000"},{"id":"18710","name":"Waldenburg","state_id":1641,"state_code":"BL","country_id":214,"country_code":"CH","latitude":"47.38333000","longitude":"7.75000000"},{"id":"18803","name":"Zunzgen","state_id":1641,"state_code":"BL","country_id":214,"country_code":"CH","latitude":"47.44925000","longitude":"7.80789000"},{"id":"18807","name":"Zwingen","state_id":1641,"state_code":"BL","country_id":214,"country_code":"CH","latitude":"47.43825000","longitude":"7.53027000"},{"id":"17388","name":"Altdorf","state_id":1642,"state_code":"UR","country_id":214,"country_code":"CH","latitude":"46.88042000","longitude":"8.64441000"},{"id":"17397","name":"Andermatt","state_id":1642,"state_code":"UR","country_id":214,"country_code":"CH","latitude":"46.63565000","longitude":"8.59388000"},{"id":"17416","name":"Attinghausen","state_id":1642,"state_code":"UR","country_id":214,"country_code":"CH","latitude":"46.86255000","longitude":"8.63036000"},{"id":"17444","name":"Bauen","state_id":1642,"state_code":"UR","country_id":214,"country_code":"CH","latitude":"46.93559000","longitude":"8.57836000"},{"id":"17602","name":"B\u00fcrglen","state_id":1642,"state_code":"UR","country_id":214,"country_code":"CH","latitude":"46.87565000","longitude":"8.66539000"},{"id":"17768","name":"Erstfeld","state_id":1642,"state_code":"UR","country_id":214,"country_code":"CH","latitude":"46.81885000","longitude":"8.65052000"},{"id":"17796","name":"Fl\u00fcelen","state_id":1642,"state_code":"UR","country_id":214,"country_code":"CH","latitude":"46.90478000","longitude":"8.62396000"},{"id":"18458","name":"Schattdorf","state_id":1642,"state_code":"UR","country_id":214,"country_code":"CH","latitude":"46.86550000","longitude":"8.65465000"},{"id":"18492","name":"Seedorf","state_id":1642,"state_code":"UR","country_id":214,"country_code":"CH","latitude":"46.88199000","longitude":"8.61611000"},{"id":"18521","name":"Silenen","state_id":1642,"state_code":"UR","country_id":214,"country_code":"CH","latitude":"46.78910000","longitude":"8.67325000"},{"id":"17361","name":"Acquarossa","state_id":1643,"state_code":"TI","country_id":214,"country_code":"CH","latitude":"46.45473000","longitude":"8.94261000"},{"id":"17380","name":"Agno","state_id":1643,"state_code":"TI","country_id":214,"country_code":"CH","latitude":"45.99863000","longitude":"8.90030000"},{"id":"17384","name":"Airolo","state_id":1643,"state_code":"TI","country_id":214,"country_code":"CH","latitude":"46.52855000","longitude":"8.61189000"},{"id":"17413","name":"Arzo","state_id":1643,"state_code":"TI","country_id":214,"country_code":"CH","latitude":"45.87606000","longitude":"8.94103000"},{"id":"17414","name":"Ascona","state_id":1643,"state_code":"TI","country_id":214,"country_code":"CH","latitude":"46.15451000","longitude":"8.77327000"},{"id":"17434","name":"Balerna","state_id":1643,"state_code":"TI","country_id":214,"country_code":"CH","latitude":"45.84638000","longitude":"9.00724000"},{"id":"17452","name":"Bellinzona","state_id":1643,"state_code":"TI","country_id":214,"country_code":"CH","latitude":"46.19278000","longitude":"9.01703000"},{"id":"17453","name":"Bellinzona District","state_id":1643,"state_code":"TI","country_id":214,"country_code":"CH","latitude":"46.18858000","longitude":"9.00254000"},{"id":"17524","name":"Biasca","state_id":1643,"state_code":"TI","country_id":214,"country_code":"CH","latitude":"46.35972000","longitude":"8.96965000"},{"id":"17533","name":"Bioggio","state_id":1643,"state_code":"TI","country_id":214,"country_code":"CH","latitude":"46.01357000","longitude":"8.91103000"},{"id":"17540","name":"Blenio District","state_id":1643,"state_code":"TI","country_id":214,"country_code":"CH","latitude":"46.47613000","longitude":"8.94609000"},{"id":"17544","name":"Bodio","state_id":1643,"state_code":"TI","country_id":214,"country_code":"CH","latitude":"46.37808000","longitude":"8.90991000"},{"id":"17564","name":"Brissago","state_id":1643,"state_code":"TI","country_id":214,"country_code":"CH","latitude":"46.12013000","longitude":"8.71181000"},{"id":"17607","name":"Cadempino","state_id":1643,"state_code":"TI","country_id":214,"country_code":"CH","latitude":"46.03672000","longitude":"8.93403000"},{"id":"17608","name":"Cadenazzo","state_id":1643,"state_code":"TI","country_id":214,"country_code":"CH","latitude":"46.15172000","longitude":"8.94719000"},{"id":"17609","name":"Cadro","state_id":1643,"state_code":"TI","country_id":214,"country_code":"CH","latitude":"46.04595000","longitude":"8.98725000"},{"id":"17610","name":"Camorino","state_id":1643,"state_code":"TI","country_id":214,"country_code":"CH","latitude":"46.16483000","longitude":"9.00547000"},{"id":"17611","name":"Canobbio","state_id":1643,"state_code":"TI","country_id":214,"country_code":"CH","latitude":"46.03592000","longitude":"8.96605000"},{"id":"17613","name":"Caslano","state_id":1643,"state_code":"TI","country_id":214,"country_code":"CH","latitude":"45.97364000","longitude":"8.87739000"},{"id":"17614","name":"Castel San Pietro","state_id":1643,"state_code":"TI","country_id":214,"country_code":"CH","latitude":"45.86211000","longitude":"9.00843000"},{"id":"17620","name":"Cevio","state_id":1643,"state_code":"TI","country_id":214,"country_code":"CH","latitude":"46.31479000","longitude":"8.60332000"},{"id":"17636","name":"Chiasso","state_id":1643,"state_code":"TI","country_id":214,"country_code":"CH","latitude":"45.83203000","longitude":"9.03119000"},{"id":"17645","name":"Claro","state_id":1643,"state_code":"TI","country_id":214,"country_code":"CH","latitude":"46.25763000","longitude":"9.02252000"},{"id":"17648","name":"Comano","state_id":1643,"state_code":"TI","country_id":214,"country_code":"CH","latitude":"46.03635000","longitude":"8.95526000"},{"id":"17670","name":"Cugnasco","state_id":1643,"state_code":"TI","country_id":214,"country_code":"CH","latitude":"46.17473000","longitude":"8.91684000"},{"id":"17780","name":"Faido","state_id":1643,"state_code":"TI","country_id":214,"country_code":"CH","latitude":"46.47700000","longitude":"8.80125000"},{"id":"17836","name":"Giubiasco","state_id":1643,"state_code":"TI","country_id":214,"country_code":"CH","latitude":"46.17246000","longitude":"9.00793000"},{"id":"17854","name":"Gordola","state_id":1643,"state_code":"TI","country_id":214,"country_code":"CH","latitude":"46.18256000","longitude":"8.86657000"},{"id":"17863","name":"Gravesano","state_id":1643,"state_code":"TI","country_id":214,"country_code":"CH","latitude":"46.04208000","longitude":"8.91832000"},{"id":"18053","name":"Lavertezzo","state_id":1643,"state_code":"TI","country_id":214,"country_code":"CH","latitude":"46.25893000","longitude":"8.83756000"},{"id":"18078","name":"Leventina District","state_id":1643,"state_code":"TI","country_id":214,"country_code":"CH","latitude":"46.46912000","longitude":"8.75539000"},{"id":"18084","name":"Ligornetto","state_id":1643,"state_code":"TI","country_id":214,"country_code":"CH","latitude":"45.86161000","longitude":"8.95166000"},{"id":"18088","name":"Locarno","state_id":1643,"state_code":"TI","country_id":214,"country_code":"CH","latitude":"46.17086000","longitude":"8.79953000"},{"id":"18089","name":"Locarno District","state_id":1643,"state_code":"TI","country_id":214,"country_code":"CH","latitude":"46.18033000","longitude":"8.75991000"},{"id":"18090","name":"Lodrino","state_id":1643,"state_code":"TI","country_id":214,"country_code":"CH","latitude":"46.30016000","longitude":"8.97986000"},{"id":"18091","name":"Losone","state_id":1643,"state_code":"TI","country_id":214,"country_code":"CH","latitude":"46.16866000","longitude":"8.75928000"},{"id":"18098","name":"Lugano","state_id":1643,"state_code":"TI","country_id":214,"country_code":"CH","latitude":"46.01008000","longitude":"8.96004000"},{"id":"18099","name":"Lugano District","state_id":1643,"state_code":"TI","country_id":214,"country_code":"CH","latitude":"46.02322000","longitude":"8.93802000"},{"id":"18100","name":"Lumino","state_id":1643,"state_code":"TI","country_id":214,"country_code":"CH","latitude":"46.23020000","longitude":"9.06420000"},{"id":"18114","name":"Magadino","state_id":1643,"state_code":"TI","country_id":214,"country_code":"CH","latitude":"46.14892000","longitude":"8.85610000"},{"id":"18120","name":"Malvaglia","state_id":1643,"state_code":"TI","country_id":214,"country_code":"CH","latitude":"46.40588000","longitude":"8.98190000"},{"id":"18128","name":"Massagno","state_id":1643,"state_code":"TI","country_id":214,"country_code":"CH","latitude":"46.01257000","longitude":"8.94354000"},{"id":"18145","name":"Melano","state_id":1643,"state_code":"TI","country_id":214,"country_code":"CH","latitude":"45.92202000","longitude":"8.98435000"},{"id":"18147","name":"Melide","state_id":1643,"state_code":"TI","country_id":214,"country_code":"CH","latitude":"45.95455000","longitude":"8.94725000"},{"id":"18149","name":"Mendrisio","state_id":1643,"state_code":"TI","country_id":214,"country_code":"CH","latitude":"45.87019000","longitude":"8.98160000"},{"id":"18150","name":"Mendrisio District","state_id":1643,"state_code":"TI","country_id":214,"country_code":"CH","latitude":"45.86592000","longitude":"8.99931000"},{"id":"18159","name":"Minusio","state_id":1643,"state_code":"TI","country_id":214,"country_code":"CH","latitude":"46.17769000","longitude":"8.81473000"},{"id":"18163","name":"Montagnola","state_id":1643,"state_code":"TI","country_id":214,"country_code":"CH","latitude":"45.98323000","longitude":"8.91786000"},{"id":"18166","name":"Monte Carasso","state_id":1643,"state_code":"TI","country_id":214,"country_code":"CH","latitude":"46.18649000","longitude":"8.99892000"},{"id":"18170","name":"Morbio Inferiore","state_id":1643,"state_code":"TI","country_id":214,"country_code":"CH","latitude":"45.84915000","longitude":"9.01907000"},{"id":"18180","name":"Muralto","state_id":1643,"state_code":"TI","country_id":214,"country_code":"CH","latitude":"46.17323000","longitude":"8.80219000"},{"id":"18231","name":"Novazzano","state_id":1643,"state_code":"TI","country_id":214,"country_code":"CH","latitude":"45.84073000","longitude":"8.98236000"},{"id":"18325","name":"Pregassona","state_id":1643,"state_code":"TI","country_id":214,"country_code":"CH","latitude":"46.02021000","longitude":"8.97429000"},{"id":"18331","name":"Pura","state_id":1643,"state_code":"TI","country_id":214,"country_code":"CH","latitude":"45.98647000","longitude":"8.86877000"},{"id":"18378","name":"Riva San Vitale","state_id":1643,"state_code":"TI","country_id":214,"country_code":"CH","latitude":"45.90123000","longitude":"8.97167000"},{"id":"18379","name":"Riviera District","state_id":1643,"state_code":"TI","country_id":214,"country_code":"CH","latitude":"46.30926000","longitude":"8.98148000"},{"id":"18507","name":"Sementina","state_id":1643,"state_code":"TI","country_id":214,"country_code":"CH","latitude":"46.18363000","longitude":"8.99162000"},{"id":"18530","name":"Sorengo","state_id":1643,"state_code":"TI","country_id":214,"country_code":"CH","latitude":"45.99766000","longitude":"8.93783000"},{"id":"18536","name":"Stabio","state_id":1643,"state_code":"TI","country_id":214,"country_code":"CH","latitude":"45.84846000","longitude":"8.93642000"},{"id":"18578","name":"Tesserete","state_id":1643,"state_code":"TI","country_id":214,"country_code":"CH","latitude":"46.06813000","longitude":"8.96501000"},{"id":"18658","name":"Vallemaggia District","state_id":1643,"state_code":"TI","country_id":214,"country_code":"CH","latitude":"46.35483000","longitude":"8.60540000"},{"id":"18671","name":"Verscio","state_id":1643,"state_code":"TI","country_id":214,"country_code":"CH","latitude":"46.18482000","longitude":"8.73224000"},{"id":"18678","name":"Viganello","state_id":1643,"state_code":"TI","country_id":214,"country_code":"CH","latitude":"46.01342000","longitude":"8.96879000"},{"id":"17393","name":"Altst\u00e4tten","state_id":1644,"state_code":"SG","country_id":214,"country_code":"CH","latitude":"47.37766000","longitude":"9.54746000"},{"id":"17394","name":"Amden","state_id":1644,"state_code":"SG","country_id":214,"country_code":"CH","latitude":"47.14888000","longitude":"9.14233000"},{"id":"17398","name":"Andwil","state_id":1644,"state_code":"SG","country_id":214,"country_code":"CH","latitude":"47.43855000","longitude":"9.27436000"},{"id":"17419","name":"Au","state_id":1644,"state_code":"SG","country_id":214,"country_code":"CH","latitude":"47.43093000","longitude":"9.63448000"},{"id":"17430","name":"Bad Ragaz","state_id":1644,"state_code":"SG","country_id":214,"country_code":"CH","latitude":"47.00601000","longitude":"9.50266000"},{"id":"17435","name":"Balgach","state_id":1644,"state_code":"SG","country_id":214,"country_code":"CH","latitude":"47.40556000","longitude":"9.60702000"},{"id":"17606","name":"B\u00fctschwil","state_id":1644,"state_code":"SG","country_id":214,"country_code":"CH","latitude":"47.36022000","longitude":"9.07213000"},{"id":"17458","name":"Benken","state_id":1644,"state_code":"SG","country_id":214,"country_code":"CH","latitude":"47.19942000","longitude":"9.00735000"},{"id":"17567","name":"Bronschhofen","state_id":1644,"state_code":"SG","country_id":214,"country_code":"CH","latitude":"47.47835000","longitude":"9.03454000"},{"id":"17580","name":"Buchs","state_id":1644,"state_code":"SG","country_id":214,"country_code":"CH","latitude":"47.16743000","longitude":"9.47794000"},{"id":"17678","name":"Degersheim","state_id":1644,"state_code":"SG","country_id":214,"country_code":"CH","latitude":"47.37429000","longitude":"9.20019000"},{"id":"17687","name":"Diepoldsau","state_id":1644,"state_code":"SG","country_id":214,"country_code":"CH","latitude":"47.38600000","longitude":"9.65558000"},{"id":"17720","name":"Ebnat-Kappel","state_id":1644,"state_code":"SG","country_id":214,"country_code":"CH","latitude":"47.26195000","longitude":"9.12473000"},{"id":"17730","name":"Eggersriet","state_id":1644,"state_code":"SG","country_id":214,"country_code":"CH","latitude":"47.44202000","longitude":"9.46901000"},{"id":"17736","name":"Eichberg","state_id":1644,"state_code":"SG","country_id":214,"country_code":"CH","latitude":"47.34374000","longitude":"9.53140000"},{"id":"17769","name":"Eschenbach","state_id":1644,"state_code":"SG","country_id":214,"country_code":"CH","latitude":"47.23981000","longitude":"8.92156000"},{"id":"17791","name":"Flawil","state_id":1644,"state_code":"SG","country_id":214,"country_code":"CH","latitude":"47.41301000","longitude":"9.18324000"},{"id":"17794","name":"Flums","state_id":1644,"state_code":"SG","country_id":214,"country_code":"CH","latitude":"47.09058000","longitude":"9.34301000"},{"id":"17821","name":"Gams","state_id":1644,"state_code":"SG","country_id":214,"country_code":"CH","latitude":"47.20429000","longitude":"9.44172000"},{"id":"17822","name":"Ganterschwil","state_id":1644,"state_code":"SG","country_id":214,"country_code":"CH","latitude":"47.38103000","longitude":"9.09239000"},{"id":"17847","name":"Goldach","state_id":1644,"state_code":"SG","country_id":214,"country_code":"CH","latitude":"47.47401000","longitude":"9.46711000"},{"id":"17849","name":"Goldingen","state_id":1644,"state_code":"SG","country_id":214,"country_code":"CH","latitude":"47.26477000","longitude":"8.96167000"},{"id":"17850","name":"Gommiswald","state_id":1644,"state_code":"SG","country_id":214,"country_code":"CH","latitude":"47.23128000","longitude":"9.02355000"},{"id":"17856","name":"Gossau","state_id":1644,"state_code":"SG","country_id":214,"country_code":"CH","latitude":"47.41551000","longitude":"9.25482000"},{"id":"17859","name":"Grabs","state_id":1644,"state_code":"SG","country_id":214,"country_code":"CH","latitude":"47.18248000","longitude":"9.44395000"},{"id":"17890","name":"Haag (Rheintal)","state_id":1644,"state_code":"SG","country_id":214,"country_code":"CH","latitude":"47.20989000","longitude":"9.48931000"},{"id":"17938","name":"H\u00e4ggenschwil","state_id":1644,"state_code":"SG","country_id":214,"country_code":"CH","latitude":"47.49462000","longitude":"9.34487000"},{"id":"17934","name":"Horn","state_id":1644,"state_code":"SG","country_id":214,"country_code":"CH","latitude":"47.49425000","longitude":"9.46246000"},{"id":"17959","name":"Jona","state_id":1644,"state_code":"SG","country_id":214,"country_code":"CH","latitude":"47.22983000","longitude":"8.83884000"},{"id":"17962","name":"Jonschwil","state_id":1644,"state_code":"SG","country_id":214,"country_code":"CH","latitude":"47.42402000","longitude":"9.08689000"},{"id":"17969","name":"Kaltbrunn","state_id":1644,"state_code":"SG","country_id":214,"country_code":"CH","latitude":"47.21367000","longitude":"9.02590000"},{"id":"17980","name":"Kirchberg","state_id":1644,"state_code":"SG","country_id":214,"country_code":"CH","latitude":"47.41159000","longitude":"9.04020000"},{"id":"18009","name":"Krummenau","state_id":1644,"state_code":"SG","country_id":214,"country_code":"CH","latitude":"47.24755000","longitude":"9.17064000"},{"id":"18111","name":"L\u00fctisburg","state_id":1644,"state_code":"SG","country_id":214,"country_code":"CH","latitude":"47.39451000","longitude":"9.08312000"},{"id":"18081","name":"Lichtensteig","state_id":1644,"state_code":"SG","country_id":214,"country_code":"CH","latitude":"47.32381000","longitude":"9.08758000"},{"id":"18194","name":"M\u00f6rschwil","state_id":1644,"state_code":"SG","country_id":214,"country_code":"CH","latitude":"47.47097000","longitude":"9.42278000"},{"id":"18160","name":"Mogelsberg","state_id":1644,"state_code":"SG","country_id":214,"country_code":"CH","latitude":"47.36222000","longitude":"9.13541000"},{"id":"18173","name":"Mosnang","state_id":1644,"state_code":"SG","country_id":214,"country_code":"CH","latitude":"47.36252000","longitude":"9.04296000"},{"id":"18178","name":"Muolen","state_id":1644,"state_code":"SG","country_id":214,"country_code":"CH","latitude":"47.52102000","longitude":"9.32484000"},{"id":"18221","name":"Niederb\u00fcren","state_id":1644,"state_code":"SG","country_id":214,"country_code":"CH","latitude":"47.46547000","longitude":"9.20568000"},{"id":"18226","name":"Niederhelfenschwil","state_id":1644,"state_code":"SG","country_id":214,"country_code":"CH","latitude":"47.47487000","longitude":"9.18543000"},{"id":"18255","name":"Oberhelfenschwil","state_id":1644,"state_code":"SG","country_id":214,"country_code":"CH","latitude":"47.35673000","longitude":"9.11076000"},{"id":"18262","name":"Oberriet","state_id":1644,"state_code":"SG","country_id":214,"country_code":"CH","latitude":"47.32088000","longitude":"9.56808000"},{"id":"18269","name":"Oberuzwil","state_id":1644,"state_code":"SG","country_id":214,"country_code":"CH","latitude":"47.43076000","longitude":"9.12724000"},{"id":"18333","name":"Quarten","state_id":1644,"state_code":"SG","country_id":214,"country_code":"CH","latitude":"47.10700000","longitude":"9.24199000"},{"id":"18338","name":"Rapperswil","state_id":1644,"state_code":"SG","country_id":214,"country_code":"CH","latitude":"47.22557000","longitude":"8.82228000"},{"id":"18410","name":"R\u00fcthi","state_id":1644,"state_code":"SG","country_id":214,"country_code":"CH","latitude":"47.29480000","longitude":"9.53857000"},{"id":"18341","name":"Rebstein","state_id":1644,"state_code":"SG","country_id":214,"country_code":"CH","latitude":"47.39812000","longitude":"9.58503000"},{"id":"18365","name":"Rheineck","state_id":1644,"state_code":"SG","country_id":214,"country_code":"CH","latitude":"47.46630000","longitude":"9.59028000"},{"id":"18392","name":"Rorschach","state_id":1644,"state_code":"SG","country_id":214,"country_code":"CH","latitude":"47.47800000","longitude":"9.49030000"},{"id":"18438","name":"Sankt Gallen","state_id":1644,"state_code":"SG","country_id":214,"country_code":"CH","latitude":"47.42391000","longitude":"9.37477000"},{"id":"18439","name":"Sankt Gallenkappel","state_id":1644,"state_code":"SG","country_id":214,"country_code":"CH","latitude":"47.24368000","longitude":"8.96438000"},{"id":"18440","name":"Sankt Margrethen","state_id":1644,"state_code":"SG","country_id":214,"country_code":"CH","latitude":"47.45253000","longitude":"9.63741000"},{"id":"18442","name":"Sankt Peterzell","state_id":1644,"state_code":"SG","country_id":214,"country_code":"CH","latitude":"47.31782000","longitude":"9.17599000"},{"id":"18444","name":"Sargans","state_id":1644,"state_code":"SG","country_id":214,"country_code":"CH","latitude":"47.04896000","longitude":"9.44103000"},{"id":"18482","name":"Sch\u00e4nis","state_id":1644,"state_code":"SG","country_id":214,"country_code":"CH","latitude":"47.15995000","longitude":"9.04549000"},{"id":"18472","name":"Schmerikon","state_id":1644,"state_code":"SG","country_id":214,"country_code":"CH","latitude":"47.22538000","longitude":"8.94836000"},{"id":"18509","name":"Sennwald","state_id":1644,"state_code":"SG","country_id":214,"country_code":"CH","latitude":"47.26063000","longitude":"9.50268000"},{"id":"18515","name":"Sevelen","state_id":1644,"state_code":"SG","country_id":214,"country_code":"CH","latitude":"47.12213000","longitude":"9.48601000"},{"id":"18581","name":"Thal","state_id":1644,"state_code":"SG","country_id":214,"country_code":"CH","latitude":"47.46677000","longitude":"9.56643000"},{"id":"18654","name":"Uznach","state_id":1644,"state_code":"SG","country_id":214,"country_code":"CH","latitude":"47.22421000","longitude":"8.98263000"},{"id":"18655","name":"Uzwil","state_id":1644,"state_code":"SG","country_id":214,"country_code":"CH","latitude":"47.43653000","longitude":"9.13422000"},{"id":"18700","name":"Wahlkreis Rheintal","state_id":1644,"state_code":"SG","country_id":214,"country_code":"CH","latitude":"47.37769000","longitude":"9.57903000"},{"id":"18701","name":"Wahlkreis Rorschach","state_id":1644,"state_code":"SG","country_id":214,"country_code":"CH","latitude":"47.46647000","longitude":"9.44246000"},{"id":"18702","name":"Wahlkreis Sarganserland","state_id":1644,"state_code":"SG","country_id":214,"country_code":"CH","latitude":"47.05000000","longitude":"9.43333000"},{"id":"18703","name":"Wahlkreis See-Gaster","state_id":1644,"state_code":"SG","country_id":214,"country_code":"CH","latitude":"47.22459000","longitude":"9.01680000"},{"id":"18704","name":"Wahlkreis St. Gallen","state_id":1644,"state_code":"SG","country_id":214,"country_code":"CH","latitude":"47.46342000","longitude":"9.39052000"},{"id":"18705","name":"Wahlkreis Toggenburg","state_id":1644,"state_code":"SG","country_id":214,"country_code":"CH","latitude":"47.29453000","longitude":"9.17283000"},{"id":"18706","name":"Wahlkreis Werdenberg","state_id":1644,"state_code":"SG","country_id":214,"country_code":"CH","latitude":"47.17743000","longitude":"9.46299000"},{"id":"18707","name":"Wahlkreis Wil","state_id":1644,"state_code":"SG","country_id":214,"country_code":"CH","latitude":"47.42591000","longitude":"9.12451000"},{"id":"18711","name":"Waldkirch","state_id":1644,"state_code":"SG","country_id":214,"country_code":"CH","latitude":"47.46859000","longitude":"9.28665000"},{"id":"18713","name":"Walenstadt","state_id":1644,"state_code":"SG","country_id":214,"country_code":"CH","latitude":"47.12411000","longitude":"9.31194000"},{"id":"18725","name":"Wattwil","state_id":1644,"state_code":"SG","country_id":214,"country_code":"CH","latitude":"47.29955000","longitude":"9.08657000"},{"id":"18727","name":"Weesen","state_id":1644,"state_code":"SG","country_id":214,"country_code":"CH","latitude":"47.13447000","longitude":"9.09644000"},{"id":"18749","name":"Wil","state_id":1644,"state_code":"SG","country_id":214,"country_code":"CH","latitude":"47.46152000","longitude":"9.04552000"},{"id":"18753","name":"Wildhaus","state_id":1644,"state_code":"SG","country_id":214,"country_code":"CH","latitude":"47.20583000","longitude":"9.35402000"},{"id":"18759","name":"Wittenbach","state_id":1644,"state_code":"SG","country_id":214,"country_code":"CH","latitude":"47.46108000","longitude":"9.38601000"},{"id":"18805","name":"Zuzwil","state_id":1644,"state_code":"SG","country_id":214,"country_code":"CH","latitude":"47.47452000","longitude":"9.11196000"},{"id":"17358","name":"Aarberg","state_id":1645,"state_code":"BE","country_id":214,"country_code":"CH","latitude":"47.04439000","longitude":"7.27578000"},{"id":"17360","name":"Aarwangen","state_id":1645,"state_code":"BE","country_id":214,"country_code":"CH","latitude":"47.23845000","longitude":"7.76854000"},{"id":"17362","name":"Adelboden","state_id":1645,"state_code":"BE","country_id":214,"country_code":"CH","latitude":"46.49142000","longitude":"7.56031000"},{"id":"17373","name":"Aeschi b. Spiez","state_id":1645,"state_code":"BE","country_id":214,"country_code":"CH","latitude":"46.65848000","longitude":"7.69650000"},{"id":"17404","name":"Arch","state_id":1645,"state_code":"BE","country_id":214,"country_code":"CH","latitude":"47.16533000","longitude":"7.43139000"},{"id":"17417","name":"Attiswil","state_id":1645,"state_code":"BE","country_id":214,"country_code":"CH","latitude":"47.24673000","longitude":"7.61353000"},{"id":"17592","name":"B\u00e4riswil","state_id":1645,"state_code":"BE","country_id":214,"country_code":"CH","latitude":"47.01947000","longitude":"7.52709000"},{"id":"17593","name":"B\u00e4tterkinden","state_id":1645,"state_code":"BE","country_id":214,"country_code":"CH","latitude":"47.13164000","longitude":"7.53817000"},{"id":"17594","name":"B\u00e9vilard","state_id":1645,"state_code":"BE","country_id":214,"country_code":"CH","latitude":"47.23711000","longitude":"7.28325000"},{"id":"17595","name":"B\u00f6nigen","state_id":1645,"state_code":"BE","country_id":214,"country_code":"CH","latitude":"46.68736000","longitude":"7.89350000"},{"id":"17447","name":"Beatenberg","state_id":1645,"state_code":"BE","country_id":214,"country_code":"CH","latitude":"46.69896000","longitude":"7.79428000"},{"id":"17454","name":"Bellmund","state_id":1645,"state_code":"BE","country_id":214,"country_code":"CH","latitude":"47.10852000","longitude":"7.24608000"},{"id":"17456","name":"Belp","state_id":1645,"state_code":"BE","country_id":214,"country_code":"CH","latitude":"46.89129000","longitude":"7.49825000"},{"id":"17462","name":"Bern","state_id":1645,"state_code":"BE","country_id":214,"country_code":"CH","latitude":"46.94809000","longitude":"7.44744000"},{"id":"17463","name":"Bern-Mittelland District","state_id":1645,"state_code":"BE","country_id":214,"country_code":"CH","latitude":"46.92526000","longitude":"7.49024000"},{"id":"17526","name":"Biel\/Bienne","state_id":1645,"state_code":"BE","country_id":214,"country_code":"CH","latitude":"47.13713000","longitude":"7.24608000"},{"id":"17527","name":"Biel\/Bienne District","state_id":1645,"state_code":"BE","country_id":214,"country_code":"CH","latitude":"47.12725000","longitude":"7.26174000"},{"id":"17528","name":"Biglen","state_id":1645,"state_code":"BE","country_id":214,"country_code":"CH","latitude":"46.92629000","longitude":"7.62508000"},{"id":"17542","name":"Blumenstein","state_id":1645,"state_code":"BE","country_id":214,"country_code":"CH","latitude":"46.74210000","longitude":"7.52136000"},{"id":"17545","name":"Bolligen","state_id":1645,"state_code":"BE","country_id":214,"country_code":"CH","latitude":"46.97510000","longitude":"7.49697000"},{"id":"17546","name":"Boltigen","state_id":1645,"state_code":"BE","country_id":214,"country_code":"CH","latitude":"46.62847000","longitude":"7.39054000"},{"id":"17556","name":"Bowil","state_id":1645,"state_code":"BE","country_id":214,"country_code":"CH","latitude":"46.89304000","longitude":"7.69757000"},{"id":"17572","name":"Br\u00fcgg","state_id":1645,"state_code":"BE","country_id":214,"country_code":"CH","latitude":"47.12370000","longitude":"7.27887000"},{"id":"17560","name":"Brienz","state_id":1645,"state_code":"BE","country_id":214,"country_code":"CH","latitude":"46.75450000","longitude":"8.03847000"},{"id":"17577","name":"Buchholterberg","state_id":1645,"state_code":"BE","country_id":214,"country_code":"CH","latitude":"46.81351000","longitude":"7.67463000"},{"id":"17583","name":"Burgdorf","state_id":1645,"state_code":"BE","country_id":214,"country_code":"CH","latitude":"47.05901000","longitude":"7.62786000"},{"id":"17584","name":"Burgistein","state_id":1645,"state_code":"BE","country_id":214,"country_code":"CH","latitude":"46.78464000","longitude":"7.49988000"},{"id":"17653","name":"Corg\u00e9mont","state_id":1645,"state_code":"BE","country_id":214,"country_code":"CH","latitude":"47.19457000","longitude":"7.14517000"},{"id":"17664","name":"Court","state_id":1645,"state_code":"BE","country_id":214,"country_code":"CH","latitude":"47.23956000","longitude":"7.33655000"},{"id":"17665","name":"Courtelary","state_id":1645,"state_code":"BE","country_id":214,"country_code":"CH","latitude":"47.17822000","longitude":"7.07236000"},{"id":"17708","name":"D\u00e4rligen","state_id":1645,"state_code":"BE","country_id":214,"country_code":"CH","latitude":"46.66175000","longitude":"7.80808000"},{"id":"17716","name":"D\u00fcrrenroth","state_id":1645,"state_code":"BE","country_id":214,"country_code":"CH","latitude":"47.08953000","longitude":"7.79170000"},{"id":"17686","name":"Diemtigen","state_id":1645,"state_code":"BE","country_id":214,"country_code":"CH","latitude":"46.64928000","longitude":"7.56477000"},{"id":"17731","name":"Eggiwil","state_id":1645,"state_code":"BE","country_id":214,"country_code":"CH","latitude":"46.87575000","longitude":"7.79567000"},{"id":"17747","name":"Emmental District","state_id":1645,"state_code":"BE","country_id":214,"country_code":"CH","latitude":"47.04425000","longitude":"7.66176000"},{"id":"17758","name":"Eriswil","state_id":1645,"state_code":"BE","country_id":214,"country_code":"CH","latitude":"47.07816000","longitude":"7.85149000"},{"id":"17759","name":"Erlach","state_id":1645,"state_code":"BE","country_id":214,"country_code":"CH","latitude":"47.04220000","longitude":"7.09728000"},{"id":"17764","name":"Erlenbach im Simmental","state_id":1645,"state_code":"BE","country_id":214,"country_code":"CH","latitude":"46.66021000","longitude":"7.55445000"},{"id":"17767","name":"Ersigen","state_id":1645,"state_code":"BE","country_id":214,"country_code":"CH","latitude":"47.09368000","longitude":"7.59507000"},{"id":"17777","name":"Evilard","state_id":1645,"state_code":"BE","country_id":214,"country_code":"CH","latitude":"47.15046000","longitude":"7.23895000"},{"id":"17784","name":"Ferenbalm","state_id":1645,"state_code":"BE","country_id":214,"country_code":"CH","latitude":"46.94880000","longitude":"7.21124000"},{"id":"17802","name":"Fraubrunnen","state_id":1645,"state_code":"BE","country_id":214,"country_code":"CH","latitude":"47.08620000","longitude":"7.52727000"},{"id":"17805","name":"Frauenkappelen","state_id":1645,"state_code":"BE","country_id":214,"country_code":"CH","latitude":"46.95425000","longitude":"7.33835000"},{"id":"17812","name":"Frutigen","state_id":1645,"state_code":"BE","country_id":214,"country_code":"CH","latitude":"46.58723000","longitude":"7.64945000"},{"id":"17813","name":"Frutigen-Niedersimmental District","state_id":1645,"state_code":"BE","country_id":214,"country_code":"CH","latitude":"46.60236000","longitude":"7.62292000"},{"id":"17870","name":"Grindelwald","state_id":1645,"state_code":"BE","country_id":214,"country_code":"CH","latitude":"46.62396000","longitude":"8.03601000"},{"id":"17874","name":"Grossaffoltern","state_id":1645,"state_code":"BE","country_id":214,"country_code":"CH","latitude":"47.06534000","longitude":"7.35689000"},{"id":"17884","name":"Gstaad","state_id":1645,"state_code":"BE","country_id":214,"country_code":"CH","latitude":"46.47215000","longitude":"7.28685000"},{"id":"17885","name":"Guggisberg","state_id":1645,"state_code":"BE","country_id":214,"country_code":"CH","latitude":"46.76756000","longitude":"7.32946000"},{"id":"17902","name":"Heimberg","state_id":1645,"state_code":"BE","country_id":214,"country_code":"CH","latitude":"46.79482000","longitude":"7.60433000"},{"id":"17903","name":"Heimiswil","state_id":1645,"state_code":"BE","country_id":214,"country_code":"CH","latitude":"47.06755000","longitude":"7.66665000"},{"id":"17908","name":"Hermiswil","state_id":1645,"state_code":"BE","country_id":214,"country_code":"CH","latitude":"46.83125000","longitude":"7.47775000"},{"id":"17910","name":"Herzogenbuchsee","state_id":1645,"state_code":"BE","country_id":214,"country_code":"CH","latitude":"47.18795000","longitude":"7.70620000"},{"id":"17913","name":"Hilterfingen","state_id":1645,"state_code":"BE","country_id":214,"country_code":"CH","latitude":"46.73521000","longitude":"7.66185000"},{"id":"17915","name":"Hindelbank","state_id":1645,"state_code":"BE","country_id":214,"country_code":"CH","latitude":"47.04270000","longitude":"7.54143000"},{"id":"17936","name":"Huttwil","state_id":1645,"state_code":"BE","country_id":214,"country_code":"CH","latitude":"47.11502000","longitude":"7.86209000"},{"id":"17952","name":"Ins","state_id":1645,"state_code":"BE","country_id":214,"country_code":"CH","latitude":"47.00584000","longitude":"7.10609000"},{"id":"17953","name":"Interlaken","state_id":1645,"state_code":"BE","country_id":214,"country_code":"CH","latitude":"46.68387000","longitude":"7.86638000"},{"id":"17954","name":"Interlaken-Oberhasli District","state_id":1645,"state_code":"BE","country_id":214,"country_code":"CH","latitude":"46.68931000","longitude":"7.98869000"},{"id":"17957","name":"Jegenstorf","state_id":1645,"state_code":"BE","country_id":214,"country_code":"CH","latitude":"47.04802000","longitude":"7.50787000"},{"id":"17963","name":"Jura bernois","state_id":1645,"state_code":"BE","country_id":214,"country_code":"CH","latitude":"47.21892000","longitude":"7.21981000"},{"id":"17968","name":"Kallnach","state_id":1645,"state_code":"BE","country_id":214,"country_code":"CH","latitude":"47.02032000","longitude":"7.23545000"},{"id":"17970","name":"Kandersteg","state_id":1645,"state_code":"BE","country_id":214,"country_code":"CH","latitude":"46.49467000","longitude":"7.67326000"},{"id":"17971","name":"Kappelen","state_id":1645,"state_code":"BE","country_id":214,"country_code":"CH","latitude":"47.06015000","longitude":"7.26860000"},{"id":"18011","name":"K\u00f6niz","state_id":1645,"state_code":"BE","country_id":214,"country_code":"CH","latitude":"46.92436000","longitude":"7.41457000"},{"id":"17972","name":"Kehrsatz","state_id":1645,"state_code":"BE","country_id":214,"country_code":"CH","latitude":"46.91035000","longitude":"7.47096000"},{"id":"17981","name":"Kirchberg","state_id":1645,"state_code":"BE","country_id":214,"country_code":"CH","latitude":"47.08538000","longitude":"7.58288000"},{"id":"17982","name":"Kirchlindach","state_id":1645,"state_code":"BE","country_id":214,"country_code":"CH","latitude":"46.99965000","longitude":"7.41735000"},{"id":"18002","name":"Konolfingen","state_id":1645,"state_code":"BE","country_id":214,"country_code":"CH","latitude":"46.87909000","longitude":"7.62013000"},{"id":"18003","name":"Koppigen","state_id":1645,"state_code":"BE","country_id":214,"country_code":"CH","latitude":"47.13125000","longitude":"7.60525000"},{"id":"18004","name":"Krauchthal","state_id":1645,"state_code":"BE","country_id":214,"country_code":"CH","latitude":"47.00964000","longitude":"7.56640000"},{"id":"18023","name":"La Neuveville","state_id":1645,"state_code":"BE","country_id":214,"country_code":"CH","latitude":"47.06592000","longitude":"7.09717000"},{"id":"18036","name":"Langenthal","state_id":1645,"state_code":"BE","country_id":214,"country_code":"CH","latitude":"47.21526000","longitude":"7.79607000"},{"id":"18037","name":"Langnau","state_id":1645,"state_code":"BE","country_id":214,"country_code":"CH","latitude":"46.93936000","longitude":"7.78738000"},{"id":"18045","name":"Laupen","state_id":1645,"state_code":"BE","country_id":214,"country_code":"CH","latitude":"46.90214000","longitude":"7.23973000"},{"id":"18047","name":"Lauperswil","state_id":1645,"state_code":"BE","country_id":214,"country_code":"CH","latitude":"46.96564000","longitude":"7.74214000"},{"id":"18051","name":"Lauterbrunnen","state_id":1645,"state_code":"BE","country_id":214,"country_code":"CH","latitude":"46.59307000","longitude":"7.90938000"},{"id":"18112","name":"L\u00fctzelfl\u00fch","state_id":1645,"state_code":"BE","country_id":214,"country_code":"CH","latitude":"47.00757000","longitude":"7.69165000"},{"id":"18063","name":"Lengnau","state_id":1645,"state_code":"BE","country_id":214,"country_code":"CH","latitude":"47.18155000","longitude":"7.36814000"},{"id":"18064","name":"Lenk","state_id":1645,"state_code":"BE","country_id":214,"country_code":"CH","latitude":"46.45826000","longitude":"7.44298000"},{"id":"18077","name":"Leuzigen","state_id":1645,"state_code":"BE","country_id":214,"country_code":"CH","latitude":"47.17458000","longitude":"7.45775000"},{"id":"18085","name":"Linden","state_id":1645,"state_code":"BE","country_id":214,"country_code":"CH","latitude":"46.84690000","longitude":"7.67831000"},{"id":"18093","name":"Lotzwil","state_id":1645,"state_code":"BE","country_id":214,"country_code":"CH","latitude":"47.19135000","longitude":"7.79102000"},{"id":"18107","name":"Lyss","state_id":1645,"state_code":"BE","country_id":214,"country_code":"CH","latitude":"47.07410000","longitude":"7.30655000"},{"id":"18108","name":"Lyssach","state_id":1645,"state_code":"BE","country_id":214,"country_code":"CH","latitude":"47.06445000","longitude":"7.58228000"},{"id":"18113","name":"Madiswil","state_id":1645,"state_code":"BE","country_id":214,"country_code":"CH","latitude":"47.16463000","longitude":"7.79858000"},{"id":"18118","name":"Malleray","state_id":1645,"state_code":"BE","country_id":214,"country_code":"CH","latitude":"47.23839000","longitude":"7.27286000"},{"id":"18129","name":"Matten","state_id":1645,"state_code":"BE","country_id":214,"country_code":"CH","latitude":"46.67833000","longitude":"7.86889000"},{"id":"18195","name":"M\u00fchleberg","state_id":1645,"state_code":"BE","country_id":214,"country_code":"CH","latitude":"46.95466000","longitude":"7.26102000"},{"id":"18197","name":"M\u00fchlethurnen","state_id":1645,"state_code":"BE","country_id":214,"country_code":"CH","latitude":"46.81345000","longitude":"7.50881000"},{"id":"18199","name":"M\u00fcnchenbuchsee","state_id":1645,"state_code":"BE","country_id":214,"country_code":"CH","latitude":"47.02175000","longitude":"7.45036000"},{"id":"18201","name":"M\u00fcnchenwiler","state_id":1645,"state_code":"BE","country_id":214,"country_code":"CH","latitude":"46.91334000","longitude":"7.12556000"},{"id":"18204","name":"M\u00fcnsingen","state_id":1645,"state_code":"BE","country_id":214,"country_code":"CH","latitude":"46.87298000","longitude":"7.56100000"},{"id":"18206","name":"M\u00fcntschemier","state_id":1645,"state_code":"BE","country_id":214,"country_code":"CH","latitude":"46.99548000","longitude":"7.14626000"},{"id":"18142","name":"Meinisberg","state_id":1645,"state_code":"BE","country_id":214,"country_code":"CH","latitude":"47.15965000","longitude":"7.34801000"},{"id":"18143","name":"Meiringen","state_id":1645,"state_code":"BE","country_id":214,"country_code":"CH","latitude":"46.72709000","longitude":"8.18720000"},{"id":"18146","name":"Melchnau","state_id":1645,"state_code":"BE","country_id":214,"country_code":"CH","latitude":"47.18213000","longitude":"7.85128000"},{"id":"18175","name":"Moutier","state_id":1645,"state_code":"BE","country_id":214,"country_code":"CH","latitude":"47.27818000","longitude":"7.36951000"},{"id":"18183","name":"Muri","state_id":1645,"state_code":"BE","country_id":214,"country_code":"CH","latitude":"46.93122000","longitude":"7.48658000"},{"id":"18219","name":"Nidau","state_id":1645,"state_code":"BE","country_id":214,"country_code":"CH","latitude":"47.12545000","longitude":"7.24033000"},{"id":"18220","name":"Niederbipp","state_id":1645,"state_code":"BE","country_id":214,"country_code":"CH","latitude":"47.27175000","longitude":"7.69583000"},{"id":"18239","name":"Oberaargau","state_id":1645,"state_code":"BE","country_id":214,"country_code":"CH","latitude":"47.19202000","longitude":"7.74553000"},{"id":"18240","name":"Oberbipp","state_id":1645,"state_code":"BE","country_id":214,"country_code":"CH","latitude":"47.26070000","longitude":"7.66359000"},{"id":"18242","name":"Oberburg","state_id":1645,"state_code":"BE","country_id":214,"country_code":"CH","latitude":"47.03665000","longitude":"7.62745000"},{"id":"18243","name":"Oberdiessbach","state_id":1645,"state_code":"BE","country_id":214,"country_code":"CH","latitude":"46.84117000","longitude":"7.61730000"},{"id":"18267","name":"Obersimmental-Saanen District","state_id":1645,"state_code":"BE","country_id":214,"country_code":"CH","latitude":"46.47932000","longitude":"7.35803000"},{"id":"18289","name":"Orpund","state_id":1645,"state_code":"BE","country_id":214,"country_code":"CH","latitude":"47.13891000","longitude":"7.30775000"},{"id":"18291","name":"Orvin","state_id":1645,"state_code":"BE","country_id":214,"country_code":"CH","latitude":"47.16068000","longitude":"7.21368000"},{"id":"18332","name":"P\u00e9ry","state_id":1645,"state_code":"BE","country_id":214,"country_code":"CH","latitude":"47.19398000","longitude":"7.24913000"},{"id":"18314","name":"Pieterlen","state_id":1645,"state_code":"BE","country_id":214,"country_code":"CH","latitude":"47.17501000","longitude":"7.33791000"},{"id":"18334","name":"Radelfingen","state_id":1645,"state_code":"BE","country_id":214,"country_code":"CH","latitude":"47.02146000","longitude":"7.27178000"},{"id":"18404","name":"R\u00fcderswil","state_id":1645,"state_code":"BE","country_id":214,"country_code":"CH","latitude":"46.98374000","longitude":"7.72167000"},{"id":"18405","name":"R\u00fceggisberg","state_id":1645,"state_code":"BE","country_id":214,"country_code":"CH","latitude":"46.82216000","longitude":"7.43890000"},{"id":"18408","name":"R\u00fcschegg","state_id":1645,"state_code":"BE","country_id":214,"country_code":"CH","latitude":"46.77977000","longitude":"7.39167000"},{"id":"18343","name":"Reconvilier","state_id":1645,"state_code":"BE","country_id":214,"country_code":"CH","latitude":"47.23431000","longitude":"7.22239000"},{"id":"18376","name":"Riggisberg","state_id":1645,"state_code":"BE","country_id":214,"country_code":"CH","latitude":"46.81028000","longitude":"7.48014000"},{"id":"18377","name":"Ringgenberg","state_id":1645,"state_code":"BE","country_id":214,"country_code":"CH","latitude":"46.70114000","longitude":"7.89445000"},{"id":"18382","name":"Roggwil","state_id":1645,"state_code":"BE","country_id":214,"country_code":"CH","latitude":"47.24119000","longitude":"7.82141000"},{"id":"18385","name":"Rohrbach","state_id":1645,"state_code":"BE","country_id":214,"country_code":"CH","latitude":"47.13521000","longitude":"7.81334000"},{"id":"18396","name":"Rubigen","state_id":1645,"state_code":"BE","country_id":214,"country_code":"CH","latitude":"46.89868000","longitude":"7.54460000"},{"id":"18415","name":"Saanen","state_id":1645,"state_code":"BE","country_id":214,"country_code":"CH","latitude":"46.48945000","longitude":"7.26003000"},{"id":"18425","name":"Saint-Imier","state_id":1645,"state_code":"BE","country_id":214,"country_code":"CH","latitude":"47.15284000","longitude":"6.99692000"},{"id":"18443","name":"Sankt Stephan","state_id":1645,"state_code":"BE","country_id":214,"country_code":"CH","latitude":"46.50827000","longitude":"7.39559000"},{"id":"18488","name":"Sch\u00fcpfen","state_id":1645,"state_code":"BE","country_id":214,"country_code":"CH","latitude":"47.03661000","longitude":"7.37723000"},{"id":"18491","name":"Seeberg","state_id":1645,"state_code":"BE","country_id":214,"country_code":"CH","latitude":"47.15585000","longitude":"7.66567000"},{"id":"18493","name":"Seedorf","state_id":1645,"state_code":"BE","country_id":214,"country_code":"CH","latitude":"47.03445000","longitude":"7.31249000"},{"id":"18494","name":"Seeland District","state_id":1645,"state_code":"BE","country_id":214,"country_code":"CH","latitude":"47.06635000","longitude":"7.26333000"},{"id":"18502","name":"Seftigen","state_id":1645,"state_code":"BE","country_id":214,"country_code":"CH","latitude":"46.78765000","longitude":"7.53937000"},{"id":"18519","name":"Signau","state_id":1645,"state_code":"BE","country_id":214,"country_code":"CH","latitude":"46.91944000","longitude":"7.72418000"},{"id":"18520","name":"Sigriswil","state_id":1645,"state_code":"BE","country_id":214,"country_code":"CH","latitude":"46.71656000","longitude":"7.71335000"},{"id":"18533","name":"Spiez","state_id":1645,"state_code":"BE","country_id":214,"country_code":"CH","latitude":"46.68473000","longitude":"7.69111000"},{"id":"18550","name":"Steffisburg","state_id":1645,"state_code":"BE","country_id":214,"country_code":"CH","latitude":"46.77807000","longitude":"7.63249000"},{"id":"18558","name":"Stettlen","state_id":1645,"state_code":"BE","country_id":214,"country_code":"CH","latitude":"46.95835000","longitude":"7.52508000"},{"id":"18566","name":"Sumiswald","state_id":1645,"state_code":"BE","country_id":214,"country_code":"CH","latitude":"47.02747000","longitude":"7.74526000"},{"id":"18576","name":"Tavannes","state_id":1645,"state_code":"BE","country_id":214,"country_code":"CH","latitude":"47.22079000","longitude":"7.19759000"},{"id":"18617","name":"T\u00e4uffelen","state_id":1645,"state_code":"BE","country_id":214,"country_code":"CH","latitude":"47.06630000","longitude":"7.19883000"},{"id":"18590","name":"Thierachern","state_id":1645,"state_code":"BE","country_id":214,"country_code":"CH","latitude":"46.75319000","longitude":"7.57442000"},{"id":"18591","name":"Thun","state_id":1645,"state_code":"BE","country_id":214,"country_code":"CH","latitude":"46.75118000","longitude":"7.62166000"},{"id":"18592","name":"Thun District","state_id":1645,"state_code":"BE","country_id":214,"country_code":"CH","latitude":"46.76290000","longitude":"7.62503000"},{"id":"18597","name":"Toffen","state_id":1645,"state_code":"BE","country_id":214,"country_code":"CH","latitude":"46.86031000","longitude":"7.49216000"},{"id":"18598","name":"Trachselwald","state_id":1645,"state_code":"BE","country_id":214,"country_code":"CH","latitude":"47.01699000","longitude":"7.73639000"},{"id":"18599","name":"Tramelan","state_id":1645,"state_code":"BE","country_id":214,"country_code":"CH","latitude":"47.22298000","longitude":"7.10287000"},{"id":"18608","name":"Trub","state_id":1645,"state_code":"BE","country_id":214,"country_code":"CH","latitude":"46.94168000","longitude":"7.87996000"},{"id":"18609","name":"Trubschachen","state_id":1645,"state_code":"BE","country_id":214,"country_code":"CH","latitude":"46.92228000","longitude":"7.84520000"},{"id":"18626","name":"Uetendorf","state_id":1645,"state_code":"BE","country_id":214,"country_code":"CH","latitude":"46.77392000","longitude":"7.57251000"},{"id":"18635","name":"Unterseen","state_id":1645,"state_code":"BE","country_id":214,"country_code":"CH","latitude":"46.68530000","longitude":"7.84722000"},{"id":"18644","name":"Urtenen","state_id":1645,"state_code":"BE","country_id":214,"country_code":"CH","latitude":"47.02667000","longitude":"7.50081000"},{"id":"18651","name":"Uttigen","state_id":1645,"state_code":"BE","country_id":214,"country_code":"CH","latitude":"46.79435000","longitude":"7.57789000"},{"id":"18653","name":"Utzenstorf","state_id":1645,"state_code":"BE","country_id":214,"country_code":"CH","latitude":"47.13248000","longitude":"7.55355000"},{"id":"18663","name":"Vechigen","state_id":1645,"state_code":"BE","country_id":214,"country_code":"CH","latitude":"46.94616000","longitude":"7.56065000"},{"id":"18714","name":"Walkringen","state_id":1645,"state_code":"BE","country_id":214,"country_code":"CH","latitude":"46.94856000","longitude":"7.62040000"},{"id":"18723","name":"Wangen an der Aare","state_id":1645,"state_code":"BE","country_id":214,"country_code":"CH","latitude":"47.23208000","longitude":"7.65253000"},{"id":"18724","name":"Wattenwil","state_id":1645,"state_code":"BE","country_id":214,"country_code":"CH","latitude":"46.76973000","longitude":"7.50835000"},{"id":"18744","name":"Wichtrach","state_id":1645,"state_code":"BE","country_id":214,"country_code":"CH","latitude":"46.85010000","longitude":"7.57748000"},{"id":"18745","name":"Wiedlisbach","state_id":1645,"state_code":"BE","country_id":214,"country_code":"CH","latitude":"47.25194000","longitude":"7.64610000"},{"id":"18752","name":"Wilderswil","state_id":1645,"state_code":"BE","country_id":214,"country_code":"CH","latitude":"46.66369000","longitude":"7.86175000"},{"id":"18756","name":"Wimmis","state_id":1645,"state_code":"BE","country_id":214,"country_code":"CH","latitude":"46.67587000","longitude":"7.63972000"},{"id":"18762","name":"Wohlen","state_id":1645,"state_code":"BE","country_id":214,"country_code":"CH","latitude":"46.97118000","longitude":"7.35685000"},{"id":"18768","name":"Worb","state_id":1645,"state_code":"BE","country_id":214,"country_code":"CH","latitude":"46.92984000","longitude":"7.56306000"},{"id":"18769","name":"Worben","state_id":1645,"state_code":"BE","country_id":214,"country_code":"CH","latitude":"47.10279000","longitude":"7.29518000"},{"id":"18770","name":"Wynau","state_id":1645,"state_code":"BE","country_id":214,"country_code":"CH","latitude":"47.25570000","longitude":"7.81626000"},{"id":"18771","name":"Wynigen","state_id":1645,"state_code":"BE","country_id":214,"country_code":"CH","latitude":"47.10586000","longitude":"7.66681000"},{"id":"18772","name":"Wyssachen","state_id":1645,"state_code":"BE","country_id":214,"country_code":"CH","latitude":"47.07851000","longitude":"7.82922000"},{"id":"18808","name":"Z\u00e4ziwil","state_id":1645,"state_code":"BE","country_id":214,"country_code":"CH","latitude":"46.90196000","longitude":"7.66185000"},{"id":"18798","name":"Zollikofen","state_id":1645,"state_code":"BE","country_id":214,"country_code":"CH","latitude":"46.99905000","longitude":"7.45809000"},{"id":"18806","name":"Zweisimmen","state_id":1645,"state_code":"BE","country_id":214,"country_code":"CH","latitude":"46.55539000","longitude":"7.37302000"},{"id":"17428","name":"Baar","state_id":1646,"state_code":"ZG","country_id":214,"country_code":"CH","latitude":"47.19625000","longitude":"8.52954000"},{"id":"17622","name":"Cham","state_id":1646,"state_code":"ZG","country_id":214,"country_code":"CH","latitude":"47.18213000","longitude":"8.46358000"},{"id":"17944","name":"H\u00fcnenberg","state_id":1646,"state_code":"ZG","country_id":214,"country_code":"CH","latitude":"47.17536000","longitude":"8.42497000"},{"id":"18152","name":"Menzingen","state_id":1646,"state_code":"ZG","country_id":214,"country_code":"CH","latitude":"47.17764000","longitude":"8.59215000"},{"id":"18395","name":"Rotkreuz","state_id":1646,"state_code":"ZG","country_id":214,"country_code":"CH","latitude":"47.14283000","longitude":"8.43140000"},{"id":"18554","name":"Steinhausen","state_id":1646,"state_code":"ZG","country_id":214,"country_code":"CH","latitude":"47.19510000","longitude":"8.48581000"},{"id":"18638","name":"Unter\u00e4geri","state_id":1646,"state_code":"ZG","country_id":214,"country_code":"CH","latitude":"47.13645000","longitude":"8.58530000"},{"id":"18708","name":"Walchwil","state_id":1646,"state_code":"ZG","country_id":214,"country_code":"CH","latitude":"47.10169000","longitude":"8.51693000"},{"id":"18801","name":"Zug","state_id":1646,"state_code":"ZG","country_id":214,"country_code":"CH","latitude":"47.17242000","longitude":"8.51745000"},{"id":"17383","name":"Aire-la-Ville","state_id":1647,"state_code":"GE","country_id":214,"country_code":"CH","latitude":"46.19057000","longitude":"6.04287000"},{"id":"17399","name":"Ani\u00e8res","state_id":1647,"state_code":"GE","country_id":214,"country_code":"CH","latitude":"46.27673000","longitude":"6.22204000"},{"id":"17451","name":"Bellevue","state_id":1647,"state_code":"GE","country_id":214,"country_code":"CH","latitude":"46.25739000","longitude":"6.15475000"},{"id":"17464","name":"Bernex","state_id":1647,"state_code":"GE","country_id":214,"country_code":"CH","latitude":"46.17650000","longitude":"6.07544000"},{"id":"17612","name":"Carouge","state_id":1647,"state_code":"GE","country_id":214,"country_code":"CH","latitude":"46.18096000","longitude":"6.13921000"},{"id":"17625","name":"Chancy","state_id":1647,"state_code":"GE","country_id":214,"country_code":"CH","latitude":"46.15003000","longitude":"5.97153000"},{"id":"17643","name":"Ch\u00eane-Bougeries","state_id":1647,"state_code":"GE","country_id":214,"country_code":"CH","latitude":"46.19843000","longitude":"6.18642000"},{"id":"17644","name":"Ch\u00eane-Bourg","state_id":1647,"state_code":"GE","country_id":214,"country_code":"CH","latitude":"46.19534000","longitude":"6.19406000"},{"id":"17649","name":"Confignon","state_id":1647,"state_code":"GE","country_id":214,"country_code":"CH","latitude":"46.17341000","longitude":"6.08437000"},{"id":"17656","name":"Corsier","state_id":1647,"state_code":"GE","country_id":214,"country_code":"CH","latitude":"46.26297000","longitude":"6.22461000"},{"id":"17676","name":"Dardagny","state_id":1647,"state_code":"GE","country_id":214,"country_code":"CH","latitude":"46.19564000","longitude":"5.99497000"},{"id":"17827","name":"Gen\u00e8ve","state_id":1647,"state_code":"GE","country_id":214,"country_code":"CH","latitude":"46.20222000","longitude":"6.14569000"},{"id":"17965","name":"Jussy","state_id":1647,"state_code":"GE","country_id":214,"country_code":"CH","latitude":"46.23590000","longitude":"6.26701000"},{"id":"18032","name":"Lancy","state_id":1647,"state_code":"GE","country_id":214,"country_code":"CH","latitude":"46.18981000","longitude":"6.11441000"},{"id":"18055","name":"Le Grand-Saconnex","state_id":1647,"state_code":"GE","country_id":214,"country_code":"CH","latitude":"46.23188000","longitude":"6.12091000"},{"id":"18068","name":"Les Avanchets","state_id":1647,"state_code":"GE","country_id":214,"country_code":"CH","latitude":"46.22168000","longitude":"6.10814000"},{"id":"18141","name":"Meinier","state_id":1647,"state_code":"GE","country_id":214,"country_code":"CH","latitude":"46.24706000","longitude":"6.23423000"},{"id":"18158","name":"Meyrin","state_id":1647,"state_code":"GE","country_id":214,"country_code":"CH","latitude":"46.23424000","longitude":"6.08025000"},{"id":"18284","name":"Onex","state_id":1647,"state_code":"GE","country_id":214,"country_code":"CH","latitude":"46.18396000","longitude":"6.10237000"},{"id":"18316","name":"Plan-les-Ouates","state_id":1647,"state_code":"GE","country_id":214,"country_code":"CH","latitude":"46.16789000","longitude":"6.11664000"},{"id":"18330","name":"Puplinge","state_id":1647,"state_code":"GE","country_id":214,"country_code":"CH","latitude":"46.21043000","longitude":"6.23114000"},{"id":"18448","name":"Satigny","state_id":1647,"state_code":"GE","country_id":214,"country_code":"CH","latitude":"46.21462000","longitude":"6.03553000"},{"id":"18595","name":"Th\u00f4nex","state_id":1647,"state_code":"GE","country_id":214,"country_code":"CH","latitude":"46.18815000","longitude":"6.19904000"},{"id":"18606","name":"Troinex","state_id":1647,"state_code":"GE","country_id":214,"country_code":"CH","latitude":"46.16313000","longitude":"6.14745000"},{"id":"18661","name":"Vand\u0153uvres","state_id":1647,"state_code":"GE","country_id":214,"country_code":"CH","latitude":"46.22179000","longitude":"6.20285000"},{"id":"18670","name":"Vernier","state_id":1647,"state_code":"GE","country_id":214,"country_code":"CH","latitude":"46.21702000","longitude":"6.08497000"},{"id":"18672","name":"Versoix","state_id":1647,"state_code":"GE","country_id":214,"country_code":"CH","latitude":"46.28382000","longitude":"6.16214000"},{"id":"18676","name":"Veyrier","state_id":1647,"state_code":"GE","country_id":214,"country_code":"CH","latitude":"46.16699000","longitude":"6.18436000"},{"id":"17405","name":"Ardon","state_id":1648,"state_code":"VS","country_id":214,"country_code":"CH","latitude":"46.20951000","longitude":"7.26012000"},{"id":"17427","name":"Ayent","state_id":1648,"state_code":"VS","country_id":214,"country_code":"CH","latitude":"46.28249000","longitude":"7.41028000"},{"id":"17433","name":"Bagnes","state_id":1648,"state_code":"VS","country_id":214,"country_code":"CH","latitude":"46.08333000","longitude":"7.21667000"},{"id":"17439","name":"Baltschieder","state_id":1648,"state_code":"VS","country_id":214,"country_code":"CH","latitude":"46.30888000","longitude":"7.86570000"},{"id":"17441","name":"Basse-Nendaz","state_id":1648,"state_code":"VS","country_id":214,"country_code":"CH","latitude":"46.18993000","longitude":"7.31209000"},{"id":"17561","name":"Brig","state_id":1648,"state_code":"VS","country_id":214,"country_code":"CH","latitude":"46.31667000","longitude":"7.98333000"},{"id":"17562","name":"Brig District","state_id":1648,"state_code":"VS","country_id":214,"country_code":"CH","latitude":"46.28255000","longitude":"8.01185000"},{"id":"17621","name":"Chalais","state_id":1648,"state_code":"VS","country_id":214,"country_code":"CH","latitude":"46.26758000","longitude":"7.51145000"},{"id":"17623","name":"Chamoson","state_id":1648,"state_code":"VS","country_id":214,"country_code":"CH","latitude":"46.20275000","longitude":"7.22319000"},{"id":"17624","name":"Champ\u00e9ry","state_id":1648,"state_code":"VS","country_id":214,"country_code":"CH","latitude":"46.17543000","longitude":"6.86903000"},{"id":"17628","name":"Charrat","state_id":1648,"state_code":"VS","country_id":214,"country_code":"CH","latitude":"46.12490000","longitude":"7.13138000"},{"id":"17632","name":"Chermignon-d\u2019en Haut","state_id":1648,"state_code":"VS","country_id":214,"country_code":"CH","latitude":"46.28844000","longitude":"7.47487000"},{"id":"17637","name":"Chippis","state_id":1648,"state_code":"VS","country_id":214,"country_code":"CH","latitude":"46.28020000","longitude":"7.53962000"},{"id":"17646","name":"Collombey","state_id":1648,"state_code":"VS","country_id":214,"country_code":"CH","latitude":"46.27385000","longitude":"6.94789000"},{"id":"17650","name":"Conthey","state_id":1648,"state_code":"VS","country_id":214,"country_code":"CH","latitude":"46.22370000","longitude":"7.30283000"},{"id":"17651","name":"Conthey District","state_id":1648,"state_code":"VS","country_id":214,"country_code":"CH","latitude":"46.20485000","longitude":"7.27857000"},{"id":"17755","name":"Entremont District","state_id":1648,"state_code":"VS","country_id":214,"country_code":"CH","latitude":"46.02099000","longitude":"7.21260000"},{"id":"17778","name":"Evionnaz","state_id":1648,"state_code":"VS","country_id":214,"country_code":"CH","latitude":"46.18096000","longitude":"7.02232000"},{"id":"17779","name":"Evol\u00e8ne","state_id":1648,"state_code":"VS","country_id":214,"country_code":"CH","latitude":"46.11422000","longitude":"7.49407000"},{"id":"17788","name":"Fiesch","state_id":1648,"state_code":"VS","country_id":214,"country_code":"CH","latitude":"46.39981000","longitude":"8.13533000"},{"id":"17815","name":"Fully","state_id":1648,"state_code":"VS","country_id":214,"country_code":"CH","latitude":"46.13851000","longitude":"7.11468000"},{"id":"17820","name":"Gampel","state_id":1648,"state_code":"VS","country_id":214,"country_code":"CH","latitude":"46.31599000","longitude":"7.74210000"},{"id":"17851","name":"Goms District","state_id":1648,"state_code":"VS","country_id":214,"country_code":"CH","latitude":"46.46161000","longitude":"8.22190000"},{"id":"17879","name":"Gr\u00e4chen","state_id":1648,"state_code":"VS","country_id":214,"country_code":"CH","latitude":"46.19529000","longitude":"7.83745000"},{"id":"17881","name":"Gr\u00f4ne","state_id":1648,"state_code":"VS","country_id":214,"country_code":"CH","latitude":"46.25288000","longitude":"7.45947000"},{"id":"17869","name":"Grimisuat","state_id":1648,"state_code":"VS","country_id":214,"country_code":"CH","latitude":"46.25938000","longitude":"7.38408000"},{"id":"17941","name":"H\u00e9r\u00e9mence","state_id":1648,"state_code":"VS","country_id":214,"country_code":"CH","latitude":"46.18032000","longitude":"7.40477000"},{"id":"17940","name":"H\u00e9rens District","state_id":1648,"state_code":"VS","country_id":214,"country_code":"CH","latitude":"46.19407000","longitude":"7.42391000"},{"id":"18065","name":"Lens","state_id":1648,"state_code":"VS","country_id":214,"country_code":"CH","latitude":"46.28298000","longitude":"7.44976000"},{"id":"18074","name":"Leuk","state_id":1648,"state_code":"VS","country_id":214,"country_code":"CH","latitude":"46.31736000","longitude":"7.63412000"},{"id":"18075","name":"Leuk District","state_id":1648,"state_code":"VS","country_id":214,"country_code":"CH","latitude":"46.31439000","longitude":"7.67291000"},{"id":"18076","name":"Leukerbad","state_id":1648,"state_code":"VS","country_id":214,"country_code":"CH","latitude":"46.37943000","longitude":"7.62687000"},{"id":"18080","name":"Leytron","state_id":1648,"state_code":"VS","country_id":214,"country_code":"CH","latitude":"46.18660000","longitude":"7.20780000"},{"id":"18125","name":"Martigny District","state_id":1648,"state_code":"VS","country_id":214,"country_code":"CH","latitude":"46.12386000","longitude":"7.10354000"},{"id":"18126","name":"Martigny-Combe","state_id":1648,"state_code":"VS","country_id":214,"country_code":"CH","latitude":"46.07817000","longitude":"7.05099000"},{"id":"18127","name":"Martigny-Ville","state_id":1648,"state_code":"VS","country_id":214,"country_code":"CH","latitude":"46.10276000","longitude":"7.07245000"},{"id":"18165","name":"Montana","state_id":1648,"state_code":"VS","country_id":214,"country_code":"CH","latitude":"46.31338000","longitude":"7.48839000"},{"id":"18167","name":"Monthey","state_id":1648,"state_code":"VS","country_id":214,"country_code":"CH","latitude":"46.25451000","longitude":"6.95406000"},{"id":"18168","name":"Monthey District","state_id":1648,"state_code":"VS","country_id":214,"country_code":"CH","latitude":"46.27043000","longitude":"6.90274000"},{"id":"18207","name":"Naters","state_id":1648,"state_code":"VS","country_id":214,"country_code":"CH","latitude":"46.32536000","longitude":"7.98912000"},{"id":"18290","name":"Orsi\u00e8res","state_id":1648,"state_code":"VS","country_id":214,"country_code":"CH","latitude":"46.02903000","longitude":"7.14437000"},{"id":"18337","name":"Randogne","state_id":1648,"state_code":"VS","country_id":214,"country_code":"CH","latitude":"46.30952000","longitude":"7.50058000"},{"id":"18339","name":"Raron","state_id":1648,"state_code":"VS","country_id":214,"country_code":"CH","latitude":"46.31196000","longitude":"7.80029000"},{"id":"18340","name":"Raron District","state_id":1648,"state_code":"VS","country_id":214,"country_code":"CH","latitude":"46.30000000","longitude":"7.80000000"},{"id":"18374","name":"Riddes","state_id":1648,"state_code":"VS","country_id":214,"country_code":"CH","latitude":"46.17276000","longitude":"7.22360000"},{"id":"18416","name":"Saas-Fee","state_id":1648,"state_code":"VS","country_id":214,"country_code":"CH","latitude":"46.10805000","longitude":"7.92741000"},{"id":"18417","name":"Saas-Grund","state_id":1648,"state_code":"VS","country_id":214,"country_code":"CH","latitude":"46.12281000","longitude":"7.93651000"},{"id":"18421","name":"Saillon","state_id":1648,"state_code":"VS","country_id":214,"country_code":"CH","latitude":"46.17035000","longitude":"7.18771000"},{"id":"18427","name":"Saint-L\u00e9onard","state_id":1648,"state_code":"VS","country_id":214,"country_code":"CH","latitude":"46.25152000","longitude":"7.41714000"},{"id":"18428","name":"Saint-Maurice","state_id":1648,"state_code":"VS","country_id":214,"country_code":"CH","latitude":"46.21826000","longitude":"7.00320000"},{"id":"18429","name":"Saint-Maurice District","state_id":1648,"state_code":"VS","country_id":214,"country_code":"CH","latitude":"46.15384000","longitude":"6.99823000"},{"id":"18432","name":"Salgesch","state_id":1648,"state_code":"VS","country_id":214,"country_code":"CH","latitude":"46.31155000","longitude":"7.57120000"},{"id":"18434","name":"Salvan","state_id":1648,"state_code":"VS","country_id":214,"country_code":"CH","latitude":"46.11890000","longitude":"7.02078000"},{"id":"18441","name":"Sankt Niklaus","state_id":1648,"state_code":"VS","country_id":214,"country_code":"CH","latitude":"46.17717000","longitude":"7.80349000"},{"id":"18452","name":"Savi\u00e8se","state_id":1648,"state_code":"VS","country_id":214,"country_code":"CH","latitude":"46.25115000","longitude":"7.34558000"},{"id":"18453","name":"Saxon","state_id":1648,"state_code":"VS","country_id":214,"country_code":"CH","latitude":"46.14937000","longitude":"7.17514000"},{"id":"18517","name":"Sierre","state_id":1648,"state_code":"VS","country_id":214,"country_code":"CH","latitude":"46.29192000","longitude":"7.53559000"},{"id":"18518","name":"Sierre District","state_id":1648,"state_code":"VS","country_id":214,"country_code":"CH","latitude":"46.27052000","longitude":"7.51570000"},{"id":"18524","name":"Sion District","state_id":1648,"state_code":"VS","country_id":214,"country_code":"CH","latitude":"46.23343000","longitude":"7.34939000"},{"id":"18527","name":"Sitten","state_id":1648,"state_code":"VS","country_id":214,"country_code":"CH","latitude":"46.22739000","longitude":"7.35559000"},{"id":"18545","name":"Stalden","state_id":1648,"state_code":"VS","country_id":214,"country_code":"CH","latitude":"46.23341000","longitude":"7.87273000"},{"id":"18573","name":"Tanay","state_id":1648,"state_code":"VS","country_id":214,"country_code":"CH","latitude":"46.34503000","longitude":"6.83041000"},{"id":"18607","name":"Troistorrents","state_id":1648,"state_code":"VS","country_id":214,"country_code":"CH","latitude":"46.22890000","longitude":"6.91589000"},{"id":"18615","name":"Turtmann","state_id":1648,"state_code":"VS","country_id":214,"country_code":"CH","latitude":"46.30028000","longitude":"7.70200000"},{"id":"18662","name":"Varen","state_id":1648,"state_code":"VS","country_id":214,"country_code":"CH","latitude":"46.31860000","longitude":"7.60743000"},{"id":"18697","name":"V\u00e9troz","state_id":1648,"state_code":"VS","country_id":214,"country_code":"CH","latitude":"46.22171000","longitude":"7.27858000"},{"id":"18668","name":"Verbier","state_id":1648,"state_code":"VS","country_id":214,"country_code":"CH","latitude":"46.10020000","longitude":"7.22651000"},{"id":"18669","name":"Vernayaz","state_id":1648,"state_code":"VS","country_id":214,"country_code":"CH","latitude":"46.13667000","longitude":"7.03906000"},