[{"id":"9259","name":"Asenovgrad","state_id":4701,"state_code":"16","country_id":34,"country_code":"BG","latitude":"42.01667000","longitude":"24.86667000"},{"id":"9289","name":"Brezovo","state_id":4701,"state_code":"16","country_id":34,"country_code":"BG","latitude":"42.35000000","longitude":"25.08333000"},{"id":"9345","name":"Hisarya","state_id":4701,"state_code":"16","country_id":34,"country_code":"BG","latitude":"42.50000000","longitude":"24.70000000"},{"id":"9351","name":"Kalofer","state_id":4701,"state_code":"16","country_id":34,"country_code":"BG","latitude":"42.61667000","longitude":"24.98333000"},{"id":"9352","name":"Kaloyanovo","state_id":4701,"state_code":"16","country_id":34,"country_code":"BG","latitude":"42.35000000","longitude":"24.73333000"},{"id":"9355","name":"Karlovo","state_id":4701,"state_code":"16","country_id":34,"country_code":"BG","latitude":"42.63333000","longitude":"24.80000000"},{"id":"9365","name":"Klisura","state_id":4701,"state_code":"16","country_id":34,"country_code":"BG","latitude":"42.70000000","longitude":"24.45000000"},{"id":"9375","name":"Krichim","state_id":4701,"state_code":"16","country_id":34,"country_code":"BG","latitude":"42.05000000","longitude":"24.46667000"},{"id":"9383","name":"Laki","state_id":4701,"state_code":"16","country_id":34,"country_code":"BG","latitude":"41.85000000","longitude":"24.81667000"},{"id":"9417","name":"Obshtina Asenovgrad","state_id":4701,"state_code":"16","country_id":34,"country_code":"BG","latitude":"41.95000000","longitude":"24.96667000"},{"id":"9489","name":"Obshtina Hisarya","state_id":4701,"state_code":"16","country_id":34,"country_code":"BG","latitude":"42.50000000","longitude":"24.60000000"},{"id":"9494","name":"Obshtina Kaloyanovo","state_id":4701,"state_code":"16","country_id":34,"country_code":"BG","latitude":"42.38333000","longitude":"24.81667000"},{"id":"9497","name":"Obshtina Karlovo","state_id":4701,"state_code":"16","country_id":34,"country_code":"BG","latitude":"42.68333000","longitude":"24.66667000"},{"id":"9512","name":"Obshtina Krichim","state_id":4701,"state_code":"16","country_id":34,"country_code":"BG","latitude":"42.00439000","longitude":"24.47235000"},{"id":"9516","name":"Obshtina Kuklen","state_id":4701,"state_code":"16","country_id":34,"country_code":"BG","latitude":"42.03725000","longitude":"24.77949000"},{"id":"9519","name":"Obshtina Laki","state_id":4701,"state_code":"16","country_id":34,"country_code":"BG","latitude":"41.81667000","longitude":"24.85000000"},{"id":"9530","name":"Obshtina Maritsa","state_id":4701,"state_code":"16","country_id":34,"country_code":"BG","latitude":"42.23333000","longitude":"24.80000000"},{"id":"9548","name":"Obshtina Parvomay","state_id":4701,"state_code":"16","country_id":34,"country_code":"BG","latitude":"42.03333000","longitude":"25.20000000"},{"id":"9553","name":"Obshtina Perushtitsa","state_id":4701,"state_code":"16","country_id":34,"country_code":"BG","latitude":"42.06667000","longitude":"24.55000000"},{"id":"9558","name":"Obshtina Plovdiv","state_id":4701,"state_code":"16","country_id":34,"country_code":"BG","latitude":"42.15000000","longitude":"24.75000000"},{"id":"9569","name":"Obshtina Rakovski","state_id":4701,"state_code":"16","country_id":34,"country_code":"BG","latitude":"42.26667000","longitude":"24.98333000"},{"id":"9573","name":"Obshtina Rodopi","state_id":4701,"state_code":"16","country_id":34,"country_code":"BG","latitude":"42.03333000","longitude":"24.68333000"},{"id":"9578","name":"Obshtina Sadovo","state_id":4701,"state_code":"16","country_id":34,"country_code":"BG","latitude":"42.13333000","longitude":"25.00000000"},{"id":"9579","name":"Obshtina Saedinenie","state_id":4701,"state_code":"16","country_id":34,"country_code":"BG","latitude":"42.31667000","longitude":"24.58333000"},{"id":"9595","name":"Obshtina Sopot","state_id":4701,"state_code":"16","country_id":34,"country_code":"BG","latitude":"42.65214000","longitude":"24.74310000"},{"id":"9597","name":"Obshtina Stamboliyski","state_id":4701,"state_code":"16","country_id":34,"country_code":"BG","latitude":"42.11667000","longitude":"24.51667000"},{"id":"9645","name":"Parvomay","state_id":4701,"state_code":"16","country_id":34,"country_code":"BG","latitude":"42.10000000","longitude":"25.21667000"},{"id":"9651","name":"Perushtitsa","state_id":4701,"state_code":"16","country_id":34,"country_code":"BG","latitude":"42.05000000","longitude":"24.55000000"},{"id":"9656","name":"Plovdiv","state_id":4701,"state_code":"16","country_id":34,"country_code":"BG","latitude":"42.15000000","longitude":"24.75000000"},{"id":"9667","name":"Rakovski","state_id":4701,"state_code":"16","country_id":34,"country_code":"BG","latitude":"42.27408000","longitude":"24.94083000"},{"id":"9677","name":"Sadovo","state_id":4701,"state_code":"16","country_id":34,"country_code":"BG","latitude":"42.13178000","longitude":"24.93999000"},{"id":"9678","name":"Saedinenie","state_id":4701,"state_code":"16","country_id":34,"country_code":"BG","latitude":"42.26667000","longitude":"24.55000000"},{"id":"9704","name":"Stamboliyski","state_id":4701,"state_code":"16","country_id":34,"country_code":"BG","latitude":"42.13333000","longitude":"24.53333000"},{"id":"9723","name":"Topolovo","state_id":4701,"state_code":"16","country_id":34,"country_code":"BG","latitude":"41.90000000","longitude":"25.00000000"}]