[{"id":"9269","name":"Belene","state_id":4706,"state_code":"15","country_id":34,"country_code":"BG","latitude":"43.64594000","longitude":"25.12627000"},{"id":"9300","name":"Cherven Bryag","state_id":4706,"state_code":"15","country_id":34,"country_code":"BG","latitude":"43.26667000","longitude":"24.10000000"},{"id":"9312","name":"Dolna Mitropolia","state_id":4706,"state_code":"15","country_id":34,"country_code":"BG","latitude":"43.46667000","longitude":"24.53333000"},{"id":"9314","name":"Dolni Dabnik","state_id":4706,"state_code":"15","country_id":34,"country_code":"BG","latitude":"43.40000000","longitude":"24.43333000"},{"id":"9337","name":"Gulyantsi","state_id":4706,"state_code":"15","country_id":34,"country_code":"BG","latitude":"43.64109000","longitude":"24.69368000"},{"id":"9347","name":"Iskar","state_id":4706,"state_code":"15","country_id":34,"country_code":"BG","latitude":"43.45000000","longitude":"24.26667000"},{"id":"9366","name":"Knezha","state_id":4706,"state_code":"15","country_id":34,"country_code":"BG","latitude":"43.50000000","longitude":"24.08333000"},{"id":"9372","name":"Koynare","state_id":4706,"state_code":"15","country_id":34,"country_code":"BG","latitude":"43.35000000","longitude":"24.13333000"},{"id":"9386","name":"Levski","state_id":4706,"state_code":"15","country_id":34,"country_code":"BG","latitude":"43.36667000","longitude":"25.13333000"},{"id":"9409","name":"Nikopol","state_id":4706,"state_code":"15","country_id":34,"country_code":"BG","latitude":"43.70528000","longitude":"24.89521000"},{"id":"9424","name":"Obshtina Belene","state_id":4706,"state_code":"15","country_id":34,"country_code":"BG","latitude":"43.63333000","longitude":"25.13333000"},{"id":"9449","name":"Obshtina Cherven Bryag","state_id":4706,"state_code":"15","country_id":34,"country_code":"BG","latitude":"43.33333000","longitude":"24.13333000"},{"id":"9460","name":"Obshtina Dolna Mitropolia","state_id":4706,"state_code":"15","country_id":34,"country_code":"BG","latitude":"43.58333000","longitude":"24.41667000"},{"id":"9462","name":"Obshtina Dolni Dabnik","state_id":4706,"state_code":"15","country_id":34,"country_code":"BG","latitude":"43.36667000","longitude":"24.41667000"},{"id":"9484","name":"Obshtina Gulyantsi","state_id":4706,"state_code":"15","country_id":34,"country_code":"BG","latitude":"43.68333000","longitude":"24.65000000"},{"id":"9490","name":"Obshtina Iskar","state_id":4706,"state_code":"15","country_id":34,"country_code":"BG","latitude":"43.50000000","longitude":"24.28333000"},{"id":"9503","name":"Obshtina Knezha","state_id":4706,"state_code":"15","country_id":34,"country_code":"BG","latitude":"43.50000000","longitude":"24.11667000"},{"id":"9521","name":"Obshtina Levski","state_id":4706,"state_code":"15","country_id":34,"country_code":"BG","latitude":"43.43333000","longitude":"25.10000000"},{"id":"9541","name":"Obshtina Nikopol","state_id":4706,"state_code":"15","country_id":34,"country_code":"BG","latitude":"43.60000000","longitude":"24.93333000"},{"id":"9557","name":"Obshtina Pleven","state_id":4706,"state_code":"15","country_id":34,"country_code":"BG","latitude":"43.40000000","longitude":"24.70000000"},{"id":"9562","name":"Obshtina Pordim","state_id":4706,"state_code":"15","country_id":34,"country_code":"BG","latitude":"43.38333000","longitude":"24.90000000"},{"id":"9655","name":"Pleven","state_id":4706,"state_code":"15","country_id":34,"country_code":"BG","latitude":"43.41667000","longitude":"24.61667000"},{"id":"9660","name":"Pordim","state_id":4706,"state_code":"15","country_id":34,"country_code":"BG","latitude":"43.38333000","longitude":"24.85000000"},{"id":"9696","name":"Slavyanovo","state_id":4706,"state_code":"15","country_id":34,"country_code":"BG","latitude":"43.46667000","longitude":"24.86667000"}]