[{"id":"9250","name":"Aheloy","state_id":4715,"state_code":"02","country_id":34,"country_code":"BG","latitude":"42.64987000","longitude":"27.64838000"},{"id":"9251","name":"Ahtopol","state_id":4715,"state_code":"02","country_id":34,"country_code":"BG","latitude":"42.09768000","longitude":"27.93961000"},{"id":"9261","name":"Aytos","state_id":4715,"state_code":"02","country_id":34,"country_code":"BG","latitude":"42.70000000","longitude":"27.25000000"},{"id":"9266","name":"Bata","state_id":4715,"state_code":"02","country_id":34,"country_code":"BG","latitude":"42.73802000","longitude":"27.49643000"},{"id":"9292","name":"Burgas","state_id":4715,"state_code":"02","country_id":34,"country_code":"BG","latitude":"42.50606000","longitude":"27.46781000"},{"id":"9299","name":"Chernomorets","state_id":4715,"state_code":"02","country_id":34,"country_code":"BG","latitude":"42.44408000","longitude":"27.63902000"},{"id":"9353","name":"Kameno","state_id":4715,"state_code":"02","country_id":34,"country_code":"BG","latitude":"42.57084000","longitude":"27.29875000"},{"id":"9356","name":"Karnobat","state_id":4715,"state_code":"02","country_id":34,"country_code":"BG","latitude":"42.65000000","longitude":"26.98333000"},{"id":"9363","name":"Kiten","state_id":4715,"state_code":"02","country_id":34,"country_code":"BG","latitude":"42.23424000","longitude":"27.77490000"},{"id":"9397","name":"Malko Tarnovo","state_id":4715,"state_code":"02","country_id":34,"country_code":"BG","latitude":"41.97958000","longitude":"27.52477000"},{"id":"9406","name":"Nesebar","state_id":4715,"state_code":"02","country_id":34,"country_code":"BG","latitude":"42.65921000","longitude":"27.73602000"},{"id":"9419","name":"Obshtina Aytos","state_id":4715,"state_code":"02","country_id":34,"country_code":"BG","latitude":"42.70000000","longitude":"27.25000000"},{"id":"9442","name":"Obshtina Burgas","state_id":4715,"state_code":"02","country_id":34,"country_code":"BG","latitude":"42.50000000","longitude":"27.46667000"},{"id":"9495","name":"Obshtina Kameno","state_id":4715,"state_code":"02","country_id":34,"country_code":"BG","latitude":"42.51667000","longitude":"27.18333000"},{"id":"9498","name":"Obshtina Karnobat","state_id":4715,"state_code":"02","country_id":34,"country_code":"BG","latitude":"42.65000000","longitude":"26.98333000"},{"id":"9529","name":"Obshtina Malko Tarnovo","state_id":4715,"state_code":"02","country_id":34,"country_code":"BG","latitude":"42.08333000","longitude":"27.53333000"},{"id":"9538","name":"Obshtina Nesebar","state_id":4715,"state_code":"02","country_id":34,"country_code":"BG","latitude":"42.78333000","longitude":"27.73333000"},{"id":"9560","name":"Obshtina Pomorie","state_id":4715,"state_code":"02","country_id":34,"country_code":"BG","latitude":"42.73333000","longitude":"27.55000000"},{"id":"9564","name":"Obshtina Primorsko","state_id":4715,"state_code":"02","country_id":34,"country_code":"BG","latitude":"42.25000000","longitude":"27.63333000"},{"id":"9596","name":"Obshtina Sozopol","state_id":4715,"state_code":"02","country_id":34,"country_code":"BG","latitude":"42.31123000","longitude":"27.51733000"},{"id":"9605","name":"Obshtina Sungurlare","state_id":4715,"state_code":"02","country_id":34,"country_code":"BG","latitude":"42.83333000","longitude":"26.83333000"},{"id":"9640","name":"Obzor","state_id":4715,"state_code":"02","country_id":34,"country_code":"BG","latitude":"42.81998000","longitude":"27.88007000"},{"id":"9658","name":"Pomorie","state_id":4715,"state_code":"02","country_id":34,"country_code":"BG","latitude":"42.56326000","longitude":"27.62986000"},{"id":"9662","name":"Primorsko","state_id":4715,"state_code":"02","country_id":34,"country_code":"BG","latitude":"42.26791000","longitude":"27.75611000"},{"id":"9668","name":"Ravda","state_id":4715,"state_code":"02","country_id":34,"country_code":"BG","latitude":"42.64185000","longitude":"27.67713000"},{"id":"9674","name":"Ruen","state_id":4715,"state_code":"02","country_id":34,"country_code":"BG","latitude":"42.80000000","longitude":"27.28333000"},{"id":"9683","name":"Sarafovo","state_id":4715,"state_code":"02","country_id":34,"country_code":"BG","latitude":"42.56079000","longitude":"27.52195000"},{"id":"9702","name":"Sozopol","state_id":4715,"state_code":"02","country_id":34,"country_code":"BG","latitude":"42.41801000","longitude":"27.69560000"},{"id":"9703","name":"Sredets","state_id":4715,"state_code":"02","country_id":34,"country_code":"BG","latitude":"42.34747000","longitude":"27.17898000"},{"id":"9713","name":"Sungurlare","state_id":4715,"state_code":"02","country_id":34,"country_code":"BG","latitude":"42.76667000","longitude":"26.78333000"},{"id":"9715","name":"Sveti Vlas","state_id":4715,"state_code":"02","country_id":34,"country_code":"BG","latitude":"42.71360000","longitude":"27.75867000"},{"id":"9728","name":"Tsarevo","state_id":4715,"state_code":"02","country_id":34,"country_code":"BG","latitude":"42.16955000","longitude":"27.84541000"}]