[{"id":"9262","name":"Balchik","state_id":4718,"state_code":"08","country_id":34,"country_code":"BG","latitude":"43.42166000","longitude":"28.15848000"},{"id":"9310","name":"Dobrich","state_id":4718,"state_code":"08","country_id":34,"country_code":"BG","latitude":"43.56667000","longitude":"27.83333000"},{"id":"9330","name":"General Toshevo","state_id":4718,"state_code":"08","country_id":34,"country_code":"BG","latitude":"43.70123000","longitude":"28.03787000"},{"id":"9357","name":"Kavarna","state_id":4718,"state_code":"08","country_id":34,"country_code":"BG","latitude":"43.43601000","longitude":"28.33953000"},{"id":"9378","name":"Krushari","state_id":4718,"state_code":"08","country_id":34,"country_code":"BG","latitude":"43.81675000","longitude":"27.75552000"},{"id":"9420","name":"Obshtina Balchik","state_id":4718,"state_code":"08","country_id":34,"country_code":"BG","latitude":"43.50000000","longitude":"28.13333000"},{"id":"9457","name":"Obshtina Dobrich","state_id":4718,"state_code":"08","country_id":34,"country_code":"BG","latitude":"43.57763000","longitude":"27.80628000"},{"id":"9458","name":"Obshtina Dobrich-Selska","state_id":4718,"state_code":"08","country_id":34,"country_code":"BG","latitude":"43.63333000","longitude":"27.73333000"},{"id":"9477","name":"Obshtina General Toshevo","state_id":4718,"state_code":"08","country_id":34,"country_code":"BG","latitude":"43.73333000","longitude":"28.08333000"},{"id":"9499","name":"Obshtina Kavarna","state_id":4718,"state_code":"08","country_id":34,"country_code":"BG","latitude":"43.50000000","longitude":"28.38333000"},{"id":"9514","name":"Obshtina Krushari","state_id":4718,"state_code":"08","country_id":34,"country_code":"BG","latitude":"43.88333000","longitude":"27.75000000"},{"id":"9587","name":"Obshtina Shabla","state_id":4718,"state_code":"08","country_id":34,"country_code":"BG","latitude":"43.61667000","longitude":"28.51667000"},{"id":"9611","name":"Obshtina Tervel","state_id":4718,"state_code":"08","country_id":34,"country_code":"BG","latitude":"43.75000000","longitude":"27.40000000"},{"id":"9690","name":"Shabla","state_id":4718,"state_code":"08","country_id":34,"country_code":"BG","latitude":"43.53983000","longitude":"28.53429000"},{"id":"9720","name":"Tervel","state_id":4718,"state_code":"08","country_id":34,"country_code":"BG","latitude":"43.74789000","longitude":"27.40911000"}]