[{"id":"106851","name":"Lacluta","state_id":4514,"state_code":"VI","country_id":63,"country_code":"TL","latitude":"-8.80000000","longitude":"126.13333000"},{"id":"106865","name":"Ossu","state_id":4514,"state_code":"VI","country_id":63,"country_code":"TL","latitude":"-8.73477000","longitude":"126.38324000"},{"id":"106875","name":"Uatocarabau","state_id":4514,"state_code":"VI","country_id":63,"country_code":"TL","latitude":"-8.75658000","longitude":"126.68060000"},{"id":"106876","name":"Uatolari","state_id":4514,"state_code":"VI","country_id":63,"country_code":"TL","latitude":"-8.76277000","longitude":"126.57353000"},{"id":"106879","name":"Viqueque","state_id":4514,"state_code":"VI","country_id":63,"country_code":"TL","latitude":"-8.85908000","longitude":"126.36972000"}]