[{"id":"39239","name":"Ableiges","state_id":4796,"state_code":"IDF","country_id":75,"country_code":"FR","latitude":"49.08932000","longitude":"1.98154000"},{"id":"39240","name":"Ablis","state_id":4796,"state_code":"IDF","country_id":75,"country_code":"FR","latitude":"48.51720000","longitude":"1.83624000"},{"id":"39242","name":"Ablon-sur-Seine","state_id":4796,"state_code":"IDF","country_id":75,"country_code":"FR","latitude":"48.72732000","longitude":"2.42686000"},{"id":"39252","name":"Ach\u00e8res","state_id":4796,"state_code":"IDF","country_id":75,"country_code":"FR","latitude":"48.96115000","longitude":"2.06882000"},{"id":"39253","name":"Ach\u00e8res-la-For\u00eat","state_id":4796,"state_code":"IDF","country_id":75,"country_code":"FR","latitude":"48.35458000","longitude":"2.57035000"},{"id":"39311","name":"Alfortville","state_id":4796,"state_code":"IDF","country_id":75,"country_code":"FR","latitude":"48.80575000","longitude":"2.42040000"},{"id":"39383","name":"Andilly","state_id":4796,"state_code":"IDF","country_id":75,"country_code":"FR","latitude":"49.00935000","longitude":"2.30240000"},{"id":"39390","name":"Andr\u00e9sy","state_id":4796,"state_code":"IDF","country_id":75,"country_code":"FR","latitude":"48.98235000","longitude":"2.05687000"},{"id":"39397","name":"Angerville","state_id":4796,"state_code":"IDF","country_id":75,"country_code":"FR","latitude":"48.31354000","longitude":"1.99935000"},{"id":"39399","name":"Angervilliers","state_id":4796,"state_code":"IDF","country_id":75,"country_code":"FR","latitude":"48.59263000","longitude":"2.06541000"},{"id":"39419","name":"Annet-sur-Marne","state_id":4796,"state_code":"IDF","country_id":75,"country_code":"FR","latitude":"48.92669000","longitude":"2.71959000"},{"id":"39435","name":"Antony","state_id":4796,"state_code":"IDF","country_id":75,"country_code":"FR","latitude":"48.75329000","longitude":"2.29668000"},{"id":"39451","name":"Arbonne-la-For\u00eat","state_id":4796,"state_code":"IDF","country_id":75,"country_code":"FR","latitude":"48.41405000","longitude":"2.56677000"},{"id":"39465","name":"Arcueil","state_id":4796,"state_code":"IDF","country_id":75,"country_code":"FR","latitude":"48.79993000","longitude":"2.33256000"},{"id":"39481","name":"Argenteuil","state_id":4796,"state_code":"IDF","country_id":75,"country_code":"FR","latitude":"48.94788000","longitude":"2.24744000"},{"id":"39494","name":"Armenti\u00e8res-en-Brie","state_id":4796,"state_code":"IDF","country_id":75,"country_code":"FR","latitude":"48.97775000","longitude":"3.02073000"},{"id":"39503","name":"Arnouville","state_id":4796,"state_code":"IDF","country_id":75,"country_code":"FR","latitude":"48.98333000","longitude":"2.41667000"},{"id":"39506","name":"Arpajon","state_id":4796,"state_code":"IDF","country_id":75,"country_code":"FR","latitude":"48.58875000","longitude":"2.24672000"},{"id":"39543","name":"Asni\u00e8res-sur-Oise","state_id":4796,"state_code":"IDF","country_id":75,"country_code":"FR","latitude":"49.13369000","longitude":"2.35551000"},{"id":"39544","name":"Asni\u00e8res-sur-Seine","state_id":4796,"state_code":"IDF","country_id":75,"country_code":"FR","latitude":"48.91667000","longitude":"2.28333000"},{"id":"39557","name":"Athis-Mons","state_id":4796,"state_code":"IDF","country_id":75,"country_code":"FR","latitude":"48.70522000","longitude":"2.39147000"},{"id":"39560","name":"Attainville","state_id":4796,"state_code":"IDF","country_id":75,"country_code":"FR","latitude":"49.05779000","longitude":"2.34497000"},{"id":"39571","name":"Aubergenville","state_id":4796,"state_code":"IDF","country_id":75,"country_code":"FR","latitude":"48.95996000","longitude":"1.85467000"},{"id":"39574","name":"Aubervilliers","state_id":4796,"state_code":"IDF","country_id":75,"country_code":"FR","latitude":"48.91667000","longitude":"2.38333000"},{"id":"39602","name":"Auffargis","state_id":4796,"state_code":"IDF","country_id":75,"country_code":"FR","latitude":"48.70049000","longitude":"1.88696000"},{"id":"39609","name":"Aulnay-sous-Bois","state_id":4796,"state_code":"IDF","country_id":75,"country_code":"FR","latitude":"48.93814000","longitude":"2.49402000"},{"id":"39610","name":"Aulnay-sur-Mauldre","state_id":4796,"state_code":"IDF","country_id":75,"country_code":"FR","latitude":"48.92950000","longitude":"1.84113000"},{"id":"39640","name":"Auvers-Saint-Georges","state_id":4796,"state_code":"IDF","country_id":75,"country_code":"FR","latitude":"48.49276000","longitude":"2.22045000"},{"id":"39642","name":"Auvers-sur-Oise","state_id":4796,"state_code":"IDF","country_id":75,"country_code":"FR","latitude":"49.07158000","longitude":"2.16978000"},{"id":"39676","name":"Avon","state_id":4796,"state_code":"IDF","country_id":75,"country_code":"FR","latitude":"48.40219000","longitude":"2.72022000"},{"id":"48047","name":"\u00c9couen","state_id":4796,"state_code":"IDF","country_id":75,"country_code":"FR","latitude":"49.02062000","longitude":"2.38309000"},{"id":"48054","name":"\u00c9cuelles","state_id":4796,"state_code":"IDF","country_id":75,"country_code":"FR","latitude":"48.35636000","longitude":"2.82335000"},{"id":"48058","name":"\u00c9gly","state_id":4796,"state_code":"IDF","country_id":75,"country_code":"FR","latitude":"48.57828000","longitude":"2.22417000"},{"id":"48059","name":"\u00c9greville","state_id":4796,"state_code":"IDF","country_id":75,"country_code":"FR","latitude":"48.17606000","longitude":"2.87278000"},{"id":"48063","name":"\u00c9lancourt","state_id":4796,"state_code":"IDF","country_id":75,"country_code":"FR","latitude":"48.78421000","longitude":"1.95520000"},{"id":"48066","name":"\u00c9merainville","state_id":4796,"state_code":"IDF","country_id":75,"country_code":"FR","latitude":"48.81276000","longitude":"2.62139000"},{"id":"48085","name":"\u00c9p\u00f4ne","state_id":4796,"state_code":"IDF","country_id":75,"country_code":"FR","latitude":"48.95476000","longitude":"1.82233000"},{"id":"48079","name":"\u00c9pinay-sous-S\u00e9nart","state_id":4796,"state_code":"IDF","country_id":75,"country_code":"FR","latitude":"48.68970000","longitude":"2.51186000"},{"id":"48080","name":"\u00c9pinay-sur-Orge","state_id":4796,"state_code":"IDF","country_id":75,"country_code":"FR","latitude":"48.67338000","longitude":"2.31074000"},{"id":"48081","name":"\u00c9pinay-sur-Seine","state_id":4796,"state_code":"IDF","country_id":75,"country_code":"FR","latitude":"48.95350000","longitude":"2.31514000"},{"id":"48089","name":"\u00c9ragny","state_id":4796,"state_code":"IDF","country_id":75,"country_code":"FR","latitude":"49.01667000","longitude":"2.10000000"},{"id":"48095","name":"\u00c9tampes","state_id":4796,"state_code":"IDF","country_id":75,"country_code":"FR","latitude":"48.43507000","longitude":"2.16233000"},{"id":"48103","name":"\u00c9tiolles","state_id":4796,"state_code":"IDF","country_id":75,"country_code":"FR","latitude":"48.63248000","longitude":"2.48226000"},{"id":"48113","name":"\u00c9tr\u00e9chy","state_id":4796,"state_code":"IDF","country_id":75,"country_code":"FR","latitude":"48.49465000","longitude":"2.19489000"},{"id":"48125","name":"\u00c9vry","state_id":4796,"state_code":"IDF","country_id":75,"country_code":"FR","latitude":"48.63280000","longitude":"2.44049000"},{"id":"48126","name":"\u00c9zanville","state_id":4796,"state_code":"IDF","country_id":75,"country_code":"FR","latitude":"49.02794000","longitude":"2.36787000"},{"id":"39708","name":"Bagneaux-sur-Loing","state_id":4796,"state_code":"IDF","country_id":75,"country_code":"FR","latitude":"48.23310000","longitude":"2.70675000"},{"id":"39709","name":"Bagneux","state_id":4796,"state_code":"IDF","country_id":75,"country_code":"FR","latitude":"48.79565000","longitude":"2.30796000"},{"id":"39711","name":"Bagnolet","state_id":4796,"state_code":"IDF","country_id":75,"country_code":"FR","latitude":"48.86667000","longitude":"2.41667000"},{"id":"39724","name":"Baillet-en-France","state_id":4796,"state_code":"IDF","country_id":75,"country_code":"FR","latitude":"49.06187000","longitude":"2.29880000"},{"id":"39729","name":"Bailly","state_id":4796,"state_code":"IDF","country_id":75,"country_code":"FR","latitude":"48.84168000","longitude":"2.07673000"},{"id":"39730","name":"Bailly-Carrois","state_id":4796,"state_code":"IDF","country_id":75,"country_code":"FR","latitude":"48.58029000","longitude":"2.99047000"},{"id":"39731","name":"Bailly-Romainvilliers","state_id":4796,"state_code":"IDF","country_id":75,"country_code":"FR","latitude":"48.84729000","longitude":"2.82352000"},{"id":"39750","name":"Ballainvilliers","state_id":4796,"state_code":"IDF","country_id":75,"country_code":"FR","latitude":"48.67481000","longitude":"2.30057000"},{"id":"39753","name":"Ballancourt-sur-Essonne","state_id":4796,"state_code":"IDF","country_id":75,"country_code":"FR","latitude":"48.52525000","longitude":"2.38604000"},{"id":"39775","name":"Barbizon","state_id":4796,"state_code":"IDF","country_id":75,"country_code":"FR","latitude":"48.44346000","longitude":"2.60313000"},{"id":"39812","name":"Baulne","state_id":4796,"state_code":"IDF","country_id":75,"country_code":"FR","latitude":"48.49303000","longitude":"2.36230000"},{"id":"39825","name":"Bazainville","state_id":4796,"state_code":"IDF","country_id":75,"country_code":"FR","latitude":"48.80435000","longitude":"1.66732000"},{"id":"39829","name":"Bazemont","state_id":4796,"state_code":"IDF","country_id":75,"country_code":"FR","latitude":"48.92726000","longitude":"1.86651000"},{"id":"39838","name":"Beauchamp","state_id":4796,"state_code":"IDF","country_id":75,"country_code":"FR","latitude":"49.01667000","longitude":"2.20000000"},{"id":"39865","name":"Beaumont-du-G\u00e2tinais","state_id":4796,"state_code":"IDF","country_id":75,"country_code":"FR","latitude":"48.13860000","longitude":"2.47913000"},{"id":"39872","name":"Beaumont-sur-Oise","state_id":4796,"state_code":"IDF","country_id":75,"country_code":"FR","latitude":"49.14232000","longitude":"2.28705000"},{"id":"39930","name":"Belloy-en-France","state_id":4796,"state_code":"IDF","country_id":75,"country_code":"FR","latitude":"49.08837000","longitude":"2.37159000"},{"id":"39940","name":"Bennecourt","state_id":4796,"state_code":"IDF","country_id":75,"country_code":"FR","latitude":"49.04148000","longitude":"1.55469000"},{"id":"39953","name":"Bernes-sur-Oise","state_id":4796,"state_code":"IDF","country_id":75,"country_code":"FR","latitude":"49.16128000","longitude":"2.30000000"},{"id":"39974","name":"Bessancourt","state_id":4796,"state_code":"IDF","country_id":75,"country_code":"FR","latitude":"49.03765000","longitude":"2.20936000"},{"id":"39999","name":"Beynes","state_id":4796,"state_code":"IDF","country_id":75,"country_code":"FR","latitude":"48.85626000","longitude":"1.87261000"},{"id":"40002","name":"Bezons","state_id":4796,"state_code":"IDF","country_id":75,"country_code":"FR","latitude":"48.92426000","longitude":"2.21280000"},{"id":"40040","name":"Bi\u00e8vres","state_id":4796,"state_code":"IDF","country_id":75,"country_code":"FR","latitude":"48.75772000","longitude":"2.21881000"},{"id":"40077","name":"Bobigny","state_id":4796,"state_code":"IDF","country_id":75,"country_code":"FR","latitude":"48.90982000","longitude":"2.45012000"},{"id":"40084","name":"Bois-Colombes","state_id":4796,"state_code":"IDF","country_id":75,"country_code":"FR","latitude":"48.91936000","longitude":"2.27485000"},{"id":"40089","name":"Bois-d\u2019Arcy","state_id":4796,"state_code":"IDF","country_id":75,"country_code":"FR","latitude":"48.79966000","longitude":"2.02325000"},{"id":"40090","name":"Bois-le-Roi","state_id":4796,"state_code":"IDF","country_id":75,"country_code":"FR","latitude":"48.47348000","longitude":"2.70464000"},{"id":"40097","name":"Boissise-le-Roi","state_id":4796,"state_code":"IDF","country_id":75,"country_code":"FR","latitude":"48.52479000","longitude":"2.56971000"},{"id":"40099","name":"Boissy-le-Ch\u00e2tel","state_id":4796,"state_code":"IDF","country_id":75,"country_code":"FR","latitude":"48.82073000","longitude":"3.13651000"},{"id":"40100","name":"Boissy-le-Cutt\u00e9","state_id":4796,"state_code":"IDF","country_id":75,"country_code":"FR","latitude":"48.47020000","longitude":"2.28326000"},{"id":"40098","name":"Boissy-Saint-L\u00e9ger","state_id":4796,"state_code":"IDF","country_id":75,"country_code":"FR","latitude":"48.75149000","longitude":"2.51163000"},{"id":"40101","name":"Boissy-sous-Saint-Yon","state_id":4796,"state_code":"IDF","country_id":75,"country_code":"FR","latitude":"48.55379000","longitude":"2.21212000"},{"id":"40111","name":"Bondoufle","state_id":4796,"state_code":"IDF","country_id":75,"country_code":"FR","latitude":"48.61294000","longitude":"2.37775000"},{"id":"40113","name":"Bondy","state_id":4796,"state_code":"IDF","country_id":75,"country_code":"FR","latitude":"48.90180000","longitude":"2.48931000"},{"id":"40119","name":"Bonnelles","state_id":4796,"state_code":"IDF","country_id":75,"country_code":"FR","latitude":"48.61816000","longitude":"2.02922000"},{"id":"40123","name":"Bonneuil-sur-Marne","state_id":4796,"state_code":"IDF","country_id":75,"country_code":"FR","latitude":"48.76950000","longitude":"2.47930000"},{"id":"40128","name":"Bonni\u00e8res-sur-Seine","state_id":4796,"state_code":"IDF","country_id":75,"country_code":"FR","latitude":"49.03525000","longitude":"1.57830000"},{"id":"40147","name":"Bouafle","state_id":4796,"state_code":"IDF","country_id":75,"country_code":"FR","latitude":"48.96463000","longitude":"1.90120000"},{"id":"40153","name":"Bouff\u00e9mont","state_id":4796,"state_code":"IDF","country_id":75,"country_code":"FR","latitude":"49.04377000","longitude":"2.29796000"},{"id":"40155","name":"Bougival","state_id":4796,"state_code":"IDF","country_id":75,"country_code":"FR","latitude":"48.86223000","longitude":"2.14148000"},{"id":"40166","name":"Bouleurs","state_id":4796,"state_code":"IDF","country_id":75,"country_code":"FR","latitude":"48.88181000","longitude":"2.90728000"},{"id":"40172","name":"Boulogne-Billancourt","state_id":4796,"state_code":"IDF","country_id":75,"country_code":"FR","latitude":"48.83545000","longitude":"2.24128000"},{"id":"40177","name":"Bouray-sur-Juine","state_id":4796,"state_code":"IDF","country_id":75,"country_code":"FR","latitude":"48.51981000","longitude":"2.30001000"},{"id":"40195","name":"Bourg-la-Reine","state_id":4796,"state_code":"IDF","country_id":75,"country_code":"FR","latitude":"48.77888000","longitude":"2.31781000"},{"id":"40212","name":"Bourron-Marlotte","state_id":4796,"state_code":"IDF","country_id":75,"country_code":"FR","latitude":"48.34051000","longitude":"2.70041000"},{"id":"40221","name":"Boussy-Saint-Antoine","state_id":4796,"state_code":"IDF","country_id":75,"country_code":"FR","latitude":"48.69101000","longitude":"2.53060000"},{"id":"40224","name":"Boutigny-sur-Essonne","state_id":4796,"state_code":"IDF","country_id":75,"country_code":"FR","latitude":"48.43333000","longitude":"2.38333000"},{"id":"40268","name":"Bray-sur-Seine","state_id":4796,"state_code":"IDF","country_id":75,"country_code":"FR","latitude":"48.41371000","longitude":"3.23852000"},{"id":"40360","name":"Br\u00e9tigny-sur-Orge","state_id":4796,"state_code":"IDF","country_id":75,"country_code":"FR","latitude":"48.61135000","longitude":"2.30593000"},{"id":"40361","name":"Br\u00e9val","state_id":4796,"state_code":"IDF","country_id":75,"country_code":"FR","latitude":"48.94545000","longitude":"1.53309000"},{"id":"40296","name":"Breuillet","state_id":4796,"state_code":"IDF","country_id":75,"country_code":"FR","latitude":"48.57064000","longitude":"2.17424000"},{"id":"40306","name":"Brie-Comte-Robert","state_id":4796,"state_code":"IDF","country_id":75,"country_code":"FR","latitude":"48.69247000","longitude":"2.61090000"},{"id":"40315","name":"Briis-sous-Forges","state_id":4796,"state_code":"IDF","country_id":75,"country_code":"FR","latitude":"48.62399000","longitude":"2.12112000"},{"id":"40335","name":"Brou-sur-Chantereine","state_id":4796,"state_code":"IDF","country_id":75,"country_code":"FR","latitude":"48.88333000","longitude":"2.63333000"},{"id":"40346","name":"Brunoy","state_id":4796,"state_code":"IDF","country_id":75,"country_code":"FR","latitude":"48.69420000","longitude":"2.49223000"},{"id":"40350","name":"Bruy\u00e8res-le-Ch\u00e2tel","state_id":4796,"state_code":"IDF","country_id":75,"country_code":"FR","latitude":"48.58868000","longitude":"2.18991000"},{"id":"40351","name":"Bruy\u00e8res-sur-Oise","state_id":4796,"state_code":"IDF","country_id":75,"country_code":"FR","latitude":"49.15756000","longitude":"2.32577000"},{"id":"40353","name":"Bry-sur-Marne","state_id":4796,"state_code":"IDF","country_id":75,"country_code":"FR","latitude":"48.83811000","longitude":"2.52488000"},{"id":"40368","name":"Buc","state_id":4796,"state_code":"IDF","country_id":75,"country_code":"FR","latitude":"48.77627000","longitude":"2.12577000"},{"id":"40369","name":"Buchelay","state_id":4796,"state_code":"IDF","country_id":75,"country_code":"FR","latitude":"48.97926000","longitude":"1.67026000"},{"id":"40381","name":"Bullion","state_id":4796,"state_code":"IDF","country_id":75,"country_code":"FR","latitude":"48.62285000","longitude":"1.99024000"},{"id":"40386","name":"Bures-sur-Yvette","state_id":4796,"state_code":"IDF","country_id":75,"country_code":"FR","latitude":"48.69981000","longitude":"2.17064000"},{"id":"40401","name":"Bussy-Saint-Georges","state_id":4796,"state_code":"IDF","country_id":75,"country_code":"FR","latitude":"48.84099000","longitude":"2.70165000"},{"id":"40402","name":"Butry-sur-Oise","state_id":4796,"state_code":"IDF","country_id":75,"country_code":"FR","latitude":"49.08837000","longitude":"2.19916000"},{"id":"40449","name":"Cachan","state_id":4796,"state_code":"IDF","country_id":75,"country_code":"FR","latitude":"48.79632000","longitude":"2.33661000"},{"id":"40513","name":"Cannes-\u00c9cluse","state_id":4796,"state_code":"IDF","country_id":75,"country_code":"FR","latitude":"48.36303000","longitude":"2.98748000"},{"id":"40559","name":"Carri\u00e8res-sous-Poissy","state_id":4796,"state_code":"IDF","country_id":75,"country_code":"FR","latitude":"48.94952000","longitude":"2.04068000"},{"id":"40560","name":"Carri\u00e8res-sur-Seine","state_id":4796,"state_code":"IDF","country_id":75,"country_code":"FR","latitude":"48.90687000","longitude":"2.17920000"},{"id":"41390","name":"C\u00e9ly","state_id":4796,"state_code":"IDF","country_id":75,"country_code":"FR","latitude":"48.45959000","longitude":"2.53245000"},{"id":"40646","name":"Cergy","state_id":4796,"state_code":"IDF","country_id":75,"country_code":"FR","latitude":"49.03645000","longitude":"2.07613000"},{"id":"40647","name":"Cergy-Pontoise","state_id":4796,"state_code":"IDF","country_id":75,"country_code":"FR","latitude":"49.03894000","longitude":"2.07805000"},{"id":"40651","name":"Cernay-la-Ville","state_id":4796,"state_code":"IDF","country_id":75,"country_code":"FR","latitude":"48.67324000","longitude":"1.97422000"},{"id":"40653","name":"Cerny","state_id":4796,"state_code":"IDF","country_id":75,"country_code":"FR","latitude":"48.47796000","longitude":"2.32815000"},{"id":"40660","name":"Cesson","state_id":4796,"state_code":"IDF","country_id":75,"country_code":"FR","latitude":"48.56204000","longitude":"2.60816000"},{"id":"40680","name":"Chailly-en-Bi\u00e8re","state_id":4796,"state_code":"IDF","country_id":75,"country_code":"FR","latitude":"48.46701000","longitude":"2.60785000"},{"id":"40681","name":"Chailly-en-Brie","state_id":4796,"state_code":"IDF","country_id":75,"country_code":"FR","latitude":"48.79006000","longitude":"3.12453000"},{"id":"40689","name":"Chalifert","state_id":4796,"state_code":"IDF","country_id":75,"country_code":"FR","latitude":"48.88993000","longitude":"2.77339000"},{"id":"40697","name":"Chalo-Saint-Mars","state_id":4796,"state_code":"IDF","country_id":75,"country_code":"FR","latitude":"48.42328000","longitude":"2.06491000"},{"id":"40703","name":"Chamarande","state_id":4796,"state_code":"IDF","country_id":75,"country_code":"FR","latitude":"48.51715000","longitude":"2.21710000"},{"id":"40709","name":"Chambourcy","state_id":4796,"state_code":"IDF","country_id":75,"country_code":"FR","latitude":"48.90655000","longitude":"2.04100000"},{"id":"40716","name":"Chamigny","state_id":4796,"state_code":"IDF","country_id":75,"country_code":"FR","latitude":"48.97242000","longitude":"3.15165000"},{"id":"40722","name":"Champagne-sur-Oise","state_id":4796,"state_code":"IDF","country_id":75,"country_code":"FR","latitude":"49.14052000","longitude":"2.24233000"},{"id":"40723","name":"Champagne-sur-Seine","state_id":4796,"state_code":"IDF","country_id":75,"country_code":"FR","latitude":"48.39794000","longitude":"2.79785000"},{"id":"40730","name":"Champcueil","state_id":4796,"state_code":"IDF","country_id":75,"country_code":"FR","latitude":"48.51594000","longitude":"2.44674000"},{"id":"40742","name":"Champigny-sur-Marne","state_id":4796,"state_code":"IDF","country_id":75,"country_code":"FR","latitude":"48.81642000","longitude":"2.49366000"},{"id":"40744","name":"Champlan","state_id":4796,"state_code":"IDF","country_id":75,"country_code":"FR","latitude":"48.70823000","longitude":"2.27975000"},{"id":"40748","name":"Champs-sur-Marne","state_id":4796,"state_code":"IDF","country_id":75,"country_code":"FR","latitude":"48.85000000","longitude":"2.60000000"},{"id":"40761","name":"Changis-sur-Marne","state_id":4796,"state_code":"IDF","country_id":75,"country_code":"FR","latitude":"48.95816000","longitude":"3.02191000"},{"id":"40771","name":"Chanteloup-en-Brie","state_id":4796,"state_code":"IDF","country_id":75,"country_code":"FR","latitude":"48.85478000","longitude":"2.73929000"},{"id":"40772","name":"Chanteloup-les-Vignes","state_id":4796,"state_code":"IDF","country_id":75,"country_code":"FR","latitude":"48.97614000","longitude":"2.03261000"},{"id":"40783","name":"Chapet","state_id":4796,"state_code":"IDF","country_id":75,"country_code":"FR","latitude":"48.96667000","longitude":"1.93333000"},{"id":"40798","name":"Charenton-le-Pont","state_id":4796,"state_code":"IDF","country_id":75,"country_code":"FR","latitude":"48.82209000","longitude":"2.41217000"},{"id":"40812","name":"Charny","state_id":4796,"state_code":"IDF","country_id":75,"country_code":"FR","latitude":"48.97098000","longitude":"2.76121000"},{"id":"40818","name":"Chars","state_id":4796,"state_code":"IDF","country_id":75,"country_code":"FR","latitude":"49.16032000","longitude":"1.93669000"},{"id":"40821","name":"Chartrettes","state_id":4796,"state_code":"IDF","country_id":75,"country_code":"FR","latitude":"48.48808000","longitude":"2.70083000"},{"id":"40831","name":"Chatou","state_id":4796,"state_code":"IDF","country_id":75,"country_code":"FR","latitude":"48.88980000","longitude":"2.15863000"},{"id":"40835","name":"Chauconin-Neufmontiers","state_id":4796,"state_code":"IDF","country_id":75,"country_code":"FR","latitude":"48.96667000","longitude":"2.85000000"},{"id":"40842","name":"Chaumes-en-Brie","state_id":4796,"state_code":"IDF","country_id":75,"country_code":"FR","latitude":"48.66853000","longitude":"2.84015000"},{"id":"40847","name":"Chaumontel","state_id":4796,"state_code":"IDF","country_id":75,"country_code":"FR","latitude":"49.12470000","longitude":"2.43237000"},{"id":"40861","name":"Chavenay","state_id":4796,"state_code":"IDF","country_id":75,"country_code":"FR","latitude":"48.85437000","longitude":"1.99163000"},{"id":"40863","name":"Chaville","state_id":4796,"state_code":"IDF","country_id":75,"country_code":"FR","latitude":"48.80565000","longitude":"2.18864000"},{"id":"40941","name":"Ch\u00e2teau-Landon","state_id":4796,"state_code":"IDF","country_id":75,"country_code":"FR","latitude":"48.14721000","longitude":"2.69754000"},{"id":"40954","name":"Ch\u00e2teaufort","state_id":4796,"state_code":"IDF","country_id":75,"country_code":"FR","latitude":"48.73584000","longitude":"2.09054000"},{"id":"40986","name":"Ch\u00e2tenay-Malabry","state_id":4796,"state_code":"IDF","country_id":75,"country_code":"FR","latitude":"48.76507000","longitude":"2.26655000"},{"id":"40987","name":"Ch\u00e2tenay-sur-Seine","state_id":4796,"state_code":"IDF","country_id":75,"country_code":"FR","latitude":"48.41839000","longitude":"3.09474000"},{"id":"40992","name":"Ch\u00e2tillon","state_id":4796,"state_code":"IDF","country_id":75,"country_code":"FR","latitude":"48.80240000","longitude":"2.29346000"},{"id":"40869","name":"Chelles","state_id":4796,"state_code":"IDF","country_id":75,"country_code":"FR","latitude":"48.88109000","longitude":"2.59295000"},{"id":"40874","name":"Chennevi\u00e8res-sur-Marne","state_id":4796,"state_code":"IDF","country_id":75,"country_code":"FR","latitude":"48.79702000","longitude":"2.54046000"},{"id":"40875","name":"Chenoise","state_id":4796,"state_code":"IDF","country_id":75,"country_code":"FR","latitude":"48.61462000","longitude":"3.19459000"},{"id":"40879","name":"Cheptainville","state_id":4796,"state_code":"IDF","country_id":75,"country_code":"FR","latitude":"48.55090000","longitude":"2.27665000"},{"id":"40889","name":"Chessy","state_id":4796,"state_code":"IDF","country_id":75,"country_code":"FR","latitude":"48.88333000","longitude":"2.76667000"},{"id":"40894","name":"Chevannes","state_id":4796,"state_code":"IDF","country_id":75,"country_code":"FR","latitude":"48.53259000","longitude":"2.44388000"},{"id":"40900","name":"Chevilly-Larue","state_id":4796,"state_code":"IDF","country_id":75,"country_code":"FR","latitude":"48.76476000","longitude":"2.35030000"},{"id":"40901","name":"Chevreuse","state_id":4796,"state_code":"IDF","country_id":75,"country_code":"FR","latitude":"48.70662000","longitude":"2.03329000"},{"id":"40904","name":"Chevry-Cossigny","state_id":4796,"state_code":"IDF","country_id":75,"country_code":"FR","latitude":"48.72465000","longitude":"2.66106000"},{"id":"40909","name":"Chilly-Mazarin","state_id":4796,"state_code":"IDF","country_id":75,"country_code":"FR","latitude":"48.71489000","longitude":"2.31638000"},{"id":"40922","name":"Choisy-en-Brie","state_id":4796,"state_code":"IDF","country_id":75,"country_code":"FR","latitude":"48.75867000","longitude":"3.21705000"},{"id":"40923","name":"Choisy-le-Roi","state_id":4796,"state_code":"IDF","country_id":75,"country_code":"FR","latitude":"48.76846000","longitude":"2.41874000"},{"id":"41039","name":"Clamart","state_id":4796,"state_code":"IDF","country_id":75,"country_code":"FR","latitude":"48.80299000","longitude":"2.26692000"},{"id":"41046","name":"Claye-Souilly","state_id":4796,"state_code":"IDF","country_id":75,"country_code":"FR","latitude":"48.94492000","longitude":"2.68566000"},{"id":"41052","name":"Clichy","state_id":4796,"state_code":"IDF","country_id":75,"country_code":"FR","latitude":"48.90018000","longitude":"2.30952000"},{"id":"41053","name":"Clichy-sous-Bois","state_id":4796,"state_code":"IDF","country_id":75,"country_code":"FR","latitude":"48.91020000","longitude":"2.55323000"},{"id":"41084","name":"Coigni\u00e8res","state_id":4796,"state_code":"IDF","country_id":75,"country_code":"FR","latitude":"48.75010000","longitude":"1.92082000"},{"id":"41095","name":"Coll\u00e9gien","state_id":4796,"state_code":"IDF","country_id":75,"country_code":"FR","latitude":"48.83571000","longitude":"2.67365000"},{"id":"41100","name":"Colombes","state_id":4796,"state_code":"IDF","country_id":75,"country_code":"FR","latitude":"48.91882000","longitude":"2.25404000"},{"id":"41115","name":"Combs-la-Ville","state_id":4796,"state_code":"IDF","country_id":75,"country_code":"FR","latitude":"48.66497000","longitude":"2.56957000"},{"id":"41129","name":"Conches-sur-Gondoire","state_id":4796,"state_code":"IDF","country_id":75,"country_code":"FR","latitude":"48.85624000","longitude":"2.71783000"},{"id":"41135","name":"Cond\u00e9-Sainte-Libiaire","state_id":4796,"state_code":"IDF","country_id":75,"country_code":"FR","latitude":"48.89695000","longitude":"2.83904000"},{"id":"41139","name":"Cond\u00e9-sur-Vesgre","state_id":4796,"state_code":"IDF","country_id":75,"country_code":"FR","latitude":"48.74199000","longitude":"1.66069000"},{"id":"41142","name":"Conflans-Sainte-Honorine","state_id":4796,"state_code":"IDF","country_id":75,"country_code":"FR","latitude":"49.00158000","longitude":"2.09694000"},{"id":"41145","name":"Congis-sur-Th\u00e9rouanne","state_id":4796,"state_code":"IDF","country_id":75,"country_code":"FR","latitude":"49.00000000","longitude":"2.98333000"},{"id":"41164","name":"Corbeil-Essonnes","state_id":4796,"state_code":"IDF","country_id":75,"country_code":"FR","latitude":"48.60603000","longitude":"2.48757000"},{"id":"41170","name":"Corbreuse","state_id":4796,"state_code":"IDF","country_id":75,"country_code":"FR","latitude":"48.50065000","longitude":"1.95913000"},{"id":"41180","name":"Cormeilles-en-Parisis","state_id":4796,"state_code":"IDF","country_id":75,"country_code":"FR","latitude":"48.97111000","longitude":"2.20491000"},{"id":"41212","name":"Coubert","state_id":4796,"state_code":"IDF","country_id":75,"country_code":"FR","latitude":"48.67186000","longitude":"2.69733000"},{"id":"41215","name":"Coubron","state_id":4796,"state_code":"IDF","country_id":75,"country_code":"FR","latitude":"48.91667000","longitude":"2.58333000"},{"id":"41226","name":"Couilly-Pont-aux-Dames","state_id":4796,"state_code":"IDF","country_id":75,"country_code":"FR","latitude":"48.88473000","longitude":"2.85677000"},{"id":"41235","name":"Coulommiers","state_id":4796,"state_code":"IDF","country_id":75,"country_code":"FR","latitude":"48.81451000","longitude":"3.08498000"},{"id":"41239","name":"Coupvray","state_id":4796,"state_code":"IDF","country_id":75,"country_code":"FR","latitude":"48.89289000","longitude":"2.79670000"},{"id":"41241","name":"Courbevoie","state_id":4796,"state_code":"IDF","country_id":75,"country_code":"FR","latitude":"48.89672000","longitude":"2.25666000"},{"id":"41249","name":"Courcouronnes","state_id":4796,"state_code":"IDF","country_id":75,"country_code":"FR","latitude":"48.61429000","longitude":"2.40762000"},{"id":"41251","name":"Courdimanche","state_id":4796,"state_code":"IDF","country_id":75,"country_code":"FR","latitude":"49.03513000","longitude":"2.00096000"},{"id":"41258","name":"Courpalay","state_id":4796,"state_code":"IDF","country_id":75,"country_code":"FR","latitude":"48.64947000","longitude":"2.96116000"},{"id":"41271","name":"Courtry","state_id":4796,"state_code":"IDF","country_id":75,"country_code":"FR","latitude":"48.91906000","longitude":"2.60431000"},{"id":"41344","name":"Cr\u00e9gy-l\u00e8s-Meaux","state_id":4796,"state_code":"IDF","country_id":75,"country_code":"FR","latitude":"48.97648000","longitude":"2.87483000"},{"id":"41351","name":"Cr\u00e9teil","state_id":4796,"state_code":"IDF","country_id":75,"country_code":"FR","latitude":"48.79266000","longitude":"2.46569000"},{"id":"41307","name":"Crespi\u00e8res","state_id":4796,"state_code":"IDF","country_id":75,"country_code":"FR","latitude":"48.88317000","longitude":"1.92151000"},{"id":"41323","name":"Croissy-Beaubourg","state_id":4796,"state_code":"IDF","country_id":75,"country_code":"FR","latitude":"48.82830000","longitude":"2.66964000"},{"id":"41324","name":"Croissy-sur-Seine","state_id":4796,"state_code":"IDF","country_id":75,"country_code":"FR","latitude":"48.87925000","longitude":"2.13836000"},{"id":"41327","name":"Crosne","state_id":4796,"state_code":"IDF","country_id":75,"country_code":"FR","latitude":"48.71921000","longitude":"2.45728000"},{"id":"41333","name":"Crouy-sur-Ourcq","state_id":4796,"state_code":"IDF","country_id":75,"country_code":"FR","latitude":"49.08980000","longitude":"3.07530000"},{"id":"41415","name":"Dammarie-les-Lys","state_id":4796,"state_code":"IDF","country_id":75,"country_code":"FR","latitude":"48.51667000","longitude":"2.65000000"},{"id":"41416","name":"Dammartin-en-Go\u00eble","state_id":4796,"state_code":"IDF","country_id":75,"country_code":"FR","latitude":"49.05423000","longitude":"2.67777000"},{"id":"41420","name":"Dampierre-en-Yvelines","state_id":4796,"state_code":"IDF","country_id":75,"country_code":"FR","latitude":"48.70000000","longitude":"1.98333000"},{"id":"41423","name":"Dampmart","state_id":4796,"state_code":"IDF","country_id":75,"country_code":"FR","latitude":"48.88854000","longitude":"2.74095000"},{"id":"41616","name":"D\u00e9partement de l'Essonne","state_id":4796,"state_code":"IDF","country_id":75,"country_code":"FR","latitude":"48.50000000","longitude":"2.25000000"},{"id":"41646","name":"D\u00e9partement du Val-d\u2019Oise","state_id":4796,"state_code":"IDF","country_id":75,"country_code":"FR","latitude":"49.07891000","longitude":"2.17673000"},{"id":"41459","name":"Deuil-la-Barre","state_id":4796,"state_code":"IDF","country_id":75,"country_code":"FR","latitude":"48.97674000","longitude":"2.32722000"},{"id":"41521","name":"Domont","state_id":4796,"state_code":"IDF","country_id":75,"country_code":"FR","latitude":"49.02782000","longitude":"2.32638000"},{"id":"41532","name":"Donnemarie-Dontilly","state_id":4796,"state_code":"IDF","country_id":75,"country_code":"FR","latitude":"48.47719000","longitude":"3.13162000"},{"id":"41551","name":"Doue","state_id":4796,"state_code":"IDF","country_id":75,"country_code":"FR","latitude":"48.86641000","longitude":"3.16269000"},{"id":"41554","name":"Dourdan","state_id":4796,"state_code":"IDF","country_id":75,"country_code":"FR","latitude":"48.52772000","longitude":"2.01113000"},{"id":"41568","name":"Drancy","state_id":4796,"state_code":"IDF","country_id":75,"country_code":"FR","latitude":"48.92578000","longitude":"2.44533000"},{"id":"41570","name":"Draveil","state_id":4796,"state_code":"IDF","country_id":75,"country_code":"FR","latitude":"48.68466000","longitude":"2.41418000"},{"id":"41586","name":"Dugny","state_id":4796,"state_code":"IDF","country_id":75,"country_code":"FR","latitude":"48.95371000","longitude":"2.41734000"},{"id":"41651","name":"Eaubonne","state_id":4796,"state_code":"IDF","country_id":75,"country_code":"FR","latitude":"48.99712000","longitude":"2.28249000"},{"id":"41658","name":"Ecquevilly","state_id":4796,"state_code":"IDF","country_id":75,"country_code":"FR","latitude":"48.95192000","longitude":"1.92338000"},{"id":"41669","name":"Enghien-les-Bains","state_id":4796,"state_code":"IDF","country_id":75,"country_code":"FR","latitude":"48.96667000","longitude":"2.31667000"},{"id":"41672","name":"Ennery","state_id":4796,"state_code":"IDF","country_id":75,"country_code":"FR","latitude":"49.07505000","longitude":"2.10599000"},{"id":"41696","name":"Ermont","state_id":4796,"state_code":"IDF","country_id":75,"country_code":"FR","latitude":"48.99004000","longitude":"2.25804000"},{"id":"41704","name":"Esbly","state_id":4796,"state_code":"IDF","country_id":75,"country_code":"FR","latitude":"48.90520000","longitude":"2.81235000"},{"id":"41773","name":"Faremoutiers","state_id":4796,"state_code":"IDF","country_id":75,"country_code":"FR","latitude":"48.79962000","longitude":"2.99607000"},{"id":"41786","name":"Favi\u00e8res","state_id":4796,"state_code":"IDF","country_id":75,"country_code":"FR","latitude":"48.76324000","longitude":"2.77470000"},{"id":"42007","name":"F\u00e9rolles-Attilly","state_id":4796,"state_code":"IDF","country_id":75,"country_code":"FR","latitude":"48.73184000","longitude":"2.63088000"},{"id":"41806","name":"Ferri\u00e8res-en-Brie","state_id":4796,"state_code":"IDF","country_id":75,"country_code":"FR","latitude":"48.82352000","longitude":"2.70664000"},{"id":"41810","name":"Feucherolles","state_id":4796,"state_code":"IDF","country_id":75,"country_code":"FR","latitude":"48.87002000","longitude":"1.97402000"},{"id":"41847","name":"Fleury-M\u00e9rogis","state_id":4796,"state_code":"IDF","country_id":75,"country_code":"FR","latitude":"48.63730000","longitude":"2.36378000"},{"id":"41854","name":"Flins-sur-Seine","state_id":4796,"state_code":"IDF","country_id":75,"country_code":"FR","latitude":"48.96523000","longitude":"1.87314000"},{"id":"41870","name":"Follainville-Dennemont","state_id":4796,"state_code":"IDF","country_id":75,"country_code":"FR","latitude":"49.02194000","longitude":"1.71331000"},{"id":"41887","name":"Fontainebleau","state_id":4796,"state_code":"IDF","country_id":75,"country_code":"FR","latitude":"48.40908000","longitude":"2.70177000"},{"id":"41896","name":"Fontenay-aux-Roses","state_id":4796,"state_code":"IDF","country_id":75,"country_code":"FR","latitude":"48.79325000","longitude":"2.29275000"},{"id":"41897","name":"Fontenay-en-Parisis","state_id":4796,"state_code":"IDF","country_id":75,"country_code":"FR","latitude":"49.05371000","longitude":"2.45156000"},{"id":"41901","name":"Fontenay-l\u00e8s-Briis","state_id":4796,"state_code":"IDF","country_id":75,"country_code":"FR","latitude":"48.61962000","longitude":"2.15276000"},{"id":"41899","name":"Fontenay-le-Fleury","state_id":4796,"state_code":"IDF","country_id":75,"country_code":"FR","latitude":"48.81253000","longitude":"2.04863000"},{"id":"41902","name":"Fontenay-sous-Bois","state_id":4796,"state_code":"IDF","country_id":75,"country_code":"FR","latitude":"48.85442000","longitude":"2.48268000"},{"id":"41895","name":"Fontenay-Tr\u00e9signy","state_id":4796,"state_code":"IDF","country_id":75,"country_code":"FR","latitude":"48.70647000","longitude":"2.87047000"},{"id":"41912","name":"Forges-les-Bains","state_id":4796,"state_code":"IDF","country_id":75,"country_code":"FR","latitude":"48.62942000","longitude":"2.10264000"},{"id":"41920","name":"Fosses","state_id":4796,"state_code":"IDF","country_id":75,"country_code":"FR","latitude":"49.09808000","longitude":"2.50957000"},{"id":"41939","name":"Fourqueux","state_id":4796,"state_code":"IDF","country_id":75,"country_code":"FR","latitude":"48.88693000","longitude":"2.06367000"},{"id":"41949","name":"Franconville","state_id":4796,"state_code":"IDF","country_id":75,"country_code":"FR","latitude":"48.98333000","longitude":"2.23333000"},{"id":"41987","name":"Fr\u00e9pillon","state_id":4796,"state_code":"IDF","country_id":75,"country_code":"FR","latitude":"49.05216000","longitude":"2.20528000"},{"id":"41956","name":"Freneuse","state_id":4796,"state_code":"IDF","country_id":75,"country_code":"FR","latitude":"49.04832000","longitude":"1.60168000"},{"id":"41958","name":"Fresnes","state_id":4796,"state_code":"IDF","country_id":75,"country_code":"FR","latitude":"48.75568000","longitude":"2.32241000"},{"id":"41990","name":"Fublaines","state_id":4796,"state_code":"IDF","country_id":75,"country_code":"FR","latitude":"48.93816000","longitude":"2.93655000"},{"id":"42012","name":"Gagny","state_id":4796,"state_code":"IDF","country_id":75,"country_code":"FR","latitude":"48.88333000","longitude":"2.53333000"},{"id":"42023","name":"Galluis","state_id":4796,"state_code":"IDF","country_id":75,"country_code":"FR","latitude":"48.79657000","longitude":"1.79414000"},{"id":"42025","name":"Gambais","state_id":4796,"state_code":"IDF","country_id":75,"country_code":"FR","latitude":"48.77351000","longitude":"1.67196000"},{"id":"42032","name":"Garanci\u00e8res","state_id":4796,"state_code":"IDF","country_id":75,"country_code":"FR","latitude":"48.82271000","longitude":"1.75512000"},{"id":"42034","name":"Garches","state_id":4796,"state_code":"IDF","country_id":75,"country_code":"FR","latitude":"48.84226000","longitude":"2.18232000"},{"id":"42042","name":"Gargenville","state_id":4796,"state_code":"IDF","country_id":75,"country_code":"FR","latitude":"48.98802000","longitude":"1.81176000"},{"id":"42043","name":"Garges-l\u00e8s-Gonesse","state_id":4796,"state_code":"IDF","country_id":75,"country_code":"FR","latitude":"48.96791000","longitude":"2.39781000"},{"id":"42056","name":"Gazeran","state_id":4796,"state_code":"IDF","country_id":75,"country_code":"FR","latitude":"48.63264000","longitude":"1.77149000"},{"id":"42068","name":"Gennevilliers","state_id":4796,"state_code":"IDF","country_id":75,"country_code":"FR","latitude":"48.93333000","longitude":"2.30000000"},{"id":"42070","name":"Gentilly","state_id":4796,"state_code":"IDF","country_id":75,"country_code":"FR","latitude":"48.81294000","longitude":"2.34170000"},{"id":"42089","name":"Gif-sur-Yvette","state_id":4796,"state_code":"IDF","country_id":75,"country_code":"FR","latitude":"48.68333000","longitude":"2.13333000"},{"id":"42120","name":"Gometz-la-Ville","state_id":4796,"state_code":"IDF","country_id":75,"country_code":"FR","latitude":"48.67219000","longitude":"2.12868000"},{"id":"42121","name":"Gometz-le-Ch\u00e2tel","state_id":4796,"state_code":"IDF","country_id":75,"country_code":"FR","latitude":"48.67837000","longitude":"2.13792000"},{"id":"42129","name":"Gonesse","state_id":4796,"state_code":"IDF","country_id":75,"country_code":"FR","latitude":"48.98693000","longitude":"2.44892000"},{"id":"42142","name":"Gouaix","state_id":4796,"state_code":"IDF","country_id":75,"country_code":"FR","latitude":"48.48539000","longitude":"3.29336000"},{"id":"42153","name":"Gournay-sur-Marne","state_id":4796,"state_code":"IDF","country_id":75,"country_code":"FR","latitude":"48.86223000","longitude":"2.58452000"},{"id":"42154","name":"Goussainville","state_id":4796,"state_code":"IDF","country_id":75,"country_code":"FR","latitude":"49.01367000","longitude":"2.46595000"},{"id":"42155","name":"Gouvernes","state_id":4796,"state_code":"IDF","country_id":75,"country_code":"FR","latitude":"48.86007000","longitude":"2.69074000"},{"id":"42202","name":"Gretz-Armainvilliers","state_id":4796,"state_code":"IDF","country_id":75,"country_code":"FR","latitude":"48.74120000","longitude":"2.73105000"},{"id":"42204","name":"Grez-sur-Loing","state_id":4796,"state_code":"IDF","country_id":75,"country_code":"FR","latitude":"48.31754000","longitude":"2.68848000"},{"id":"42212","name":"Grigny","state_id":4796,"state_code":"IDF","country_id":75,"country_code":"FR","latitude":"48.65412000","longitude":"2.39343000"},{"id":"42216","name":"Grisy-Suisnes","state_id":4796,"state_code":"IDF","country_id":75,"country_code":"FR","latitude":"48.68538000","longitude":"2.66781000"},{"id":"42226","name":"Groslay","state_id":4796,"state_code":"IDF","country_id":75,"country_code":"FR","latitude":"48.98561000","longitude":"2.34736000"},{"id":"42285","name":"Gu\u00e9rard","state_id":4796,"state_code":"IDF","country_id":75,"country_code":"FR","latitude":"48.82086000","longitude":"2.95969000"},{"id":"42244","name":"Guermantes","state_id":4796,"state_code":"IDF","country_id":75,"country_code":"FR","latitude":"48.85303000","longitude":"2.70495000"},{"id":"42246","name":"Guerville","state_id":4796,"state_code":"IDF","country_id":75,"country_code":"FR","latitude":"48.94388000","longitude":"1.73429000"},{"id":"42256","name":"Guignes","state_id":4796,"state_code":"IDF","country_id":75,"country_code":"FR","latitude":"48.63333000","longitude":"2.80000000"},{"id":"42276","name":"Guyancourt","state_id":4796,"state_code":"IDF","country_id":75,"country_code":"FR","latitude":"48.77334000","longitude":"2.07393000"},{"id":"42327","name":"Hardricourt","state_id":4796,"state_code":"IDF","country_id":75,"country_code":"FR","latitude":"49.00779000","longitude":"1.89389000"},{"id":"42356","name":"Hauts-de-Seine","state_id":4796,"state_code":"IDF","country_id":75,"country_code":"FR","latitude":"48.85000000","longitude":"2.19293000"},{"id":"42458","name":"H\u00e9ricy","state_id":4796,"state_code":"IDF","country_id":75,"country_code":"FR","latitude":"48.44848000","longitude":"2.76445000"},{"id":"42375","name":"Herblay","state_id":4796,"state_code":"IDF","country_id":75,"country_code":"FR","latitude":"48.98994000","longitude":"2.16990000"},{"id":"42424","name":"Houdan","state_id":4796,"state_code":"IDF","country_id":75,"country_code":"FR","latitude":"48.79044000","longitude":"1.60007000"},{"id":"42426","name":"Houilles","state_id":4796,"state_code":"IDF","country_id":75,"country_code":"FR","latitude":"48.92161000","longitude":"2.19263000"},{"id":"42474","name":"Igny","state_id":4796,"state_code":"IDF","country_id":75,"country_code":"FR","latitude":"48.74437000","longitude":"2.22428000"},{"id":"42506","name":"Issou","state_id":4796,"state_code":"IDF","country_id":75,"country_code":"FR","latitude":"48.98994000","longitude":"1.79292000"},{"id":"42508","name":"Issy-les-Moulineaux","state_id":4796,"state_code":"IDF","country_id":75,"country_code":"FR","latitude":"48.82104000","longitude":"2.27718000"},{"id":"42514","name":"Itteville","state_id":4796,"state_code":"IDF","country_id":75,"country_code":"FR","latitude":"48.51536000","longitude":"2.34377000"},{"id":"42517","name":"Ivry-sur-Seine","state_id":4796,"state_code":"IDF","country_id":75,"country_code":"FR","latitude":"48.81568000","longitude":"2.38487000"},{"id":"42528","name":"Janville-sur-Juine","state_id":4796,"state_code":"IDF","country_id":75,"country_code":"FR","latitude":"48.51352000","longitude":"2.27064000"},{"id":"42554","name":"Joinville-le-Pont","state_id":4796,"state_code":"IDF","country_id":75,"country_code":"FR","latitude":"48.82538000","longitude":"2.47458000"},{"id":"42565","name":"Jouarre","state_id":4796,"state_code":"IDF","country_id":75,"country_code":"FR","latitude":"48.92661000","longitude":"3.13168000"},{"id":"42566","name":"Jouars-Pontchartrain","state_id":4796,"state_code":"IDF","country_id":75,"country_code":"FR","latitude":"48.78888000","longitude":"1.89898000"},{"id":"42574","name":"Jouy-en-Josas","state_id":4796,"state_code":"IDF","country_id":75,"country_code":"FR","latitude":"48.75909000","longitude":"2.16966000"},{"id":"42575","name":"Jouy-le-Ch\u00e2tel","state_id":4796,"state_code":"IDF","country_id":75,"country_code":"FR","latitude":"48.66651000","longitude":"3.13036000"},{"id":"42576","name":"Jouy-le-Moutier","state_id":4796,"state_code":"IDF","country_id":75,"country_code":"FR","latitude":"49.01068000","longitude":"2.04028000"},{"id":"42578","name":"Jouy-sur-Morin","state_id":4796,"state_code":"IDF","country_id":75,"country_code":"FR","latitude":"48.79500000","longitude":"3.27238000"},{"id":"42587","name":"Juilly","state_id":4796,"state_code":"IDF","country_id":75,"country_code":"FR","latitude":"49.01375000","longitude":"2.70563000"},{"id":"42601","name":"Juvisy-sur-Orge","state_id":4796,"state_code":"IDF","country_id":75,"country_code":"FR","latitude":"48.68333000","longitude":"2.38333000"},{"id":"42602","name":"Juziers","state_id":4796,"state_code":"IDF","country_id":75,"country_code":"FR","latitude":"48.99137000","longitude":"1.84760000"},{"id":"42626","name":"L'Ha\u00ff-les-Roses","state_id":4796,"state_code":"IDF","country_id":75,"country_code":"FR","latitude":"48.78333000","longitude":"2.33333000"},{"id":"42672","name":"La Celle-Saint-Cloud","state_id":4796,"state_code":"IDF","country_id":75,"country_code":"FR","latitude":"48.85029000","longitude":"2.14523000"},{"id":"42673","name":"La Celle-sur-Morin","state_id":4796,"state_code":"IDF","country_id":75,"country_code":"FR","latitude":"48.81146000","longitude":"2.96921000"},{"id":"42679","name":"La Chapelle-Gauthier","state_id":4796,"state_code":"IDF","country_id":75,"country_code":"FR","latitude":"48.54947000","longitude":"2.89776000"},{"id":"42698","name":"La Chapelle-la-Reine","state_id":4796,"state_code":"IDF","country_id":75,"country_code":"FR","latitude":"48.31813000","longitude":"2.57152000"},{"id":"42699","name":"La Chapelle-sur-Cr\u00e9cy","state_id":4796,"state_code":"IDF","country_id":75,"country_code":"FR","latitude":"48.85879000","longitude":"2.92597000"},{"id":"42716","name":"La Courneuve","state_id":4796,"state_code":"IDF","country_id":75,"country_code":"FR","latitude":"48.92805000","longitude":"2.39627000"},{"id":"42728","name":"La Defense","state_id":4796,"state_code":"IDF","country_id":75,"country_code":"FR","latitude":"48.89198000","longitude":"2.23881000"},{"id":"42736","name":"La Fert\u00e9-Alais","state_id":4796,"state_code":"IDF","country_id":75,"country_code":"FR","latitude":"48.48306000","longitude":"2.34802000"},{"id":"42738","name":"La Fert\u00e9-Gaucher","state_id":4796,"state_code":"IDF","country_id":75,"country_code":"FR","latitude":"48.78310000","longitude":"3.30678000"},{"id":"42743","name":"La Fert\u00e9-sous-Jouarre","state_id":4796,"state_code":"IDF","country_id":75,"country_code":"FR","latitude":"48.95140000","longitude":"3.12724000"},{"id":"42758","name":"La Frette-sur-Seine","state_id":4796,"state_code":"IDF","country_id":75,"country_code":"FR","latitude":"48.98057000","longitude":"2.17866000"},{"id":"42764","name":"La Garenne-Colombes","state_id":4796,"state_code":"IDF","country_id":75,"country_code":"FR","latitude":"48.90472000","longitude":"2.24690000"},{"id":"42773","name":"La Grande-Paroisse","state_id":4796,"state_code":"IDF","country_id":75,"country_code":"FR","latitude":"48.38682000","longitude":"2.90157000"},{"id":"42783","name":"La Houssaye-en-Brie","state_id":4796,"state_code":"IDF","country_id":75,"country_code":"FR","latitude":"48.75381000","longitude":"2.86552000"},{"id":"42824","name":"La Norville","state_id":4796,"state_code":"IDF","country_id":75,"country_code":"FR","latitude":"48.58243000","longitude":"2.26180000"},{"id":"42839","name":"La Queue-en-Brie","state_id":4796,"state_code":"IDF","country_id":75,"country_code":"FR","latitude":"48.78520000","longitude":"2.58112000"},{"id":"42840","name":"La Queue-les-Yvelines","state_id":4796,"state_code":"IDF","country_id":75,"country_code":"FR","latitude":"48.80000000","longitude":"1.76667000"},{"id":"42863","name":"La Rochette","state_id":4796,"state_code":"IDF","country_id":75,"country_code":"FR","latitude":"48.50882000","longitude":"2.66357000"},{"id":"42910","name":"La Verri\u00e8re","state_id":4796,"state_code":"IDF","country_id":75,"country_code":"FR","latitude":"48.75200000","longitude":"1.94649000"},{"id":"42914","name":"La Ville-du-Bois","state_id":4796,"state_code":"IDF","country_id":75,"country_code":"FR","latitude":"48.65521000","longitude":"2.26833000"},{"id":"42959","name":"Lagny-sur-Marne","state_id":4796,"state_code":"IDF","country_id":75,"country_code":"FR","latitude":"48.86667000","longitude":"2.71667000"},{"id":"43069","name":"Lardy","state_id":4796,"state_code":"IDF","country_id":75,"country_code":"FR","latitude":"48.51847000","longitude":"2.27360000"},{"id":"43692","name":"L\u00e9signy","state_id":4796,"state_code":"IDF","country_id":75,"country_code":"FR","latitude":"48.74374000","longitude":"2.61518000"},{"id":"43694","name":"L\u00e9vis-Saint-Nom","state_id":4796,"state_code":"IDF","country_id":75,"country_code":"FR","latitude":"48.71667000","longitude":"1.95000000"},{"id":"43708","name":"L\u2019\u00c9tang-la-Ville","state_id":4796,"state_code":"IDF","country_id":75,"country_code":"FR","latitude":"48.86954000","longitude":"2.05732000"},{"id":"43703","name":"L\u2019Isle-Adam","state_id":4796,"state_code":"IDF","country_id":75,"country_code":"FR","latitude":"49.10744000","longitude":"2.22818000"},{"id":"43131","name":"Le Blanc-Mesnil","state_id":4796,"state_code":"IDF","country_id":75,"country_code":"FR","latitude":"48.93872000","longitude":"2.46138000"},{"id":"43138","name":"Le Bourget","state_id":4796,"state_code":"IDF","country_id":75,"country_code":"FR","latitude":"48.93405000","longitude":"2.43584000"},{"id":"43169","name":"Le Ch\u00e2telet-en-Brie","state_id":4796,"state_code":"IDF","country_id":75,"country_code":"FR","latitude":"48.50695000","longitude":"2.79163000"},{"id":"43165","name":"Le Chesnay","state_id":4796,"state_code":"IDF","country_id":75,"country_code":"FR","latitude":"48.82220000","longitude":"2.12213000"},{"id":"43173","name":"Le Coudray-Montceaux","state_id":4796,"state_code":"IDF","country_id":75,"country_code":"FR","latitude":"48.56376000","longitude":"2.50013000"},{"id":"43208","name":"Le Kremlin-Bic\u00eatre","state_id":4796,"state_code":"IDF","country_id":75,"country_code":"FR","latitude":"48.81471000","longitude":"2.36073000"},{"id":"43239","name":"Le M\u00e9e-sur-Seine","state_id":4796,"state_code":"IDF","country_id":75,"country_code":"FR","latitude":"48.53157000","longitude":"2.62829000"},{"id":"43230","name":"Le Mesnil-le-Roi","state_id":4796,"state_code":"IDF","country_id":75,"country_code":"FR","latitude":"48.93825000","longitude":"2.12554000"},{"id":"43227","name":"Le Mesnil-Saint-Denis","state_id":4796,"state_code":"IDF","country_id":75,"country_code":"FR","latitude":"48.74485000","longitude":"1.95594000"},{"id":"43247","name":"Le Pecq","state_id":4796,"state_code":"IDF","country_id":75,"country_code":"FR","latitude":"48.89317000","longitude":"2.10371000"},{"id":"43249","name":"Le Perray-en-Yvelines","state_id":4796,"state_code":"IDF","country_id":75,"country_code":"FR","latitude":"48.69441000","longitude":"1.85643000"},{"id":"43250","name":"Le Perreux-sur-Marne","state_id":4796,"state_code":"IDF","country_id":75,"country_code":"FR","latitude":"48.85000000","longitude":"2.50000000"},{"id":"43257","name":"Le Pin","state_id":4796,"state_code":"IDF","country_id":75,"country_code":"FR","latitude":"48.91523000","longitude":"2.62841000"},{"id":"43264","name":"Le Plessis-Bouchard","state_id":4796,"state_code":"IDF","country_id":75,"country_code":"FR","latitude":"49.00000000","longitude":"2.23333000"},{"id":"43268","name":"Le Plessis-P\u00e2t\u00e9","state_id":4796,"state_code":"IDF","country_id":75,"country_code":"FR","latitude":"48.61078000","longitude":"2.32318000"},{"id":"43269","name":"Le Plessis-Robinson","state_id":4796,"state_code":"IDF","country_id":75,"country_code":"FR","latitude":"48.78889000","longitude":"2.27078000"},{"id":"43270","name":"Le Plessis-Tr\u00e9vise","state_id":4796,"state_code":"IDF","country_id":75,"country_code":"FR","latitude":"48.81074000","longitude":"2.57363000"},{"id":"43277","name":"Le Port-Marly","state_id":4796,"state_code":"IDF","country_id":75,"country_code":"FR","latitude":"48.89016000","longitude":"2.11139000"},{"id":"43284","name":"Le Pr\u00e9-Saint-Gervais","state_id":4796,"state_code":"IDF","country_id":75,"country_code":"FR","latitude":"48.88549000","longitude":"2.40422000"},{"id":"43291","name":"Le Raincy","state_id":4796,"state_code":"IDF","country_id":75,"country_code":"FR","latitude":"48.89916000","longitude":"2.52298000"},{"id":"43312","name":"Le Thillay","state_id":4796,"state_code":"IDF","country_id":75,"country_code":"FR","latitude":"49.00659000","longitude":"2.47218000"},{"id":"43327","name":"Le Val-Saint-Germain","state_id":4796,"state_code":"IDF","country_id":75,"country_code":"FR","latitude":"48.56601000","longitude":"2.06471000"},{"id":"43337","name":"Le V\u00e9sinet","state_id":4796,"state_code":"IDF","country_id":75,"country_code":"FR","latitude":"48.89281000","longitude":"2.13308000"},{"id":"43360","name":"Les Alluets-le-Roi","state_id":4796,"state_code":"IDF","country_id":75,"country_code":"FR","latitude":"48.91379000","longitude":"1.91810000"},{"id":"43378","name":"Les Clayes-sous-Bois","state_id":4796,"state_code":"IDF","country_id":75,"country_code":"FR","latitude":"48.82206000","longitude":"1.98677000"},{"id":"43386","name":"Les Essarts-le-Roi","state_id":4796,"state_code":"IDF","country_id":75,"country_code":"FR","latitude":"48.71673000","longitude":"1.90089000"},{"id":"43398","name":"Les Lilas","state_id":4796,"state_code":"IDF","country_id":75,"country_code":"FR","latitude":"48.87992000","longitude":"2.42057000"},{"id":"43401","name":"Les Loges-en-Josas","state_id":4796,"state_code":"IDF","country_id":75,"country_code":"FR","latitude":"48.76377000","longitude":"2.14002000"},{"id":"43409","name":"Les Moli\u00e8res","state_id":4796,"state_code":"IDF","country_id":75,"country_code":"FR","latitude":"48.67306000","longitude":"2.06959000"},{"id":"43412","name":"Les Mureaux","state_id":4796,"state_code":"IDF","country_id":75,"country_code":"FR","latitude":"48.99173000","longitude":"1.90972000"},{"id":"43418","name":"Les Pavillons-sous-Bois","state_id":4796,"state_code":"IDF","country_id":75,"country_code":"FR","latitude":"48.90683000","longitude":"2.50648000"},{"id":"43432","name":"Les Ulis","state_id":4796,"state_code":"IDF","country_id":75,"country_code":"FR","latitude":"48.68167000","longitude":"2.16944000"},{"id":"43446","name":"Leudeville","state_id":4796,"state_code":"IDF","country_id":75,"country_code":"FR","latitude":"48.56591000","longitude":"2.32676000"},{"id":"43447","name":"Leuville-sur-Orge","state_id":4796,"state_code":"IDF","country_id":75,"country_code":"FR","latitude":"48.61730000","longitude":"2.26685000"},{"id":"43449","name":"Levallois-Perret","state_id":4796,"state_code":"IDF","country_id":75,"country_code":"FR","latitude":"48.89389000","longitude":"2.28864000"},{"id":"43472","name":"Lieusaint","state_id":4796,"state_code":"IDF","country_id":75,"country_code":"FR","latitude":"48.63476000","longitude":"2.54806000"},{"id":"43489","name":"Limay","state_id":4796,"state_code":"IDF","country_id":75,"country_code":"FR","latitude":"48.99553000","longitude":"1.74081000"},{"id":"43490","name":"Limeil-Br\u00e9vannes","state_id":4796,"state_code":"IDF","country_id":75,"country_code":"FR","latitude":"48.74480000","longitude":"2.48705000"},{"id":"43492","name":"Limetz-Villez","state_id":4796,"state_code":"IDF","country_id":75,"country_code":"FR","latitude":"49.06667000","longitude":"1.55000000"},{"id":"43495","name":"Limours","state_id":4796,"state_code":"IDF","country_id":75,"country_code":"FR","latitude":"48.64625000","longitude":"2.07688000"},{"id":"43500","name":"Linas","state_id":4796,"state_code":"IDF","country_id":75,"country_code":"FR","latitude":"48.63041000","longitude":"2.26266000"},{"id":"43510","name":"Lisses","state_id":4796,"state_code":"IDF","country_id":75,"country_code":"FR","latitude":"48.60222000","longitude":"2.42245000"},{"id":"43516","name":"Liverdy-en-Brie","state_id":4796,"state_code":"IDF","country_id":75,"country_code":"FR","latitude":"48.69987000","longitude":"2.77606000"},{"id":"43520","name":"Livry-Gargan","state_id":4796,"state_code":"IDF","country_id":75,"country_code":"FR","latitude":"48.91930000","longitude":"2.54305000"},{"id":"43521","name":"Livry-sur-Seine","state_id":4796,"state_code":"IDF","country_id":75,"country_code":"FR","latitude":"48.51771000","longitude":"2.67879000"},{"id":"43523","name":"Lizy-sur-Ourcq","state_id":4796,"state_code":"IDF","country_id":75,"country_code":"FR","latitude":"49.02454000","longitude":"3.02178000"},{"id":"43538","name":"Lognes","state_id":4796,"state_code":"IDF","country_id":75,"country_code":"FR","latitude":"48.83541000","longitude":"2.62998000"},{"id":"43561","name":"Longjumeau","state_id":4796,"state_code":"IDF","country_id":75,"country_code":"FR","latitude":"48.69503000","longitude":"2.30735000"},{"id":"43563","name":"Longnes","state_id":4796,"state_code":"IDF","country_id":75,"country_code":"FR","latitude":"48.92002000","longitude":"1.58705000"},{"id":"43565","name":"Longperrier","state_id":4796,"state_code":"IDF","country_id":75,"country_code":"FR","latitude":"49.04844000","longitude":"2.66571000"},{"id":"43566","name":"Longpont-sur-Orge","state_id":4796,"state_code":"IDF","country_id":75,"country_code":"FR","latitude":"48.64171000","longitude":"2.29278000"},{"id":"43572","name":"Longueville","state_id":4796,"state_code":"IDF","country_id":75,"country_code":"FR","latitude":"48.51503000","longitude":"3.24677000"},{"id":"43594","name":"Lorrez-le-Bocage-Pr\u00e9aux","state_id":4796,"state_code":"IDF","country_id":75,"country_code":"FR","latitude":"48.23333000","longitude":"2.90000000"},{"id":"43611","name":"Louveciennes","state_id":4796,"state_code":"IDF","country_id":75,"country_code":"FR","latitude":"48.86115000","longitude":"2.11463000"},{"id":"43618","name":"Louvres","state_id":4796,"state_code":"IDF","country_id":75,"country_code":"FR","latitude":"49.04460000","longitude":"2.50479000"},{"id":"43649","name":"Lumigny-Nesles-Ormeaux","state_id":4796,"state_code":"IDF","country_id":75,"country_code":"FR","latitude":"48.73333000","longitude":"2.95000000"},{"id":"43671","name":"Luzarches","state_id":4796,"state_code":"IDF","country_id":75,"country_code":"FR","latitude":"49.11319000","longitude":"2.42230000"},{"id":"43716","name":"Maffliers","state_id":4796,"state_code":"IDF","country_id":75,"country_code":"FR","latitude":"49.07758000","longitude":"2.30768000"},{"id":"43723","name":"Magnanville","state_id":4796,"state_code":"IDF","country_id":75,"country_code":"FR","latitude":"48.96798000","longitude":"1.67842000"},{"id":"43726","name":"Magny-en-Vexin","state_id":4796,"state_code":"IDF","country_id":75,"country_code":"FR","latitude":"49.15515000","longitude":"1.78669000"},{"id":"43728","name":"Magny-le-Hongre","state_id":4796,"state_code":"IDF","country_id":75,"country_code":"FR","latitude":"48.86325000","longitude":"2.81546000"},{"id":"43729","name":"Magny-les-Hameaux","state_id":4796,"state_code":"IDF","country_id":75,"country_code":"FR","latitude":"48.74345000","longitude":"2.06154000"},{"id":"43737","name":"Maincy","state_id":4796,"state_code":"IDF","country_id":75,"country_code":"FR","latitude":"48.54977000","longitude":"2.70017000"},{"id":"43743","name":"Maisons-Alfort","state_id":4796,"state_code":"IDF","country_id":75,"country_code":"FR","latitude":"48.81171000","longitude":"2.43945000"},{"id":"43744","name":"Maisons-Laffitte","state_id":4796,"state_code":"IDF","country_id":75,"country_code":"FR","latitude":"48.95264000","longitude":"2.14521000"},{"id":"43745","name":"Maisse","state_id":4796,"state_code":"IDF","country_id":75,"country_code":"FR","latitude":"48.39525000","longitude":"2.37902000"},{"id":"43748","name":"Malakoff","state_id":4796,"state_code":"IDF","country_id":75,"country_code":"FR","latitude":"48.81999000","longitude":"2.29998000"},{"id":"43775","name":"Mandres-les-Roses","state_id":4796,"state_code":"IDF","country_id":75,"country_code":"FR","latitude":"48.70198000","longitude":"2.54662000"},{"id":"43784","name":"Mantes-la-Jolie","state_id":4796,"state_code":"IDF","country_id":75,"country_code":"FR","latitude":"48.99048000","longitude":"1.71670000"},{"id":"43785","name":"Mantes-la-Ville","state_id":4796,"state_code":"IDF","country_id":75,"country_code":"FR","latitude":"48.97374000","longitude":"1.70253000"},{"id":"43815","name":"Marcoussis","state_id":4796,"state_code":"IDF","country_id":75,"country_code":"FR","latitude":"48.64026000","longitude":"2.23858000"},{"id":"43820","name":"Mareil-Marly","state_id":4796,"state_code":"IDF","country_id":75,"country_code":"FR","latitude":"48.88213000","longitude":"2.07351000"},{"id":"43821","name":"Mareil-sur-Mauldre","state_id":4796,"state_code":"IDF","country_id":75,"country_code":"FR","latitude":"48.89521000","longitude":"1.86870000"},{"id":"43827","name":"Mareuil-l\u00e8s-Meaux","state_id":4796,"state_code":"IDF","country_id":75,"country_code":"FR","latitude":"48.92648000","longitude":"2.86134000"},{"id":"43834","name":"Margency","state_id":4796,"state_code":"IDF","country_id":75,"country_code":"FR","latitude":"49.00000000","longitude":"2.30000000"},{"id":"43846","name":"Marines","state_id":4796,"state_code":"IDF","country_id":75,"country_code":"FR","latitude":"49.14485000","longitude":"1.98226000"},{"id":"43850","name":"Marles-en-Brie","state_id":4796,"state_code":"IDF","country_id":75,"country_code":"FR","latitude":"48.72783000","longitude":"2.88003000"},{"id":"43855","name":"Marly-la-Ville","state_id":4796,"state_code":"IDF","country_id":75,"country_code":"FR","latitude":"49.08201000","longitude":"2.50347000"},{"id":"43856","name":"Marly-le-Roi","state_id":4796,"state_code":"IDF","country_id":75,"country_code":"FR","latitude":"48.86667000","longitude":"2.08333000"},{"id":"43864","name":"Marnes-la-Coquette","state_id":4796,"state_code":"IDF","country_id":75,"country_code":"FR","latitude":"48.82732000","longitude":"2.17151000"},{"id":"43866","name":"Marolles-en-Hurepoix","state_id":4796,"state_code":"IDF","country_id":75,"country_code":"FR","latitude":"48.56232000","longitude":"2.29885000"},{"id":"43868","name":"Marolles-sur-Seine","state_id":4796,"state_code":"IDF","country_id":75,"country_code":"FR","latitude":"48.38662000","longitude":"3.03562000"},{"id":"43923","name":"Mary-sur-Marne","state_id":4796,"state_code":"IDF","country_id":75,"country_code":"FR","latitude":"49.01591000","longitude":"3.02788000"},{"id":"43936","name":"Massy","state_id":4796,"state_code":"IDF","country_id":75,"country_code":"FR","latitude":"48.72692000","longitude":"2.28301000"},{"id":"43948","name":"Maule","state_id":4796,"state_code":"IDF","country_id":75,"country_code":"FR","latitude":"48.91056000","longitude":"1.85264000"},{"id":"43952","name":"Maurecourt","state_id":4796,"state_code":"IDF","country_id":75,"country_code":"FR","latitude":"48.99614000","longitude":"2.06155000"},{"id":"43955","name":"Maurepas","state_id":4796,"state_code":"IDF","country_id":75,"country_code":"FR","latitude":"48.76486000","longitude":"1.92923000"},{"id":"44457","name":"M\u00e9dan","state_id":4796,"state_code":"IDF","country_id":75,"country_code":"FR","latitude":"48.95539000","longitude":"1.99494000"},{"id":"44480","name":"M\u00e9r\u00e9","state_id":4796,"state_code":"IDF","country_id":75,"country_code":"FR","latitude":"48.78445000","longitude":"1.81247000"},{"id":"44482","name":"M\u00e9r\u00e9ville","state_id":4796,"state_code":"IDF","country_id":75,"country_code":"FR","latitude":"48.31476000","longitude":"2.08609000"},{"id":"44472","name":"M\u00e9riel","state_id":4796,"state_code":"IDF","country_id":75,"country_code":"FR","latitude":"49.07614000","longitude":"2.21054000"},{"id":"44478","name":"M\u00e9ry-sur-Oise","state_id":4796,"state_code":"IDF","country_id":75,"country_code":"FR","latitude":"49.05876000","longitude":"2.19113000"},{"id":"44490","name":"M\u00e9zi\u00e8res-sur-Seine","state_id":4796,"state_code":"IDF","country_id":75,"country_code":"FR","latitude":"48.96128000","longitude":"1.79245000"},{"id":"44491","name":"M\u00e9zy-sur-Seine","state_id":4796,"state_code":"IDF","country_id":75,"country_code":"FR","latitude":"49.00000000","longitude":"1.88333000"},{"id":"43983","name":"Meaux","state_id":4796,"state_code":"IDF","country_id":75,"country_code":"FR","latitude":"48.96014000","longitude":"2.87885000"},{"id":"43998","name":"Melun","state_id":4796,"state_code":"IDF","country_id":75,"country_code":"FR","latitude":"48.54570000","longitude":"2.65356000"},{"id":"44001","name":"Mennecy","state_id":4796,"state_code":"IDF","country_id":75,"country_code":"FR","latitude":"48.56903000","longitude":"2.44384000"},{"id":"44008","name":"Menucourt","state_id":4796,"state_code":"IDF","country_id":75,"country_code":"FR","latitude":"49.02841000","longitude":"1.98046000"},{"id":"44045","name":"Meudon","state_id":4796,"state_code":"IDF","country_id":75,"country_code":"FR","latitude":"48.81381000","longitude":"2.23500000"},{"id":"44046","name":"Meulan-en-Yvelines","state_id":4796,"state_code":"IDF","country_id":75,"country_code":"FR","latitude":"49.00768000","longitude":"1.90602000"},{"id":"44076","name":"Milly-la-For\u00eat","state_id":4796,"state_code":"IDF","country_id":75,"country_code":"FR","latitude":"48.40400000","longitude":"2.47015000"},{"id":"44106","name":"Mitry-Mory","state_id":4796,"state_code":"IDF","country_id":75,"country_code":"FR","latitude":"48.98333000","longitude":"2.61667000"},{"id":"44112","name":"Moigny-sur-\u00c9cole","state_id":4796,"state_code":"IDF","country_id":75,"country_code":"FR","latitude":"48.43262000","longitude":"2.45802000"},{"id":"44116","name":"Moisenay","state_id":4796,"state_code":"IDF","country_id":75,"country_code":"FR","latitude":"48.56266000","longitude":"2.73527000"},{"id":"44119","name":"Moisselles","state_id":4796,"state_code":"IDF","country_id":75,"country_code":"FR","latitude":"49.05000000","longitude":"2.33597000"},{"id":"44120","name":"Moissy-Cramayel","state_id":4796,"state_code":"IDF","country_id":75,"country_code":"FR","latitude":"48.62605000","longitude":"2.60125000"},{"id":"44335","name":"Mont\u00e9vrain","state_id":4796,"state_code":"IDF","country_id":75,"country_code":"FR","latitude":"48.87415000","longitude":"2.75114000"},{"id":"44210","name":"Montcourt-Fromonville","state_id":4796,"state_code":"IDF","country_id":75,"country_code":"FR","latitude":"48.30672000","longitude":"2.70460000"},{"id":"44222","name":"Montereau-Fault-Yonne","state_id":4796,"state_code":"IDF","country_id":75,"country_code":"FR","latitude":"48.38333000","longitude":"2.95000000"},{"id":"44228","name":"Montesson","state_id":4796,"state_code":"IDF","country_id":75,"country_code":"FR","latitude":"48.90924000","longitude":"2.13754000"},{"id":"44235","name":"Montfermeil","state_id":4796,"state_code":"IDF","country_id":75,"country_code":"FR","latitude":"48.89820000","longitude":"2.57913000"},{"id":"44246","name":"Montgeron","state_id":4796,"state_code":"IDF","country_id":75,"country_code":"FR","latitude":"48.70543000","longitude":"2.45039000"},{"id":"44251","name":"Monthyon","state_id":4796,"state_code":"IDF","country_id":75,"country_code":"FR","latitude":"49.00753000","longitude":"2.82610000"},{"id":"44261","name":"Montigny-l\u00e8s-Cormeilles","state_id":4796,"state_code":"IDF","country_id":75,"country_code":"FR","latitude":"48.98201000","longitude":"2.20035000"},{"id":"44260","name":"Montigny-le-Bretonneux","state_id":4796,"state_code":"IDF","country_id":75,"country_code":"FR","latitude":"48.76636000","longitude":"2.03405000"},{"id":"44257","name":"Montigny-Lencoup","state_id":4796,"state_code":"IDF","country_id":75,"country_code":"FR","latitude":"48.45162000","longitude":"3.06503000"},{"id":"44263","name":"Montigny-sur-Loing","state_id":4796,"state_code":"IDF","country_id":75,"country_code":"FR","latitude":"48.33575000","longitude":"2.74423000"},{"id":"44271","name":"Montlh\u00e9ry","state_id":4796,"state_code":"IDF","country_id":75,"country_code":"FR","latitude":"48.64004000","longitude":"2.27465000"},{"id":"44273","name":"Montlignon","state_id":4796,"state_code":"IDF","country_id":75,"country_code":"FR","latitude":"49.00636000","longitude":"2.28705000"},{"id":"44279","name":"Montmagny","state_id":4796,"state_code":"IDF","country_id":75,"country_code":"FR","latitude":"48.97338000","longitude":"2.34688000"},{"id":"44287","name":"Montmorency","state_id":4796,"state_code":"IDF","country_id":75,"country_code":"FR","latitude":"48.98826000","longitude":"2.34340000"},{"id":"44307","name":"Montreuil","state_id":4796,"state_code":"IDF","country_id":75,"country_code":"FR","latitude":"48.86415000","longitude":"2.44322000"},{"id":"44322","name":"Montrouge","state_id":4796,"state_code":"IDF","country_id":75,"country_code":"FR","latitude":"48.81620000","longitude":"2.31393000"},{"id":"44323","name":"Montry","state_id":4796,"state_code":"IDF","country_id":75,"country_code":"FR","latitude":"48.88409000","longitude":"2.82915000"},{"id":"44328","name":"Montsoult","state_id":4796,"state_code":"IDF","country_id":75,"country_code":"FR","latitude":"49.06942000","longitude":"2.31966000"},{"id":"44338","name":"Morainvilliers","state_id":4796,"state_code":"IDF","country_id":75,"country_code":"FR","latitude":"48.92902000","longitude":"1.93621000"},{"id":"44341","name":"Morangis","state_id":4796,"state_code":"IDF","country_id":75,"country_code":"FR","latitude":"48.70383000","longitude":"2.33908000"},{"id":"44349","name":"Moret-sur-Loing","state_id":4796,"state_code":"IDF","country_id":75,"country_code":"FR","latitude":"48.37239000","longitude":"2.81713000"},{"id":"44354","name":"Morigny-Champigny","state_id":4796,"state_code":"IDF","country_id":75,"country_code":"FR","latitude":"48.44685000","longitude":"2.18351000"},{"id":"44358","name":"Mormant","state_id":4796,"state_code":"IDF","country_id":75,"country_code":"FR","latitude":"48.60901000","longitude":"2.89025000"},{"id":"44365","name":"Morsang-sur-Orge","state_id":4796,"state_code":"IDF","country_id":75,"country_code":"FR","latitude":"48.66181000","longitude":"2.35338000"},{"id":"44373","name":"Mortcerf","state_id":4796,"state_code":"IDF","country_id":75,"country_code":"FR","latitude":"48.78879000","longitude":"2.91692000"},{"id":"44403","name":"Mouroux","state_id":4796,"state_code":"IDF","country_id":75,"country_code":"FR","latitude":"48.82263000","longitude":"3.03879000"},{"id":"44404","name":"Mours","state_id":4796,"state_code":"IDF","country_id":75,"country_code":"FR","latitude":"49.13077000","longitude":"2.26761000"},{"id":"44408","name":"Moussy-le-Neuf","state_id":4796,"state_code":"IDF","country_id":75,"country_code":"FR","latitude":"49.06427000","longitude":"2.60252000"},{"id":"44409","name":"Moussy-le-Vieux","state_id":4796,"state_code":"IDF","country_id":75,"country_code":"FR","latitude":"49.04712000","longitude":"2.62493000"},{"id":"44502","name":"Nandy","state_id":4796,"state_code":"IDF","country_id":75,"country_code":"FR","latitude":"48.58301000","longitude":"2.56292000"},{"id":"44503","name":"Nangis","state_id":4796,"state_code":"IDF","country_id":75,"country_code":"FR","latitude":"48.55535000","longitude":"3.01306000"},{"id":"44505","name":"Nanterre","state_id":4796,"state_code":"IDF","country_id":75,"country_code":"FR","latitude":"48.89198000","longitude":"2.20675000"},{"id":"44510","name":"Nanteuil-l\u00e8s-Meaux","state_id":4796,"state_code":"IDF","country_id":75,"country_code":"FR","latitude":"48.92940000","longitude":"2.89594000"},{"id":"44528","name":"Neauphle-le-Ch\u00e2teau","state_id":4796,"state_code":"IDF","country_id":75,"country_code":"FR","latitude":"48.81418000","longitude":"1.90567000"},{"id":"44529","name":"Nemours","state_id":4796,"state_code":"IDF","country_id":75,"country_code":"FR","latitude":"48.27511000","longitude":"2.69078000"},{"id":"44535","name":"Nesles-la-Vall\u00e9e","state_id":4796,"state_code":"IDF","country_id":75,"country_code":"FR","latitude":"49.13202000","longitude":"2.17099000"},{"id":"44545","name":"Neufmoutiers-en-Brie","state_id":4796,"state_code":"IDF","country_id":75,"country_code":"FR","latitude":"48.76882000","longitude":"2.83156000"},{"id":"44546","name":"Neuilly-Plaisance","state_id":4796,"state_code":"IDF","country_id":75,"country_code":"FR","latitude":"48.86342000","longitude":"2.50600000"},{"id":"44552","name":"Neuilly-sur-Marne","state_id":4796,"state_code":"IDF","country_id":75,"country_code":"FR","latitude":"48.85373000","longitude":"2.54903000"},{"id":"44553","name":"Neuilly-sur-Seine","state_id":4796,"state_code":"IDF","country_id":75,"country_code":"FR","latitude":"48.88460000","longitude":"2.26965000"},{"id":"44571","name":"Neuville-sur-Oise","state_id":4796,"state_code":"IDF","country_id":75,"country_code":"FR","latitude":"49.01667000","longitude":"2.06667000"},{"id":"44615","name":"Nogent-sur-Marne","state_id":4796,"state_code":"IDF","country_id":75,"country_code":"FR","latitude":"48.83669000","longitude":"2.48255000"},{"id":"44626","name":"Noiseau","state_id":4796,"state_code":"IDF","country_id":75,"country_code":"FR","latitude":"48.77589000","longitude":"2.54892000"},{"id":"44627","name":"Noisiel","state_id":4796,"state_code":"IDF","country_id":75,"country_code":"FR","latitude":"48.84868000","longitude":"2.62435000"},{"id":"44628","name":"Noisy-le-Grand","state_id":4796,"state_code":"IDF","country_id":75,"country_code":"FR","latitude":"48.84979000","longitude":"2.56266000"},{"id":"44629","name":"Noisy-le-Roi","state_id":4796,"state_code":"IDF","country_id":75,"country_code":"FR","latitude":"48.84445000","longitude":"2.06345000"},{"id":"44630","name":"Noisy-le-Sec","state_id":4796,"state_code":"IDF","country_id":75,"country_code":"FR","latitude":"48.89148000","longitude":"2.46451000"},{"id":"44631","name":"Noisy-sur-\u00c9cole","state_id":4796,"state_code":"IDF","country_id":75,"country_code":"FR","latitude":"48.36701000","longitude":"2.50804000"},{"id":"44681","name":"Nozay","state_id":4796,"state_code":"IDF","country_id":75,"country_code":"FR","latitude":"48.65921000","longitude":"2.24151000"},{"id":"44725","name":"Oinville-sur-Montcient","state_id":4796,"state_code":"IDF","country_id":75,"country_code":"FR","latitude":"49.02722000","longitude":"1.84928000"},{"id":"44729","name":"Oissery","state_id":4796,"state_code":"IDF","country_id":75,"country_code":"FR","latitude":"49.07047000","longitude":"2.81819000"},{"id":"44734","name":"Ollainville","state_id":4796,"state_code":"IDF","country_id":75,"country_code":"FR","latitude":"48.59081000","longitude":"2.21936000"},{"id":"44762","name":"Orgerus","state_id":4796,"state_code":"IDF","country_id":75,"country_code":"FR","latitude":"48.83851000","longitude":"1.70132000"},{"id":"44763","name":"Orgeval","state_id":4796,"state_code":"IDF","country_id":75,"country_code":"FR","latitude":"48.92162000","longitude":"1.97790000"},{"id":"44773","name":"Orly","state_id":4796,"state_code":"IDF","country_id":75,"country_code":"FR","latitude":"48.74792000","longitude":"2.39253000"},{"id":"44777","name":"Ormesson-sur-Marne","state_id":4796,"state_code":"IDF","country_id":75,"country_code":"FR","latitude":"48.78630000","longitude":"2.54471000"},{"id":"44778","name":"Ormoy","state_id":4796,"state_code":"IDF","country_id":75,"country_code":"FR","latitude":"48.57489000","longitude":"2.45206000"},{"id":"44784","name":"Orsay","state_id":4796,"state_code":"IDF","country_id":75,"country_code":"FR","latitude":"48.69572000","longitude":"2.18727000"},{"id":"44789","name":"Osny","state_id":4796,"state_code":"IDF","country_id":75,"country_code":"FR","latitude":"49.07010000","longitude":"2.06277000"},{"id":"44796","name":"Othis","state_id":4796,"state_code":"IDF","country_id":75,"country_code":"FR","latitude":"49.07387000","longitude":"2.67502000"},{"id":"44821","name":"Ozoir-la-Ferri\u00e8re","state_id":4796,"state_code":"IDF","country_id":75,"country_code":"FR","latitude":"48.76699000","longitude":"2.66871000"},{"id":"44822","name":"Ozouer-le-Voulgis","state_id":4796,"state_code":"IDF","country_id":75,"country_code":"FR","latitude":"48.66012000","longitude":"2.77409000"},{"id":"44832","name":"Palaiseau","state_id":4796,"state_code":"IDF","country_id":75,"country_code":"FR","latitude":"48.71828000","longitude":"2.24980000"},{"id":"44845","name":"Pantin","state_id":4796,"state_code":"IDF","country_id":75,"country_code":"FR","latitude":"48.89437000","longitude":"2.40935000"},{"id":"44847","name":"Paray-Vieille-Poste","state_id":4796,"state_code":"IDF","country_id":75,"country_code":"FR","latitude":"48.71402000","longitude":"2.36283000"},{"id":"44856","name":"Paris","state_id":4796,"state_code":"IDF","country_id":75,"country_code":"FR","latitude":"48.85340000","longitude":"2.34860000"},{"id":"44857","name":"Parmain","state_id":4796,"state_code":"IDF","country_id":75,"country_code":"FR","latitude":"49.11247000","longitude":"2.21487000"},{"id":"45358","name":"P\u00e9rigny","state_id":4796,"state_code":"IDF","country_id":75,"country_code":"FR","latitude":"48.69656000","longitude":"2.55537000"},{"id":"44909","name":"Persan","state_id":4796,"state_code":"IDF","country_id":75,"country_code":"FR","latitude":"49.15335000","longitude":"2.27218000"},{"id":"44910","name":"Perthes","state_id":4796,"state_code":"IDF","country_id":75,"country_code":"FR","latitude":"48.47821000","longitude":"2.55509000"},{"id":"44955","name":"Pierrefitte-sur-Seine","state_id":4796,"state_code":"IDF","country_id":75,"country_code":"FR","latitude":"48.96691000","longitude":"2.36104000"},{"id":"44960","name":"Pierrelaye","state_id":4796,"state_code":"IDF","country_id":75,"country_code":"FR","latitude":"49.02110000","longitude":"2.15481000"},{"id":"44995","name":"Plaisir","state_id":4796,"state_code":"IDF","country_id":75,"country_code":"FR","latitude":"48.82319000","longitude":"1.95410000"},{"id":"45136","name":"Poissy","state_id":4796,"state_code":"IDF","country_id":75,"country_code":"FR","latitude":"48.92902000","longitude":"2.04952000"},{"id":"45151","name":"Pommeuse","state_id":4796,"state_code":"IDF","country_id":75,"country_code":"FR","latitude":"48.81667000","longitude":"3.01667000"},{"id":"45158","name":"Pomponne","state_id":4796,"state_code":"IDF","country_id":75,"country_code":"FR","latitude":"48.88130000","longitude":"2.68232000"},{"id":"45202","name":"Pontault-Combault","state_id":4796,"state_code":"IDF","country_id":75,"country_code":"FR","latitude":"48.79813000","longitude":"2.60676000"},{"id":"45203","name":"Pontcarr\u00e9","state_id":4796,"state_code":"IDF","country_id":75,"country_code":"FR","latitude":"48.79772000","longitude":"2.70508000"},{"id":"45210","name":"Ponthierry","state_id":4796,"state_code":"IDF","country_id":75,"country_code":"FR","latitude":"48.53366000","longitude":"2.54419000"},{"id":"45213","name":"Pontoise","state_id":4796,"state_code":"IDF","country_id":75,"country_code":"FR","latitude":"49.05000000","longitude":"2.10000000"},{"id":"45220","name":"Porcheville","state_id":4796,"state_code":"IDF","country_id":75,"country_code":"FR","latitude":"48.97254000","longitude":"1.77973000"},{"id":"45283","name":"Presles-en-Brie","state_id":4796,"state_code":"IDF","country_id":75,"country_code":"FR","latitude":"48.71527000","longitude":"2.74112000"},{"id":"45288","name":"Pringy","state_id":4796,"state_code":"IDF","country_id":75,"country_code":"FR","latitude":"48.51815000","longitude":"2.56333000"},{"id":"45298","name":"Provins","state_id":4796,"state_code":"IDF","country_id":75,"country_code":"FR","latitude":"48.55897000","longitude":"3.29939000"},{"id":"45321","name":"Puiseux-en-France","state_id":4796,"state_code":"IDF","country_id":75,"country_code":"FR","latitude":"49.05552000","longitude":"2.50035000"},{"id":"45332","name":"Pussay","state_id":4796,"state_code":"IDF","country_id":75,"country_code":"FR","latitude":"48.34908000","longitude":"1.99182000"},{"id":"45334","name":"Puteaux","state_id":4796,"state_code":"IDF","country_id":75,"country_code":"FR","latitude":"48.88341000","longitude":"2.23894000"},{"id":"45396","name":"Quincy-sous-S\u00e9nart","state_id":4796,"state_code":"IDF","country_id":75,"country_code":"FR","latitude":"48.67294000","longitude":"2.53419000"},{"id":"45395","name":"Quincy-Voisins","state_id":4796,"state_code":"IDF","country_id":75,"country_code":"FR","latitude":"48.90114000","longitude":"2.87559000"},{"id":"45423","name":"Rambouillet","state_id":4796,"state_code":"IDF","country_id":75,"country_code":"FR","latitude":"48.64374000","longitude":"1.82992000"},{"id":"45439","name":"Rebais","state_id":4796,"state_code":"IDF","country_id":75,"country_code":"FR","latitude":"48.84721000","longitude":"3.23232000"},{"id":"45524","name":"Ris-Orangis","state_id":4796,"state_code":"IDF","country_id":75,"country_code":"FR","latitude":"48.65110000","longitude":"2.41406000"},{"id":"45552","name":"Rocquencourt","state_id":4796,"state_code":"IDF","country_id":75,"country_code":"FR","latitude":"48.83783000","longitude":"2.10228000"},{"id":"45565","name":"Roissy-en-Brie","state_id":4796,"state_code":"IDF","country_id":75,"country_code":"FR","latitude":"48.79159000","longitude":"2.64747000"},{"id":"45566","name":"Roissy-en-France","state_id":4796,"state_code":"IDF","country_id":75,"country_code":"FR","latitude":"49.00443000","longitude":"2.51703000"},{"id":"45573","name":"Romainville","state_id":4796,"state_code":"IDF","country_id":75,"country_code":"FR","latitude":"48.88540000","longitude":"2.43482000"},{"id":"45606","name":"Rosny-sous-Bois","state_id":4796,"state_code":"IDF","country_id":75,"country_code":"FR","latitude":"48.87017000","longitude":"2.49910000"},{"id":"45607","name":"Rosny-sur-Seine","state_id":4796,"state_code":"IDF","country_id":75,"country_code":"FR","latitude":"48.99808000","longitude":"1.63130000"},{"id":"45652","name":"Rozay-en-Brie","state_id":4796,"state_code":"IDF","country_id":75,"country_code":"FR","latitude":"48.68333000","longitude":"2.95816000"},{"id":"45658","name":"Rubelles","state_id":4796,"state_code":"IDF","country_id":75,"country_code":"FR","latitude":"48.55327000","longitude":"2.67593000"},{"id":"45660","name":"Rueil-Malmaison","state_id":4796,"state_code":"IDF","country_id":75,"country_code":"FR","latitude":"48.87650000","longitude":"2.18967000"},{"id":"45675","name":"Rungis","state_id":4796,"state_code":"IDF","country_id":75,"country_code":"FR","latitude":"48.74607000","longitude":"2.35275000"},{"id":"46891","name":"Sa\u00e2cy-sur-Marne","state_id":4796,"state_code":"IDF","country_id":75,"country_code":"FR","latitude":"48.96210000","longitude":"3.21083000"},{"id":"45707","name":"Saclas","state_id":4796,"state_code":"IDF","country_id":75,"country_code":"FR","latitude":"48.35845000","longitude":"2.12349000"},{"id":"45708","name":"Saclay","state_id":4796,"state_code":"IDF","country_id":75,"country_code":"FR","latitude":"48.73260000","longitude":"2.16923000"},{"id":"45713","name":"Sagy","state_id":4796,"state_code":"IDF","country_id":75,"country_code":"FR","latitude":"49.04988000","longitude":"1.95216000"},{"id":"45777","name":"Saint-Arnoult-en-Yvelines","state_id":4796,"state_code":"IDF","country_id":75,"country_code":"FR","latitude":"48.57111000","longitude":"1.93950000"},{"id":"45793","name":"Saint-Augustin","state_id":4796,"state_code":"IDF","country_id":75,"country_code":"FR","latitude":"48.78333000","longitude":"3.03016000"},{"id":"45828","name":"Saint-Brice-sous-For\u00eat","state_id":4796,"state_code":"IDF","country_id":75,"country_code":"FR","latitude":"49.00132000","longitude":"2.35361000"},{"id":"45860","name":"Saint-Ch\u00e9ron","state_id":4796,"state_code":"IDF","country_id":75,"country_code":"FR","latitude":"48.55433000","longitude":"2.12403000"},{"id":"45868","name":"Saint-Cloud","state_id":4796,"state_code":"IDF","country_id":75,"country_code":"FR","latitude":"48.84598000","longitude":"2.20289000"},{"id":"45885","name":"Saint-Cyr-l\u2019\u00c9cole","state_id":4796,"state_code":"IDF","country_id":75,"country_code":"FR","latitude":"48.79865000","longitude":"2.06814000"},{"id":"45886","name":"Saint-Cyr-sous-Dourdan","state_id":4796,"state_code":"IDF","country_id":75,"country_code":"FR","latitude":"48.56667000","longitude":"2.03333000"},{"id":"45890","name":"Saint-Cyr-sur-Morin","state_id":4796,"state_code":"IDF","country_id":75,"country_code":"FR","latitude":"48.90664000","longitude":"3.18016000"},{"id":"45894","name":"Saint-Denis","state_id":4796,"state_code":"IDF","country_id":75,"country_code":"FR","latitude":"48.93564000","longitude":"2.35387000"},{"id":"45930","name":"Saint-Fargeau-Ponthierry","state_id":4796,"state_code":"IDF","country_id":75,"country_code":"FR","latitude":"48.55713000","longitude":"2.52840000"},{"id":"46005","name":"Saint-Germain-de-la-Grange","state_id":4796,"state_code":"IDF","country_id":75,"country_code":"FR","latitude":"48.83436000","longitude":"1.89884000"},{"id":"46015","name":"Saint-Germain-en-Laye","state_id":4796,"state_code":"IDF","country_id":75,"country_code":"FR","latitude":"48.89643000","longitude":"2.09040000"},{"id":"45996","name":"Saint-Germain-Laval","state_id":4796,"state_code":"IDF","country_id":75,"country_code":"FR","latitude":"48.39968000","longitude":"2.99781000"},{"id":"46018","name":"Saint-Germain-l\u00e8s-Arpajon","state_id":4796,"state_code":"IDF","country_id":75,"country_code":"FR","latitude":"48.59733000","longitude":"2.26481000"},{"id":"46019","name":"Saint-Germain-l\u00e8s-Corbeil","state_id":4796,"state_code":"IDF","country_id":75,"country_code":"FR","latitude":"48.62211000","longitude":"2.48775000"},{"id":"46022","name":"Saint-Germain-sur-Morin","state_id":4796,"state_code":"IDF","country_id":75,"country_code":"FR","latitude":"48.88257000","longitude":"2.85127000"},{"id":"46041","name":"Saint-Gratien","state_id":4796,"state_code":"IDF","country_id":75,"country_code":"FR","latitude":"48.97350000","longitude":"2.28729000"},{"id":"46118","name":"Saint-Jean-les-Deux-Jumeaux","state_id":4796,"state_code":"IDF","country_id":75,"country_code":"FR","latitude":"48.95140000","longitude":"3.01959000"},{"id":"46214","name":"Saint-L\u00e9ger-en-Yvelines","state_id":4796,"state_code":"IDF","country_id":75,"country_code":"FR","latitude":"48.72173000","longitude":"1.76638000"},{"id":"46193","name":"Saint-Leu-la-For\u00eat","state_id":4796,"state_code":"IDF","country_id":75,"country_code":"FR","latitude":"49.01667000","longitude":"2.25000000"},{"id":"46234","name":"Saint-Mamm\u00e8s","state_id":4796,"state_code":"IDF","country_id":75,"country_code":"FR","latitude":"48.38458000","longitude":"2.81578000"},{"id":"46236","name":"Saint-Mand\u00e9","state_id":4796,"state_code":"IDF","country_id":75,"country_code":"FR","latitude":"48.83864000","longitude":"2.41579000"},{"id":"46252","name":"Saint-Mard","state_id":4796,"state_code":"IDF","country_id":75,"country_code":"FR","latitude":"49.03701000","longitude":"2.69645000"},{"id":"46290","name":"Saint-Martin-du-Tertre","state_id":4796,"state_code":"IDF","country_id":75,"country_code":"FR","latitude":"49.10743000","longitude":"2.34533000"},{"id":"46310","name":"Saint-Maur-des-Foss\u00e9s","state_id":4796,"state_code":"IDF","country_id":75,"country_code":"FR","latitude":"48.79395000","longitude":"2.49323000"},{"id":"46311","name":"Saint-Maurice","state_id":4796,"state_code":"IDF","country_id":75,"country_code":"FR","latitude":"48.82182000","longitude":"2.42716000"},{"id":"46312","name":"Saint-Maurice-Montcouronne","state_id":4796,"state_code":"IDF","country_id":75,"country_code":"FR","latitude":"48.58288000","longitude":"2.12504000"},{"id":"46341","name":"Saint-Michel-sur-Orge","state_id":4796,"state_code":"IDF","country_id":75,"country_code":"FR","latitude":"48.63479000","longitude":"2.30831000"},{"id":"46372","name":"Saint-Nom-la-Bret\u00eache","state_id":4796,"state_code":"IDF","country_id":75,"country_code":"FR","latitude":"48.85942000","longitude":"2.02233000"},{"id":"46376","name":"Saint-Ouen","state_id":4796,"state_code":"IDF","country_id":75,"country_code":"FR","latitude":"48.90654000","longitude":"2.33339000"},{"id":"46383","name":"Saint-Ouen-l\u2019Aum\u00f4ne","state_id":4796,"state_code":"IDF","country_id":75,"country_code":"FR","latitude":"49.04353000","longitude":"2.12134000"},{"id":"46400","name":"Saint-Pathus","state_id":4796,"state_code":"IDF","country_id":75,"country_code":"FR","latitude":"49.07136000","longitude":"2.79886000"},{"id":"46441","name":"Saint-Pierre-du-Perray","state_id":4796,"state_code":"IDF","country_id":75,"country_code":"FR","latitude":"48.61064000","longitude":"2.49429000"},{"id":"46451","name":"Saint-Pierre-l\u00e8s-Nemours","state_id":4796,"state_code":"IDF","country_id":75,"country_code":"FR","latitude":"48.26733000","longitude":"2.67966000"},{"id":"46472","name":"Saint-Prix","state_id":4796,"state_code":"IDF","country_id":75,"country_code":"FR","latitude":"49.01667000","longitude":"2.26667000"},{"id":"46489","name":"Saint-Quentin-en-Yvelines","state_id":4796,"state_code":"IDF","country_id":75,"country_code":"FR","latitude":"48.77186000","longitude":"2.01891000"},{"id":"46514","name":"Saint-R\u00e9my-l\u00e8s-Chevreuse","state_id":4796,"state_code":"IDF","country_id":75,"country_code":"FR","latitude":"48.70708000","longitude":"2.07692000"},{"id":"46539","name":"Saint-Sauveur-sur-\u00c9cole","state_id":4796,"state_code":"IDF","country_id":75,"country_code":"FR","latitude":"48.49750000","longitude":"2.54711000"},{"id":"46558","name":"Saint-Soupplets","state_id":4796,"state_code":"IDF","country_id":75,"country_code":"FR","latitude":"49.03866000","longitude":"2.80723000"},{"id":"46579","name":"Saint-Thibault-des-Vignes","state_id":4796,"state_code":"IDF","country_id":75,"country_code":"FR","latitude":"48.87111000","longitude":"2.68041000"},{"id":"46623","name":"Saint-Vrain","state_id":4796,"state_code":"IDF","country_id":75,"country_code":"FR","latitude":"48.54302000","longitude":"2.33331000"},{"id":"46626","name":"Saint-Witz","state_id":4796,"state_code":"IDF","country_id":75,"country_code":"FR","latitude":"49.09100000","longitude":"2.57122000"},{"id":"46668","name":"Sainte-Colombe","state_id":4796,"state_code":"IDF","country_id":75,"country_code":"FR","latitude":"48.53047000","longitude":"3.25517000"},{"id":"46693","name":"Sainte-Genevi\u00e8ve-des-Bois","state_id":4796,"state_code":"IDF","country_id":75,"country_code":"FR","latitude":"48.64682000","longitude":"2.31965000"},{"id":"46736","name":"Saintry-sur-Seine","state_id":4796,"state_code":"IDF","country_id":75,"country_code":"FR","latitude":"48.59640000","longitude":"2.49515000"},{"id":"46737","name":"Saints","state_id":4796,"state_code":"IDF","country_id":75,"country_code":"FR","latitude":"48.76066000","longitude":"3.04645000"},{"id":"46754","name":"Salins","state_id":4796,"state_code":"IDF","country_id":75,"country_code":"FR","latitude":"48.42156000","longitude":"3.02130000"},{"id":"46773","name":"Sammeron","state_id":4796,"state_code":"IDF","country_id":75,"country_code":"FR","latitude":"48.94721000","longitude":"3.08333000"},{"id":"46774","name":"Samois-sur-Seine","state_id":4796,"state_code":"IDF","country_id":75,"country_code":"FR","latitude":"48.45251000","longitude":"2.75040000"},{"id":"46775","name":"Samoreau","state_id":4796,"state_code":"IDF","country_id":75,"country_code":"FR","latitude":"48.42946000","longitude":"2.75587000"},{"id":"46790","name":"Sannois","state_id":4796,"state_code":"IDF","country_id":75,"country_code":"FR","latitude":"48.96667000","longitude":"2.25000000"},{"id":"46798","name":"Santeny","state_id":4796,"state_code":"IDF","country_id":75,"country_code":"FR","latitude":"48.72730000","longitude":"2.57346000"},{"id":"46803","name":"Sarcelles","state_id":4796,"state_code":"IDF","country_id":75,"country_code":"FR","latitude":"48.99739000","longitude":"2.37821000"},{"id":"46822","name":"Sartrouville","state_id":4796,"state_code":"IDF","country_id":75,"country_code":"FR","latitude":"48.94820000","longitude":"2.19169000"},{"id":"46848","name":"Saulx-les-Chartreux","state_id":4796,"state_code":"IDF","country_id":75,"country_code":"FR","latitude":"48.69062000","longitude":"2.26727000"},{"id":"46880","name":"Savigny-le-Temple","state_id":4796,"state_code":"IDF","country_id":75,"country_code":"FR","latitude":"48.57409000","longitude":"2.58287000"},{"id":"46883","name":"Savigny-sur-Orge","state_id":4796,"state_code":"IDF","country_id":75,"country_code":"FR","latitude":"48.67677000","longitude":"2.34835000"},{"id":"47130","name":"S\u00e8vres","state_id":4796,"state_code":"IDF","country_id":75,"country_code":"FR","latitude":"48.82292000","longitude":"2.21757000"},{"id":"46895","name":"Sceaux","state_id":4796,"state_code":"IDF","country_id":75,"country_code":"FR","latitude":"48.77644000","longitude":"2.29026000"},{"id":"46927","name":"Seine-et-Marne","state_id":4796,"state_code":"IDF","country_id":75,"country_code":"FR","latitude":"48.64599000","longitude":"2.95905000"},{"id":"46925","name":"Seine-Port","state_id":4796,"state_code":"IDF","country_id":75,"country_code":"FR","latitude":"48.55743000","longitude":"2.55316000"},{"id":"46926","name":"Seine-Saint-Denis","state_id":4796,"state_code":"IDF","country_id":75,"country_code":"FR","latitude":"48.91421000","longitude":"2.47604000"},{"id":"46948","name":"Septeuil","state_id":4796,"state_code":"IDF","country_id":75,"country_code":"FR","latitude":"48.89245000","longitude":"1.68357000"},{"id":"46953","name":"Seraincourt","state_id":4796,"state_code":"IDF","country_id":75,"country_code":"FR","latitude":"49.03573000","longitude":"1.86703000"},{"id":"46968","name":"Serris","state_id":4796,"state_code":"IDF","country_id":75,"country_code":"FR","latitude":"48.84528000","longitude":"2.78611000"},{"id":"46973","name":"Servon","state_id":4796,"state_code":"IDF","country_id":75,"country_code":"FR","latitude":"48.71662000","longitude":"2.58737000"},{"id":"46977","name":"Seugy","state_id":4796,"state_code":"IDF","country_id":75,"country_code":"FR","latitude":"49.12182000","longitude":"2.39377000"},{"id":"46979","name":"Sevran","state_id":4796,"state_code":"IDF","country_id":75,"country_code":"FR","latitude":"48.94472000","longitude":"2.52746000"},{"id":"47016","name":"Soignolles-en-Brie","state_id":4796,"state_code":"IDF","country_id":75,"country_code":"FR","latitude":"48.65350000","longitude":"2.69968000"},{"id":"47019","name":"Soisy-sous-Montmorency","state_id":4796,"state_code":"IDF","country_id":75,"country_code":"FR","latitude":"48.98813000","longitude":"2.30156000"},{"id":"47021","name":"Soisy-sur-\u00c9cole","state_id":4796,"state_code":"IDF","country_id":75,"country_code":"FR","latitude":"48.47637000","longitude":"2.49301000"},{"id":"47020","name":"Soisy-sur-Seine","state_id":4796,"state_code":"IDF","country_id":75,"country_code":"FR","latitude":"48.64875000","longitude":"2.45223000"},{"id":"47023","name":"Solers","state_id":4796,"state_code":"IDF","country_id":75,"country_code":"FR","latitude":"48.65919000","longitude":"2.71617000"},{"id":"47037","name":"Sonchamp","state_id":4796,"state_code":"IDF","country_id":75,"country_code":"FR","latitude":"48.57590000","longitude":"1.87753000"},{"id":"47079","name":"Souppes-sur-Loing","state_id":4796,"state_code":"IDF","country_id":75,"country_code":"FR","latitude":"48.18297000","longitude":"2.73521000"},{"id":"47084","name":"Sourdun","state_id":4796,"state_code":"IDF","country_id":75,"country_code":"FR","latitude":"48.53688000","longitude":"3.35200000"},{"id":"47098","name":"Stains","state_id":4796,"state_code":"IDF","country_id":75,"country_code":"FR","latitude":"48.95000000","longitude":"2.38333000"},{"id":"47111","name":"Sucy-en-Brie","state_id":4796,"state_code":"IDF","country_id":75,"country_code":"FR","latitude":"48.76872000","longitude":"2.53474000"},{"id":"47120","name":"Suresnes","state_id":4796,"state_code":"IDF","country_id":75,"country_code":"FR","latitude":"48.87143000","longitude":"2.22929000"},{"id":"47123","name":"Survilliers","state_id":4796,"state_code":"IDF","country_id":75,"country_code":"FR","latitude":"49.09712000","longitude":"2.54449000"},{"id":"47153","name":"Tacoigni\u00e8res","state_id":4796,"state_code":"IDF","country_id":75,"country_code":"FR","latitude":"48.83619000","longitude":"1.67501000"},{"id":"47192","name":"Taverny","state_id":4796,"state_code":"IDF","country_id":75,"country_code":"FR","latitude":"49.02542000","longitude":"2.21691000"},{"id":"47225","name":"Thiais","state_id":4796,"state_code":"IDF","country_id":75,"country_code":"FR","latitude":"48.76496000","longitude":"2.39610000"},{"id":"47240","name":"Thiverval-Grignon","state_id":4796,"state_code":"IDF","country_id":75,"country_code":"FR","latitude":"48.84964000","longitude":"1.91729000"},{"id":"47244","name":"Thoiry","state_id":4796,"state_code":"IDF","country_id":75,"country_code":"FR","latitude":"48.86715000","longitude":"1.79760000"},{"id":"47246","name":"Thomery","state_id":4796,"state_code":"IDF","country_id":75,"country_code":"FR","latitude":"48.40723000","longitude":"2.78852000"},{"id":"47249","name":"Thorigny-sur-Marne","state_id":4796,"state_code":"IDF","country_id":75,"country_code":"FR","latitude":"48.88689000","longitude":"2.71806000"},{"id":"47278","name":"Tigery","state_id":4796,"state_code":"IDF","country_id":75,"country_code":"FR","latitude":"48.64257000","longitude":"2.50779000"},{"id":"47299","name":"Torcy","state_id":4796,"state_code":"IDF","country_id":75,"country_code":"FR","latitude":"48.85064000","longitude":"2.65078000"},{"id":"47318","name":"Touquin","state_id":4796,"state_code":"IDF","country_id":75,"country_code":"FR","latitude":"48.73498000","longitude":"3.01222000"},{"id":"47322","name":"Tournan-en-Brie","state_id":4796,"state_code":"IDF","country_id":75,"country_code":"FR","latitude":"48.74146000","longitude":"2.77200000"},{"id":"47349","name":"Trappes","state_id":4796,"state_code":"IDF","country_id":75,"country_code":"FR","latitude":"48.77413000","longitude":"2.01781000"},{"id":"47358","name":"Tremblay-en-France","state_id":4796,"state_code":"IDF","country_id":75,"country_code":"FR","latitude":"48.94956000","longitude":"2.56840000"},{"id":"47371","name":"Triel-sur-Seine","state_id":4796,"state_code":"IDF","country_id":75,"country_code":"FR","latitude":"48.97818000","longitude":"2.00743000"},{"id":"47375","name":"Trilport","state_id":4796,"state_code":"IDF","country_id":75,"country_code":"FR","latitude":"48.95685000","longitude":"2.95076000"},{"id":"47437","name":"Us","state_id":4796,"state_code":"IDF","country_id":75,"country_code":"FR","latitude":"49.10000000","longitude":"1.96667000"},