[{"id":"52147","name":"Aboso","state_id":49,"state_code":"WP","country_id":83,"country_code":"GH","latitude":"5.36073000","longitude":"-1.94856000"},{"id":"52160","name":"Axim","state_id":49,"state_code":"WP","country_id":83,"country_code":"GH","latitude":"4.86641000","longitude":"-2.24181000"},{"id":"52166","name":"Bibiani","state_id":49,"state_code":"WP","country_id":83,"country_code":"GH","latitude":"6.46346000","longitude":"-2.31938000"},{"id":"52197","name":"Prestea","state_id":49,"state_code":"WP","country_id":83,"country_code":"GH","latitude":"5.43385000","longitude":"-2.14295000"},{"id":"52201","name":"Sekondi-Takoradi","state_id":49,"state_code":"WP","country_id":83,"country_code":"GH","latitude":"4.92678000","longitude":"-1.75773000"},{"id":"52202","name":"Shama Junction","state_id":49,"state_code":"WP","country_id":83,"country_code":"GH","latitude":"5.01806000","longitude":"-1.66437000"},{"id":"52207","name":"Takoradi","state_id":49,"state_code":"WP","country_id":83,"country_code":"GH","latitude":"4.89816000","longitude":"-1.76029000"},{"id":"52209","name":"Tarkwa","state_id":49,"state_code":"WP","country_id":83,"country_code":"GH","latitude":"5.30383000","longitude":"-1.98956000"}]