[{"id":"52157","name":"Apam","state_id":52,"state_code":"CP","country_id":83,"country_code":"GH","latitude":"5.28483000","longitude":"-0.73711000"},{"id":"52168","name":"Cape Coast","state_id":52,"state_code":"CP","country_id":83,"country_code":"GH","latitude":"5.10535000","longitude":"-1.24660000"},{"id":"52171","name":"Dunkwa","state_id":52,"state_code":"CP","country_id":83,"country_code":"GH","latitude":"5.95996000","longitude":"-1.77792000"},{"id":"52173","name":"Elmina","state_id":52,"state_code":"CP","country_id":83,"country_code":"GH","latitude":"5.08470000","longitude":"-1.35093000"},{"id":"52174","name":"Foso","state_id":52,"state_code":"CP","country_id":83,"country_code":"GH","latitude":"5.70119000","longitude":"-1.28657000"},{"id":"52179","name":"Kasoa","state_id":52,"state_code":"CP","country_id":83,"country_code":"GH","latitude":"5.53449000","longitude":"-0.41679000"},{"id":"52192","name":"Mumford","state_id":52,"state_code":"CP","country_id":83,"country_code":"GH","latitude":"5.26176000","longitude":"-0.75897000"},{"id":"52199","name":"Saltpond","state_id":52,"state_code":"CP","country_id":83,"country_code":"GH","latitude":"5.20913000","longitude":"-1.06058000"},{"id":"52205","name":"Swedru","state_id":52,"state_code":"CP","country_id":83,"country_code":"GH","latitude":"5.53711000","longitude":"-0.69984000"},{"id":"52215","name":"Winneba","state_id":52,"state_code":"CP","country_id":83,"country_code":"GH","latitude":"5.35113000","longitude":"-0.62313000"}]