[{"id":"52149","name":"Accra","state_id":54,"state_code":"AA","country_id":83,"country_code":"GH","latitude":"5.55602000","longitude":"-0.19690000"},{"id":"52159","name":"Atsiaman","state_id":54,"state_code":"AA","country_id":83,"country_code":"GH","latitude":"5.69775000","longitude":"-0.32824000"},{"id":"52169","name":"Dome","state_id":54,"state_code":"AA","country_id":83,"country_code":"GH","latitude":"5.65003000","longitude":"-0.23610000"},{"id":"52175","name":"Gbawe","state_id":54,"state_code":"AA","country_id":83,"country_code":"GH","latitude":"5.57692000","longitude":"-0.31038000"},{"id":"52190","name":"Medina Estates","state_id":54,"state_code":"AA","country_id":83,"country_code":"GH","latitude":"5.66580000","longitude":"-0.16307000"},{"id":"52195","name":"Nungua","state_id":54,"state_code":"AA","country_id":83,"country_code":"GH","latitude":"5.60105000","longitude":"-0.07713000"},{"id":"52211","name":"Tema","state_id":54,"state_code":"AA","country_id":83,"country_code":"GH","latitude":"5.66980000","longitude":"-0.01657000"},{"id":"52212","name":"Teshi Old Town","state_id":54,"state_code":"AA","country_id":83,"country_code":"GH","latitude":"5.58365000","longitude":"-0.10722000"}]