[{"id":"31767","name":"Al Bajur","state_id":3228,"state_code":"MNF","country_id":65,"country_code":"EG","latitude":"30.43046000","longitude":"31.03679000"},{"id":"31789","name":"Ash Shuhada\u2019","state_id":3228,"state_code":"MNF","country_id":65,"country_code":"EG","latitude":"30.59683000","longitude":"30.89931000"},{"id":"31790","name":"Ashmun","state_id":3228,"state_code":"MNF","country_id":65,"country_code":"EG","latitude":"30.29735000","longitude":"30.97641000"},{"id":"31846","name":"Munuf","state_id":3228,"state_code":"MNF","country_id":65,"country_code":"EG","latitude":"30.46597000","longitude":"30.93199000"},{"id":"31854","name":"Quwaysina","state_id":3228,"state_code":"MNF","country_id":65,"country_code":"EG","latitude":"30.56482000","longitude":"31.15777000"},{"id":"31863","name":"Shibin al Kawm","state_id":3228,"state_code":"MNF","country_id":65,"country_code":"EG","latitude":"30.55258000","longitude":"31.00904000"},{"id":"31871","name":"Tala","state_id":3228,"state_code":"MNF","country_id":65,"country_code":"EG","latitude":"30.67980000","longitude":"30.94364000"}]