[{"id":"31777","name":"Al Ma\u1e29allah al Kubr\u00e1","state_id":3234,"state_code":"GH","country_id":65,"country_code":"EG","latitude":"30.97063000","longitude":"31.16690000"},{"id":"31799","name":"Basyun","state_id":3234,"state_code":"GH","country_id":65,"country_code":"EG","latitude":"30.93976000","longitude":"30.81338000"},{"id":"31828","name":"Kafr az Zayyat","state_id":3234,"state_code":"GH","country_id":65,"country_code":"EG","latitude":"30.82480000","longitude":"30.81805000"},{"id":"31855","name":"Qutur","state_id":3234,"state_code":"GH","country_id":65,"country_code":"EG","latitude":"30.97225000","longitude":"30.95614000"},{"id":"31860","name":"Samannud","state_id":3234,"state_code":"GH","country_id":65,"country_code":"EG","latitude":"30.96160000","longitude":"31.24069000"},{"id":"31872","name":"Tanda","state_id":3234,"state_code":"GH","country_id":65,"country_code":"EG","latitude":"30.78847000","longitude":"31.00192000"},{"id":"31874","name":"Zefta","state_id":3234,"state_code":"GH","country_id":65,"country_code":"EG","latitude":"30.71420000","longitude":"31.24425000"}]