[{"id":"31780","name":"Al Qusayr","state_id":3240,"state_code":"BA","country_id":65,"country_code":"EG","latitude":"26.10426000","longitude":"34.27793000"},{"id":"31811","name":"El Gouna","state_id":3240,"state_code":"BA","country_id":65,"country_code":"EG","latitude":"27.39417000","longitude":"33.67825000"},{"id":"31817","name":"Hurghada","state_id":3240,"state_code":"BA","country_id":65,"country_code":"EG","latitude":"27.25738000","longitude":"33.81291000"},{"id":"31834","name":"Makadi Bay","state_id":3240,"state_code":"BA","country_id":65,"country_code":"EG","latitude":"26.99123000","longitude":"33.89952000"},{"id":"31841","name":"Marsa Alam","state_id":3240,"state_code":"BA","country_id":65,"country_code":"EG","latitude":"25.06305000","longitude":"34.89005000"},{"id":"31856","name":"Ras Gharib","state_id":3240,"state_code":"BA","country_id":65,"country_code":"EG","latitude":"28.35831000","longitude":"33.07829000"},{"id":"31858","name":"Safaga","state_id":3240,"state_code":"BA","country_id":65,"country_code":"EG","latitude":"26.74906000","longitude":"33.93891000"}]