[{"id":"31809","name":"Dishna","state_id":3247,"state_code":"KN","country_id":65,"country_code":"EG","latitude":"26.12467000","longitude":"32.47598000"},{"id":"31813","name":"Farshut","state_id":3247,"state_code":"KN","country_id":65,"country_code":"EG","latitude":"26.05494000","longitude":"32.16329000"},{"id":"31822","name":"Isna","state_id":3247,"state_code":"KN","country_id":65,"country_code":"EG","latitude":"25.29336000","longitude":"32.55402000"},{"id":"31831","name":"Kousa","state_id":3247,"state_code":"KN","country_id":65,"country_code":"EG","latitude":"25.91407000","longitude":"32.76362000"},{"id":"31847","name":"Naja' \u1e24ammadi","state_id":3247,"state_code":"KN","country_id":65,"country_code":"EG","latitude":"26.04949000","longitude":"32.24142000"},{"id":"31853","name":"Qina","state_id":3247,"state_code":"KN","country_id":65,"country_code":"EG","latitude":"26.16418000","longitude":"32.72671000"}]