[{"id":"53814","name":"Cati\u00f3","state_id":2712,"state_code":"TO","country_id":93,"country_code":"GW","latitude":"11.28250000","longitude":"-15.25472000"},{"id":"53819","name":"Quebo","state_id":2712,"state_code":"TO","country_id":93,"country_code":"GW","latitude":"11.33333000","longitude":"-14.93333000"},{"id":"53812","name":"Cacheu","state_id":2713,"state_code":"CA","country_id":93,"country_code":"GW","latitude":"12.27444000","longitude":"-16.16528000"},{"id":"53813","name":"Canchungo","state_id":2713,"state_code":"CA","country_id":93,"country_code":"GW","latitude":"12.06722000","longitude":"-16.03333000"},{"id":"53820","name":"Quinh\u00e1mel","state_id":2714,"state_code":"BM","country_id":93,"country_code":"GW","latitude":"11.88694000","longitude":"-15.85556000"},{"id":"53810","name":"Buba","state_id":2715,"state_code":"QU","country_id":93,"country_code":"GW","latitude":"11.58889000","longitude":"-14.99583000"},{"id":"53808","name":"Bissor\u00e3","state_id":2718,"state_code":"OI","country_id":93,"country_code":"GW","latitude":"12.22306000","longitude":"-15.44750000"},{"id":"53816","name":"Farim","state_id":2718,"state_code":"OI","country_id":93,"country_code":"GW","latitude":"12.48389000","longitude":"-15.22167000"},{"id":"53818","name":"Mans\u00f4a","state_id":2718,"state_code":"OI","country_id":93,"country_code":"GW","latitude":"12.07333000","longitude":"-15.31889000"},{"id":"53817","name":"Gab\u00fa","state_id":2719,"state_code":"GA","country_id":93,"country_code":"GW","latitude":"12.28000000","longitude":"-14.22222000"},{"id":"53807","name":"Bafat\u00e1","state_id":2720,"state_code":"BA","country_id":93,"country_code":"GW","latitude":"12.16583000","longitude":"-14.66167000"},{"id":"53815","name":"Contuboel Sector","state_id":2720,"state_code":"BA","country_id":93,"country_code":"GW","latitude":"12.55500000","longitude":"-14.64100000"},{"id":"53809","name":"Bolama","state_id":2722,"state_code":"BL","country_id":93,"country_code":"GW","latitude":"11.57694000","longitude":"-15.47611000"},{"id":"53811","name":"Bubaque","state_id":2722,"state_code":"BL","country_id":93,"country_code":"GW","latitude":"11.28333000","longitude":"-15.83333000"}]