[{"id":"79706","name":"Bhadrapur","state_id":2069,"state_code":"4","country_id":154,"country_code":"NP","latitude":"26.54404000","longitude":"88.09436000"},{"id":"79709","name":"Bhojpur","state_id":2069,"state_code":"4","country_id":154,"country_code":"NP","latitude":"27.17150000","longitude":"87.04607000"},{"id":"79711","name":"Biratnagar","state_id":2069,"state_code":"4","country_id":154,"country_code":"NP","latitude":"26.45505000","longitude":"87.27007000"},{"id":"79720","name":"Dhankuta","state_id":2069,"state_code":"4","country_id":154,"country_code":"NP","latitude":"26.98333000","longitude":"87.33333000"},{"id":"79721","name":"Dharan","state_id":2069,"state_code":"4","country_id":154,"country_code":"NP","latitude":"26.81436000","longitude":"87.27972000"},{"id":"79730","name":"Ilam","state_id":2069,"state_code":"4","country_id":154,"country_code":"NP","latitude":"26.90943000","longitude":"87.92824000"},{"id":"79731","name":"Inaruwa","state_id":2069,"state_code":"4","country_id":154,"country_code":"NP","latitude":"26.60675000","longitude":"87.14780000"},{"id":"79736","name":"Khanbari","state_id":2069,"state_code":"4","country_id":154,"country_code":"NP","latitude":"27.37604000","longitude":"87.20767000"},{"id":"79738","name":"Lahan","state_id":2069,"state_code":"4","country_id":154,"country_code":"NP","latitude":"26.72022000","longitude":"86.48258000"},{"id":"79739","name":"Lobujya","state_id":2069,"state_code":"4","country_id":154,"country_code":"NP","latitude":"27.95000000","longitude":"86.81667000"},{"id":"79744","name":"Namche Bazar","state_id":2069,"state_code":"4","country_id":154,"country_code":"NP","latitude":"27.80528000","longitude":"86.71058000"},{"id":"79750","name":"Rajbiraj","state_id":2069,"state_code":"4","country_id":154,"country_code":"NP","latitude":"26.53968000","longitude":"86.74796000"},{"id":"79753","name":"Siraha","state_id":2069,"state_code":"4","country_id":154,"country_code":"NP","latitude":"26.65422000","longitude":"86.20795000"},{"id":"79754","name":"Titahari","state_id":2069,"state_code":"4","country_id":154,"country_code":"NP","latitude":"26.66371000","longitude":"87.27403000"},{"id":"79755","name":"Triyuga","state_id":2069,"state_code":"4","country_id":154,"country_code":"NP","latitude":"26.79190000","longitude":"86.69900000"}]