[{"id":"67066","name":"Arbaoua","state_id":3308,"state_code":"KEN","country_id":149,"country_code":"MA","latitude":"34.90239000","longitude":"-5.94871000"},{"id":"67130","name":"Had Kourt","state_id":3308,"state_code":"KEN","country_id":149,"country_code":"MA","latitude":"34.61588000","longitude":"-5.74040000"},{"id":"67146","name":"Kenitra","state_id":3308,"state_code":"KEN","country_id":149,"country_code":"MA","latitude":"34.26101000","longitude":"-6.58020000"},{"id":"67147","name":"Kenitra Province","state_id":3308,"state_code":"KEN","country_id":149,"country_code":"MA","latitude":"34.58333000","longitude":"-6.33333000"},{"id":"67149","name":"Khemisset","state_id":3308,"state_code":"KEN","country_id":149,"country_code":"MA","latitude":"33.66667000","longitude":"-6.25000000"},{"id":"67161","name":"Mechraa Bel Ksiri","state_id":3308,"state_code":"KEN","country_id":149,"country_code":"MA","latitude":"34.57373000","longitude":"-5.95585000"},{"id":"67191","name":"Oulmes","state_id":3308,"state_code":"KEN","country_id":149,"country_code":"MA","latitude":"33.42585000","longitude":"-6.00137000"},{"id":"67193","name":"Rabat","state_id":3308,"state_code":"KEN","country_id":149,"country_code":"MA","latitude":"34.01325000","longitude":"-6.83255000"},{"id":"67199","name":"Sale","state_id":3308,"state_code":"KEN","country_id":149,"country_code":"MA","latitude":"34.05310000","longitude":"-6.79846000"},{"id":"67207","name":"Sidi Bousber","state_id":3308,"state_code":"KEN","country_id":149,"country_code":"MA","latitude":"34.56283000","longitude":"-5.36208000"},{"id":"67211","name":"Sidi Qacem","state_id":3308,"state_code":"KEN","country_id":149,"country_code":"MA","latitude":"34.22149000","longitude":"-5.70775000"},{"id":"67213","name":"Sidi Redouane","state_id":3308,"state_code":"KEN","country_id":149,"country_code":"MA","latitude":"34.68692000","longitude":"-5.44538000"},{"id":"67214","name":"Sidi Slimane","state_id":3308,"state_code":"KEN","country_id":149,"country_code":"MA","latitude":"34.26479000","longitude":"-5.92598000"},{"id":"67216","name":"Sidi Yahia El Gharb","state_id":3308,"state_code":"KEN","country_id":149,"country_code":"MA","latitude":"34.30494000","longitude":"-6.30404000"},{"id":"67217","name":"Sidi-Kacem","state_id":3308,"state_code":"KEN","country_id":149,"country_code":"MA","latitude":"34.58333000","longitude":"-5.75000000"},{"id":"67218","name":"Skhirate","state_id":3308,"state_code":"KEN","country_id":149,"country_code":"MA","latitude":"33.85270000","longitude":"-7.03171000"},{"id":"67219","name":"Skhirate-Temara","state_id":3308,"state_code":"KEN","country_id":149,"country_code":"MA","latitude":"33.77000000","longitude":"-6.87000000"},{"id":"67222","name":"Souq Larb\u2019a al Gharb","state_id":3308,"state_code":"KEN","country_id":149,"country_code":"MA","latitude":"34.68664000","longitude":"-6.00272000"},{"id":"67248","name":"Temara","state_id":3308,"state_code":"KEN","country_id":149,"country_code":"MA","latitude":"33.92866000","longitude":"-6.90656000"},{"id":"67249","name":"Teroual","state_id":3308,"state_code":"KEN","country_id":149,"country_code":"MA","latitude":"34.67452000","longitude":"-5.27331000"},{"id":"67252","name":"Tiflet","state_id":3308,"state_code":"KEN","country_id":149,"country_code":"MA","latitude":"33.89469000","longitude":"-6.30649000"}]