[{"id":"67044","name":"Abadou","state_id":3311,"state_code":"SAF","country_id":149,"country_code":"MA","latitude":"31.57917000","longitude":"-7.31308000"},{"id":"67045","name":"Adassil","state_id":3311,"state_code":"SAF","country_id":149,"country_code":"MA","latitude":"31.10783000","longitude":"-8.49083000"},{"id":"67057","name":"Al-Haouz","state_id":3311,"state_code":"SAF","country_id":149,"country_code":"MA","latitude":"31.34083000","longitude":"-7.91076000"},{"id":"67086","name":"Bouabout","state_id":3311,"state_code":"SAF","country_id":149,"country_code":"MA","latitude":"31.26554000","longitude":"-9.17865000"},{"id":"67101","name":"Chichaoua","state_id":3311,"state_code":"SAF","country_id":149,"country_code":"MA","latitude":"31.26365000","longitude":"-8.84411000"},{"id":"67116","name":"Essaouira","state_id":3311,"state_code":"SAF","country_id":149,"country_code":"MA","latitude":"31.50675000","longitude":"-9.75655000"},{"id":"67144","name":"Kelaa-Des-Sraghna","state_id":3311,"state_code":"SAF","country_id":149,"country_code":"MA","latitude":"32.16667000","longitude":"-7.75000000"},{"id":"67158","name":"Marrakech","state_id":3311,"state_code":"SAF","country_id":149,"country_code":"MA","latitude":"31.63623000","longitude":"-8.01041000"},{"id":"67159","name":"Marrakesh","state_id":3311,"state_code":"SAF","country_id":149,"country_code":"MA","latitude":"31.63416000","longitude":"-7.99994000"},{"id":"67187","name":"Ouka\u00efmedene","state_id":3311,"state_code":"SAF","country_id":149,"country_code":"MA","latitude":"31.20603000","longitude":"-7.86089000"},{"id":"67195","name":"Rehamna","state_id":3311,"state_code":"SAF","country_id":149,"country_code":"MA","latitude":"32.24581000","longitude":"-7.93144000"},{"id":"67197","name":"Safi","state_id":3311,"state_code":"SAF","country_id":149,"country_code":"MA","latitude":"32.16667000","longitude":"-8.83333000"},{"id":"67205","name":"Setti Fatma","state_id":3311,"state_code":"SAF","country_id":149,"country_code":"MA","latitude":"31.22508000","longitude":"-7.67751000"},{"id":"67212","name":"Sidi Rahhal","state_id":3311,"state_code":"SAF","country_id":149,"country_code":"MA","latitude":"31.65031000","longitude":"-7.47288000"},{"id":"67221","name":"Smimou","state_id":3311,"state_code":"SAF","country_id":149,"country_code":"MA","latitude":"31.21014000","longitude":"-9.70863000"},{"id":"67229","name":"Tamanar","state_id":3311,"state_code":"SAF","country_id":149,"country_code":"MA","latitude":"31.00087000","longitude":"-9.67802000"},{"id":"67236","name":"Taouloukoult","state_id":3311,"state_code":"SAF","country_id":149,"country_code":"MA","latitude":"31.22218000","longitude":"-9.07943000"},{"id":"67251","name":"Tidili Mesfioua","state_id":3311,"state_code":"SAF","country_id":149,"country_code":"MA","latitude":"31.46586000","longitude":"-7.61199000"},{"id":"67253","name":"Timezgadiouine","state_id":3311,"state_code":"SAF","country_id":149,"country_code":"MA","latitude":"30.88366000","longitude":"-9.04548000"},{"id":"67263","name":"Youssoufia","state_id":3311,"state_code":"SAF","country_id":149,"country_code":"MA","latitude":"32.24634000","longitude":"-8.52941000"},{"id":"67268","name":"Zerkten","state_id":3311,"state_code":"SAF","country_id":149,"country_code":"MA","latitude":"31.44470000","longitude":"-7.39224000"}]