[{"id":"67076","name":"A\u00efn Leuh","state_id":3313,"state_code":"03","country_id":149,"country_code":"MA","latitude":"33.28984000","longitude":"-5.33863000"},{"id":"67053","name":"Aknoul","state_id":3313,"state_code":"03","country_id":149,"country_code":"MA","latitude":"34.65371000","longitude":"-3.86754000"},{"id":"67059","name":"Almis Marmoucha","state_id":3313,"state_code":"03","country_id":149,"country_code":"MA","latitude":"33.32000000","longitude":"-4.18000000"},{"id":"67074","name":"Azrou","state_id":3313,"state_code":"03","country_id":149,"country_code":"MA","latitude":"33.43443000","longitude":"-5.22126000"},{"id":"67083","name":"Bhalil","state_id":3313,"state_code":"03","country_id":149,"country_code":"MA","latitude":"33.85194000","longitude":"-4.87228000"},{"id":"67088","name":"Bouarouss","state_id":3313,"state_code":"03","country_id":149,"country_code":"MA","latitude":"34.36000000","longitude":"-4.81000000"},{"id":"67092","name":"Boulemane","state_id":3313,"state_code":"03","country_id":149,"country_code":"MA","latitude":"33.16667000","longitude":"-4.00000000"},{"id":"67109","name":"El Hajeb","state_id":3313,"state_code":"03","country_id":149,"country_code":"MA","latitude":"33.68786000","longitude":"-5.37100000"},{"id":"67112","name":"El-Hajeb","state_id":3313,"state_code":"03","country_id":149,"country_code":"MA","latitude":"33.72883000","longitude":"-5.46119000"},{"id":"67122","name":"F\u00e8s","state_id":3313,"state_code":"03","country_id":149,"country_code":"MA","latitude":"34.03313000","longitude":"-5.00028000"},{"id":"67123","name":"F\u00e8s al Bali","state_id":3313,"state_code":"03","country_id":149,"country_code":"MA","latitude":"34.07010000","longitude":"-4.95473000"},{"id":"67118","name":"Fes","state_id":3313,"state_code":"03","country_id":149,"country_code":"MA","latitude":"34.04000000","longitude":"-4.87000000"},{"id":"67124","name":"Galaz","state_id":3313,"state_code":"03","country_id":149,"country_code":"MA","latitude":"34.54424000","longitude":"-4.80355000"},{"id":"67125","name":"Ghouazi","state_id":3313,"state_code":"03","country_id":149,"country_code":"MA","latitude":"34.47737000","longitude":"-5.30235000"},{"id":"67128","name":"Guercif","state_id":3313,"state_code":"03","country_id":149,"country_code":"MA","latitude":"34.22568000","longitude":"-3.35361000"},{"id":"67132","name":"Ifrane","state_id":3313,"state_code":"03","country_id":149,"country_code":"MA","latitude":"33.33333000","longitude":"-5.25000000"},{"id":"67164","name":"Mekn\u00e8s","state_id":3313,"state_code":"03","country_id":149,"country_code":"MA","latitude":"33.89352000","longitude":"-5.54727000"},{"id":"67163","name":"Meknes","state_id":3313,"state_code":"03","country_id":149,"country_code":"MA","latitude":"33.97761000","longitude":"-5.52496000"},{"id":"67169","name":"Missour","state_id":3313,"state_code":"03","country_id":149,"country_code":"MA","latitude":"33.04893000","longitude":"-3.98947000"},{"id":"67171","name":"Moulay Bouchta","state_id":3313,"state_code":"03","country_id":149,"country_code":"MA","latitude":"34.48922000","longitude":"-5.13023000"},{"id":"67172","name":"Moulay-Yacoub","state_id":3313,"state_code":"03","country_id":149,"country_code":"MA","latitude":"34.14558000","longitude":"-5.10259000"},{"id":"67179","name":"Oued Amlil","state_id":3313,"state_code":"03","country_id":149,"country_code":"MA","latitude":"34.20000000","longitude":"-4.28000000"},{"id":"67189","name":"Oulad Tayeb","state_id":3313,"state_code":"03","country_id":149,"country_code":"MA","latitude":"33.94633000","longitude":"-4.99509000"},{"id":"67192","name":"Ourtzagh","state_id":3313,"state_code":"03","country_id":149,"country_code":"MA","latitude":"34.53477000","longitude":"-4.96878000"},{"id":"67200","name":"Sefrou","state_id":3313,"state_code":"03","country_id":149,"country_code":"MA","latitude":"33.79979000","longitude":"-4.68000000"},{"id":"67226","name":"Tahla","state_id":3313,"state_code":"03","country_id":149,"country_code":"MA","latitude":"34.04965000","longitude":"-4.42162000"},{"id":"67228","name":"Talzemt","state_id":3313,"state_code":"03","country_id":149,"country_code":"MA","latitude":"33.59000000","longitude":"-4.19000000"},{"id":"67237","name":"Taounate","state_id":3313,"state_code":"03","country_id":149,"country_code":"MA","latitude":"34.50000000","longitude":"-4.83333000"},{"id":"67245","name":"Taza","state_id":3313,"state_code":"03","country_id":149,"country_code":"MA","latitude":"34.25000000","longitude":"-3.75000000"},{"id":"67261","name":"Tmourghout","state_id":3313,"state_code":"03","country_id":149,"country_code":"MA","latitude":"33.90650000","longitude":"-4.02696000"}]