[{"id":"67050","name":"Aguelmous","state_id":3317,"state_code":"KHN","country_id":149,"country_code":"MA","latitude":"33.16139000","longitude":"-5.84626000"},{"id":"67055","name":"Al Fqih Ben \u00c7alah","state_id":3317,"state_code":"KHN","country_id":149,"country_code":"MA","latitude":"32.50213000","longitude":"-6.68771000"},{"id":"67072","name":"Azilal","state_id":3317,"state_code":"KHN","country_id":149,"country_code":"MA","latitude":"31.96156000","longitude":"-6.57109000"},{"id":"67073","name":"Azilal Province","state_id":3317,"state_code":"KHN","country_id":149,"country_code":"MA","latitude":"31.91667000","longitude":"-6.50000000"},{"id":"67077","name":"Beni Mellal","state_id":3317,"state_code":"KHN","country_id":149,"country_code":"MA","latitude":"32.33725000","longitude":"-6.34983000"},{"id":"67078","name":"Beni-Mellal","state_id":3317,"state_code":"KHN","country_id":149,"country_code":"MA","latitude":"32.50000000","longitude":"-6.33333000"},{"id":"67090","name":"Boujniba","state_id":3317,"state_code":"KHN","country_id":149,"country_code":"MA","latitude":"32.90046000","longitude":"-6.77464000"},{"id":"67096","name":"Bzou","state_id":3317,"state_code":"KHN","country_id":149,"country_code":"MA","latitude":"32.09171000","longitude":"-7.04786000"},{"id":"67103","name":"Dar Ould Zidouh","state_id":3317,"state_code":"KHN","country_id":149,"country_code":"MA","latitude":"32.31247000","longitude":"-6.90494000"},{"id":"67105","name":"Demnate","state_id":3317,"state_code":"KHN","country_id":149,"country_code":"MA","latitude":"31.73443000","longitude":"-7.00505000"},{"id":"67111","name":"El Ksiba","state_id":3317,"state_code":"KHN","country_id":149,"country_code":"MA","latitude":"32.57286000","longitude":"-6.01947000"},{"id":"67121","name":"Fquih Ben Salah Province","state_id":3317,"state_code":"KHN","country_id":149,"country_code":"MA","latitude":"32.50108000","longitude":"-6.68415000"},{"id":"67131","name":"Ifrane","state_id":3317,"state_code":"KHN","country_id":149,"country_code":"MA","latitude":"31.70217000","longitude":"-6.34940000"},{"id":"67138","name":"Isseksi","state_id":3317,"state_code":"KHN","country_id":149,"country_code":"MA","latitude":"32.22981000","longitude":"-6.27661000"},{"id":"67139","name":"Itzer","state_id":3317,"state_code":"KHN","country_id":149,"country_code":"MA","latitude":"32.87830000","longitude":"-5.05150000"},{"id":"67143","name":"Kasba Tadla","state_id":3317,"state_code":"KHN","country_id":149,"country_code":"MA","latitude":"32.59770000","longitude":"-6.26844000"},{"id":"67148","name":"Kerrouchen","state_id":3317,"state_code":"KHN","country_id":149,"country_code":"MA","latitude":"32.79639000","longitude":"-5.31880000"},{"id":"67150","name":"Khenifra","state_id":3317,"state_code":"KHN","country_id":149,"country_code":"MA","latitude":"32.93333000","longitude":"-5.66667000"},{"id":"67151","name":"Khouribga","state_id":3317,"state_code":"KHN","country_id":149,"country_code":"MA","latitude":"32.88108000","longitude":"-6.90630000"},{"id":"67152","name":"Khouribga Province","state_id":3317,"state_code":"KHN","country_id":149,"country_code":"MA","latitude":"32.93333000","longitude":"-6.60000000"},{"id":"67167","name":"Midelt","state_id":3317,"state_code":"KHN","country_id":149,"country_code":"MA","latitude":"32.68520000","longitude":"-4.74512000"},{"id":"67176","name":"Ouaoula","state_id":3317,"state_code":"KHN","country_id":149,"country_code":"MA","latitude":"31.87000000","longitude":"-6.75000000"},{"id":"67181","name":"Oued Zem","state_id":3317,"state_code":"KHN","country_id":149,"country_code":"MA","latitude":"32.86270000","longitude":"-6.57359000"},{"id":"67210","name":"Sidi Jaber","state_id":3317,"state_code":"KHN","country_id":149,"country_code":"MA","latitude":"32.38952000","longitude":"-6.42095000"},{"id":"67254","name":"Timoulilt","state_id":3317,"state_code":"KHN","country_id":149,"country_code":"MA","latitude":"32.20368000","longitude":"-6.46660000"},{"id":"67266","name":"Zawyat ech Che\u00efkh","state_id":3317,"state_code":"KHN","country_id":149,"country_code":"MA","latitude":"32.64445000","longitude":"-5.91826000"}]