[{"id":"55035","name":"Solta","state_id":725,"state_code":"17","country_id":55,"country_code":"HR","latitude":"43.38714000","longitude":"16.28865000"},{"id":"55040","name":"Zrnovnica","state_id":725,"state_code":"17","country_id":55,"country_code":"HR","latitude":"43.52111000","longitude":"16.55917000"},{"id":"54389","name":"Baska Voda","state_id":725,"state_code":"17","country_id":55,"country_code":"HR","latitude":"43.35694000","longitude":"16.95028000"},{"id":"54407","name":"Bol","state_id":725,"state_code":"17","country_id":55,"country_code":"HR","latitude":"43.26194000","longitude":"16.65500000"},{"id":"54414","name":"Brela","state_id":725,"state_code":"17","country_id":55,"country_code":"HR","latitude":"43.36889000","longitude":"16.93417000"},{"id":"54423","name":"Brnaze","state_id":725,"state_code":"17","country_id":55,"country_code":"HR","latitude":"43.68000000","longitude":"16.64972000"},{"id":"54454","name":"Dicmo","state_id":725,"state_code":"17","country_id":55,"country_code":"HR","latitude":"43.63678000","longitude":"16.58978000"},{"id":"54463","name":"Donji Vinjani","state_id":725,"state_code":"17","country_id":55,"country_code":"HR","latitude":"43.44613000","longitude":"17.24064000"},{"id":"54474","name":"Duce","state_id":725,"state_code":"17","country_id":55,"country_code":"HR","latitude":"43.44278000","longitude":"16.66833000"},{"id":"54472","name":"Dugi Rat Opcina","state_id":725,"state_code":"17","country_id":55,"country_code":"HR","latitude":"43.44923000","longitude":"16.64738000"},{"id":"54473","name":"Dugopolje","state_id":725,"state_code":"17","country_id":55,"country_code":"HR","latitude":"43.58056000","longitude":"16.60278000"},{"id":"54486","name":"Gala","state_id":725,"state_code":"17","country_id":55,"country_code":"HR","latitude":"43.71500000","longitude":"16.72694000"},{"id":"54502","name":"Grabovci","state_id":725,"state_code":"17","country_id":55,"country_code":"HR","latitude":"43.49278000","longitude":"17.20111000"},{"id":"54519","name":"Grad Hvar","state_id":725,"state_code":"17","country_id":55,"country_code":"HR","latitude":"43.17263000","longitude":"16.44550000"},{"id":"54520","name":"Grad Imotski","state_id":725,"state_code":"17","country_id":55,"country_code":"HR","latitude":"43.43333000","longitude":"17.16667000"},{"id":"54532","name":"Grad Makarska","state_id":725,"state_code":"17","country_id":55,"country_code":"HR","latitude":"43.30000000","longitude":"17.03333000"},{"id":"54537","name":"Grad Omis","state_id":725,"state_code":"17","country_id":55,"country_code":"HR","latitude":"43.46667000","longitude":"16.70000000"},{"id":"54548","name":"Grad Sinj","state_id":725,"state_code":"17","country_id":55,"country_code":"HR","latitude":"43.72285000","longitude":"16.65819000"},{"id":"54552","name":"Grad Split","state_id":725,"state_code":"17","country_id":55,"country_code":"HR","latitude":"43.50000000","longitude":"16.50000000"},{"id":"54553","name":"Grad Supetar","state_id":725,"state_code":"17","country_id":55,"country_code":"HR","latitude":"43.38444000","longitude":"16.55528000"},{"id":"54555","name":"Grad Trogir","state_id":725,"state_code":"17","country_id":55,"country_code":"HR","latitude":"43.52061000","longitude":"16.25144000"},{"id":"54561","name":"Grad Vis","state_id":725,"state_code":"17","country_id":55,"country_code":"HR","latitude":"43.05315000","longitude":"16.18698000"},{"id":"54564","name":"Grad Vrgorac","state_id":725,"state_code":"17","country_id":55,"country_code":"HR","latitude":"43.20000000","longitude":"17.36667000"},{"id":"54574","name":"Gradac","state_id":725,"state_code":"17","country_id":55,"country_code":"HR","latitude":"43.10583000","longitude":"17.34167000"},{"id":"54584","name":"Greda","state_id":725,"state_code":"17","country_id":55,"country_code":"HR","latitude":"43.61528000","longitude":"16.69361000"},{"id":"54587","name":"Grubine","state_id":725,"state_code":"17","country_id":55,"country_code":"HR","latitude":"43.42986000","longitude":"17.16292000"},{"id":"54599","name":"Hrvace","state_id":725,"state_code":"17","country_id":55,"country_code":"HR","latitude":"43.76333000","longitude":"16.61500000"},{"id":"54601","name":"Hvar","state_id":725,"state_code":"17","country_id":55,"country_code":"HR","latitude":"43.17250000","longitude":"16.44278000"},{"id":"54603","name":"Imotski","state_id":725,"state_code":"17","country_id":55,"country_code":"HR","latitude":"43.44667000","longitude":"17.21667000"},{"id":"54620","name":"Jelsa","state_id":725,"state_code":"17","country_id":55,"country_code":"HR","latitude":"43.16139000","longitude":"16.69306000"},{"id":"54621","name":"Jesenice","state_id":725,"state_code":"17","country_id":55,"country_code":"HR","latitude":"43.46158000","longitude":"16.60197000"},{"id":"54642","name":"Kastel Stafilic","state_id":725,"state_code":"17","country_id":55,"country_code":"HR","latitude":"43.55000000","longitude":"16.33333000"},{"id":"54637","name":"Kastel Gomilica","state_id":725,"state_code":"17","country_id":55,"country_code":"HR","latitude":"43.55000000","longitude":"16.40000000"},{"id":"54638","name":"Kastel Kambelovac","state_id":725,"state_code":"17","country_id":55,"country_code":"HR","latitude":"43.55000000","longitude":"16.38333000"},{"id":"54639","name":"Kastel Luksic","state_id":725,"state_code":"17","country_id":55,"country_code":"HR","latitude":"43.55528000","longitude":"16.36750000"},{"id":"54640","name":"Kastel Novi","state_id":725,"state_code":"17","country_id":55,"country_code":"HR","latitude":"43.55000000","longitude":"16.33333000"},{"id":"54641","name":"Kastel Stari","state_id":725,"state_code":"17","country_id":55,"country_code":"HR","latitude":"43.55000000","longitude":"16.35000000"},{"id":"54643","name":"Kastela","state_id":725,"state_code":"17","country_id":55,"country_code":"HR","latitude":"43.53865000","longitude":"16.30740000"},{"id":"54627","name":"Kamen","state_id":725,"state_code":"17","country_id":55,"country_code":"HR","latitude":"43.51417000","longitude":"16.51472000"},{"id":"54650","name":"Klis","state_id":725,"state_code":"17","country_id":55,"country_code":"HR","latitude":"43.55944000","longitude":"16.51944000"},{"id":"54665","name":"Kosute","state_id":725,"state_code":"17","country_id":55,"country_code":"HR","latitude":"43.63083000","longitude":"16.69500000"},{"id":"54654","name":"Komiza","state_id":725,"state_code":"17","country_id":55,"country_code":"HR","latitude":"43.04306000","longitude":"16.09306000"},{"id":"54694","name":"Lokvicici","state_id":725,"state_code":"17","country_id":55,"country_code":"HR","latitude":"43.46428000","longitude":"17.09142000"},{"id":"54700","name":"Lovrec","state_id":725,"state_code":"17","country_id":55,"country_code":"HR","latitude":"43.48761000","longitude":"16.98632000"},{"id":"54710","name":"Makarska","state_id":725,"state_code":"17","country_id":55,"country_code":"HR","latitude":"43.29694000","longitude":"17.01778000"},{"id":"54733","name":"Milna","state_id":725,"state_code":"17","country_id":55,"country_code":"HR","latitude":"43.32667000","longitude":"16.45083000"},{"id":"54742","name":"Mravince","state_id":725,"state_code":"17","country_id":55,"country_code":"HR","latitude":"43.53333000","longitude":"16.52194000"},{"id":"54747","name":"Muc","state_id":725,"state_code":"17","country_id":55,"country_code":"HR","latitude":"43.69328000","longitude":"16.47267000"},{"id":"54752","name":"Nerezisca","state_id":725,"state_code":"17","country_id":55,"country_code":"HR","latitude":"43.32959000","longitude":"16.57743000"},{"id":"54772","name":"Okrug","state_id":725,"state_code":"17","country_id":55,"country_code":"HR","latitude":"43.49638000","longitude":"16.26732000"},{"id":"54773","name":"Okrug Gornji","state_id":725,"state_code":"17","country_id":55,"country_code":"HR","latitude":"43.49473000","longitude":"16.26531000"},{"id":"54775","name":"Omis","state_id":725,"state_code":"17","country_id":55,"country_code":"HR","latitude":"43.44472000","longitude":"16.68861000"},{"id":"54795","name":"Otok","state_id":725,"state_code":"17","country_id":55,"country_code":"HR","latitude":"43.68661000","longitude":"16.73488000"},{"id":"54817","name":"Podstrana","state_id":725,"state_code":"17","country_id":55,"country_code":"HR","latitude":"43.48668000","longitude":"16.55013000"},{"id":"54829","name":"Postira","state_id":725,"state_code":"17","country_id":55,"country_code":"HR","latitude":"43.37551000","longitude":"16.63091000"},{"id":"54842","name":"Prolozac","state_id":725,"state_code":"17","country_id":55,"country_code":"HR","latitude":"43.46690000","longitude":"17.15507000"},{"id":"54847","name":"Pucisca","state_id":725,"state_code":"17","country_id":55,"country_code":"HR","latitude":"43.34778000","longitude":"16.73389000"},{"id":"54872","name":"Runovic","state_id":725,"state_code":"17","country_id":55,"country_code":"HR","latitude":"43.37667000","longitude":"17.23667000"},{"id":"54873","name":"Runovici","state_id":725,"state_code":"17","country_id":55,"country_code":"HR","latitude":"43.38704000","longitude":"17.23892000"},{"id":"54879","name":"Seget","state_id":725,"state_code":"17","country_id":55,"country_code":"HR","latitude":"43.54305000","longitude":"16.21222000"},{"id":"54880","name":"Seget Vranjica","state_id":725,"state_code":"17","country_id":55,"country_code":"HR","latitude":"43.50999000","longitude":"16.18704000"},{"id":"54881","name":"Selca","state_id":725,"state_code":"17","country_id":55,"country_code":"HR","latitude":"43.29722000","longitude":"16.85083000"},{"id":"54890","name":"Sinj","state_id":725,"state_code":"17","country_id":55,"country_code":"HR","latitude":"43.70361000","longitude":"16.63944000"},{"id":"54896","name":"Slatine","state_id":725,"state_code":"17","country_id":55,"country_code":"HR","latitude":"43.49944000","longitude":"16.33333000"},{"id":"54901","name":"Solin","state_id":725,"state_code":"17","country_id":55,"country_code":"HR","latitude":"43.54320000","longitude":"16.49314000"},{"id":"54904","name":"Split","state_id":725,"state_code":"17","country_id":55,"country_code":"HR","latitude":"43.50891000","longitude":"16.43915000"},{"id":"54906","name":"Srinjine","state_id":725,"state_code":"17","country_id":55,"country_code":"HR","latitude":"43.48333000","longitude":"16.60000000"},{"id":"54907","name":"Stari Grad","state_id":725,"state_code":"17","country_id":55,"country_code":"HR","latitude":"43.18472000","longitude":"16.59528000"},{"id":"54913","name":"Stobrec","state_id":725,"state_code":"17","country_id":55,"country_code":"HR","latitude":"43.50250000","longitude":"16.52222000"},{"id":"54923","name":"Supetar","state_id":725,"state_code":"17","country_id":55,"country_code":"HR","latitude":"43.38417000","longitude":"16.55083000"},{"id":"54941","name":"Trilj","state_id":725,"state_code":"17","country_id":55,"country_code":"HR","latitude":"43.61833000","longitude":"16.72417000"},{"id":"54942","name":"Trogir","state_id":725,"state_code":"17","country_id":55,"country_code":"HR","latitude":"43.51250000","longitude":"16.25167000"},{"id":"54946","name":"Tucepi","state_id":725,"state_code":"17","country_id":55,"country_code":"HR","latitude":"43.27222000","longitude":"17.05444000"},{"id":"54945","name":"Turjaci","state_id":725,"state_code":"17","country_id":55,"country_code":"HR","latitude":"43.65000000","longitude":"16.66917000"},{"id":"54961","name":"Veliki Drvenik","state_id":725,"state_code":"17","country_id":55,"country_code":"HR","latitude":"43.45000000","longitude":"16.15000000"},{"id":"54974","name":"Vis","state_id":725,"state_code":"17","country_id":55,"country_code":"HR","latitude":"43.06194000","longitude":"16.18306000"},{"id":"54987","name":"Vranjic","state_id":725,"state_code":"17","country_id":55,"country_code":"HR","latitude":"43.53333000","longitude":"16.46667000"},{"id":"54993","name":"Vrgorac","state_id":725,"state_code":"17","country_id":55,"country_code":"HR","latitude":"43.20583000","longitude":"17.37111000"},{"id":"54994","name":"Vrlika","state_id":725,"state_code":"17","country_id":55,"country_code":"HR","latitude":"43.91098000","longitude":"16.39933000"},{"id":"55005","name":"Zagvozd","state_id":725,"state_code":"17","country_id":55,"country_code":"HR","latitude":"43.39750000","longitude":"17.05694000"},{"id":"55012","name":"Zmijavci","state_id":725,"state_code":"17","country_id":55,"country_code":"HR","latitude":"43.41083000","longitude":"17.20556000"}]