[{"id":"55029","name":"Senkovec","state_id":726,"state_code":"20","country_id":55,"country_code":"HR","latitude":"46.40889000","longitude":"16.42167000"},{"id":"55015","name":"Cakovec","state_id":726,"state_code":"20","country_id":55,"country_code":"HR","latitude":"46.38444000","longitude":"16.43389000"},{"id":"54392","name":"Belica","state_id":726,"state_code":"20","country_id":55,"country_code":"HR","latitude":"46.40417000","longitude":"16.51833000"},{"id":"54451","name":"Dekanovec","state_id":726,"state_code":"20","country_id":55,"country_code":"HR","latitude":"46.44861000","longitude":"16.58472000"},{"id":"54455","name":"Domasinec","state_id":726,"state_code":"20","country_id":55,"country_code":"HR","latitude":"46.43250000","longitude":"16.60000000"},{"id":"54493","name":"Gorican","state_id":726,"state_code":"20","country_id":55,"country_code":"HR","latitude":"46.38417000","longitude":"16.68083000"},{"id":"54570","name":"Grad Cakovec","state_id":726,"state_code":"20","country_id":55,"country_code":"HR","latitude":"46.38583000","longitude":"16.43333000"},{"id":"54595","name":"Hodosan","state_id":726,"state_code":"20","country_id":55,"country_code":"HR","latitude":"46.39528000","longitude":"16.64389000"},{"id":"54606","name":"Ivanovec","state_id":726,"state_code":"20","country_id":55,"country_code":"HR","latitude":"46.36833000","longitude":"16.47667000"},{"id":"54663","name":"Kotoriba","state_id":726,"state_code":"20","country_id":55,"country_code":"HR","latitude":"46.35500000","longitude":"16.81806000"},{"id":"54675","name":"Kursanec","state_id":726,"state_code":"20","country_id":55,"country_code":"HR","latitude":"46.33028000","longitude":"16.40167000"},{"id":"54697","name":"Lopatinec","state_id":726,"state_code":"20","country_id":55,"country_code":"HR","latitude":"46.43333000","longitude":"16.38333000"},{"id":"54726","name":"Mackovec","state_id":726,"state_code":"20","country_id":55,"country_code":"HR","latitude":"46.42417000","longitude":"16.43361000"},{"id":"54711","name":"Mala Subotica","state_id":726,"state_code":"20","country_id":55,"country_code":"HR","latitude":"46.37616000","longitude":"16.52893000"},{"id":"54730","name":"Mihovljan","state_id":726,"state_code":"20","country_id":55,"country_code":"HR","latitude":"46.40861000","longitude":"16.44806000"},{"id":"54744","name":"Mursko Sredisce","state_id":726,"state_code":"20","country_id":55,"country_code":"HR","latitude":"46.50944000","longitude":"16.44111000"},{"id":"54749","name":"Nedelisce","state_id":726,"state_code":"20","country_id":55,"country_code":"HR","latitude":"46.37583000","longitude":"16.38750000"},{"id":"54764","name":"Novo Selo Rok","state_id":726,"state_code":"20","country_id":55,"country_code":"HR","latitude":"46.42839000","longitude":"16.46215000"},{"id":"54788","name":"Orehovica","state_id":726,"state_code":"20","country_id":55,"country_code":"HR","latitude":"46.33167000","longitude":"16.50694000"},{"id":"54801","name":"Peklenica","state_id":726,"state_code":"20","country_id":55,"country_code":"HR","latitude":"46.49528000","longitude":"16.47611000"},{"id":"54818","name":"Podturen","state_id":726,"state_code":"20","country_id":55,"country_code":"HR","latitude":"46.46472000","longitude":"16.54306000"},{"id":"54834","name":"Prelog","state_id":726,"state_code":"20","country_id":55,"country_code":"HR","latitude":"46.33500000","longitude":"16.61556000"},{"id":"54836","name":"Pribislavec","state_id":726,"state_code":"20","country_id":55,"country_code":"HR","latitude":"46.39250000","longitude":"16.48250000"},{"id":"54915","name":"Strahoninec","state_id":726,"state_code":"20","country_id":55,"country_code":"HR","latitude":"46.36889000","longitude":"16.41500000"},{"id":"54929","name":"Sveti Juraj na Bregu","state_id":726,"state_code":"20","country_id":55,"country_code":"HR","latitude":"46.42853000","longitude":"16.38525000"},{"id":"54988","name":"Vratisinec","state_id":726,"state_code":"20","country_id":55,"country_code":"HR","latitude":"46.47806000","longitude":"16.45778000"}]