[{"id":"55041","name":"Zrnovo","state_id":728,"state_code":"19","country_id":55,"country_code":"HR","latitude":"42.95111000","longitude":"17.11417000"},{"id":"55042","name":"Zupa dubrovacka","state_id":728,"state_code":"19","country_id":55,"country_code":"HR","latitude":"42.62683000","longitude":"18.19475000"},{"id":"55022","name":"Cibaca","state_id":728,"state_code":"19","country_id":55,"country_code":"HR","latitude":"42.62889000","longitude":"18.17111000"},{"id":"54437","name":"Cavtat","state_id":728,"state_code":"19","country_id":55,"country_code":"HR","latitude":"42.58111000","longitude":"18.21806000"},{"id":"54471","name":"Dubrovacko primorje","state_id":728,"state_code":"19","country_id":55,"country_code":"HR","latitude":"42.78988000","longitude":"17.86240000"},{"id":"54513","name":"Grad Dubrovnik","state_id":728,"state_code":"19","country_id":55,"country_code":"HR","latitude":"42.64861000","longitude":"18.09397000"},{"id":"54525","name":"Grad Korcula","state_id":728,"state_code":"19","country_id":55,"country_code":"HR","latitude":"42.95693000","longitude":"17.13181000"},{"id":"54544","name":"Grad Ploce","state_id":728,"state_code":"19","country_id":55,"country_code":"HR","latitude":"43.06667000","longitude":"17.43333000"},{"id":"54653","name":"Komin","state_id":728,"state_code":"19","country_id":55,"country_code":"HR","latitude":"43.04083000","longitude":"17.53694000"},{"id":"54656","name":"Konavle","state_id":728,"state_code":"19","country_id":55,"country_code":"HR","latitude":"42.54010000","longitude":"18.33944000"},{"id":"54662","name":"Korcula","state_id":728,"state_code":"19","country_id":55,"country_code":"HR","latitude":"42.96038000","longitude":"17.13525000"},{"id":"54684","name":"Lastovo","state_id":728,"state_code":"19","country_id":55,"country_code":"HR","latitude":"42.76757000","longitude":"16.89708000"},{"id":"54704","name":"Lumbarda","state_id":728,"state_code":"19","country_id":55,"country_code":"HR","latitude":"42.92278000","longitude":"17.16722000"},{"id":"54728","name":"Metkovic","state_id":728,"state_code":"19","country_id":55,"country_code":"HR","latitude":"43.05417000","longitude":"17.64833000"},{"id":"54736","name":"Mljet","state_id":728,"state_code":"19","country_id":55,"country_code":"HR","latitude":"42.74439000","longitude":"17.53645000"},{"id":"54737","name":"Mokosica","state_id":728,"state_code":"19","country_id":55,"country_code":"HR","latitude":"42.67556000","longitude":"18.09028000"},{"id":"54785","name":"Opcina Lastovo","state_id":728,"state_code":"19","country_id":55,"country_code":"HR","latitude":"42.75000000","longitude":"16.90000000"},{"id":"54780","name":"Opuzen","state_id":728,"state_code":"19","country_id":55,"country_code":"HR","latitude":"43.01528000","longitude":"17.56556000"},{"id":"54787","name":"Orebic","state_id":728,"state_code":"19","country_id":55,"country_code":"HR","latitude":"42.98556000","longitude":"17.17472000"},{"id":"54813","name":"Podgora","state_id":728,"state_code":"19","country_id":55,"country_code":"HR","latitude":"42.84861000","longitude":"17.83639000"},{"id":"54821","name":"Pojezerje","state_id":728,"state_code":"19","country_id":55,"country_code":"HR","latitude":"43.15741000","longitude":"17.45152000"},{"id":"54898","name":"Slivno","state_id":728,"state_code":"19","country_id":55,"country_code":"HR","latitude":"42.95864000","longitude":"17.54431000"},{"id":"54900","name":"Smokvica","state_id":728,"state_code":"19","country_id":55,"country_code":"HR","latitude":"42.93056000","longitude":"16.89639000"},{"id":"54914","name":"Ston","state_id":728,"state_code":"19","country_id":55,"country_code":"HR","latitude":"42.83861000","longitude":"17.69639000"},{"id":"54954","name":"Vela Luka","state_id":728,"state_code":"19","country_id":55,"country_code":"HR","latitude":"42.96333000","longitude":"16.72250000"},{"id":"55007","name":"Zazablje","state_id":728,"state_code":"19","country_id":55,"country_code":"HR","latitude":"43.01113000","longitude":"17.65683000"}]