[{"id":"55024","name":"Delekovec","state_id":742,"state_code":"06","country_id":55,"country_code":"HR","latitude":"46.24989000","longitude":"16.87011000"},{"id":"55027","name":"Durdevac","state_id":742,"state_code":"06","country_id":55,"country_code":"HR","latitude":"46.03972000","longitude":"17.07168000"},{"id":"54469","name":"Drnje","state_id":742,"state_code":"06","country_id":55,"country_code":"HR","latitude":"46.20694000","longitude":"16.91694000"},{"id":"54481","name":"Ferdinandovac","state_id":742,"state_code":"06","country_id":55,"country_code":"HR","latitude":"46.05000000","longitude":"17.20000000"},{"id":"54492","name":"Gola","state_id":742,"state_code":"06","country_id":55,"country_code":"HR","latitude":"46.19583000","longitude":"17.05806000"},{"id":"54496","name":"Gornja Rijeka","state_id":742,"state_code":"06","country_id":55,"country_code":"HR","latitude":"46.10977000","longitude":"16.39079000"},{"id":"54524","name":"Grad Koprivnica","state_id":742,"state_code":"06","country_id":55,"country_code":"HR","latitude":"46.16667000","longitude":"16.83333000"},{"id":"54527","name":"Grad Krizevci","state_id":742,"state_code":"06","country_id":55,"country_code":"HR","latitude":"46.03333000","longitude":"16.56667000"},{"id":"54594","name":"Hlebine","state_id":742,"state_code":"06","country_id":55,"country_code":"HR","latitude":"46.15694000","longitude":"16.96278000"},{"id":"54626","name":"Kalinovac","state_id":742,"state_code":"06","country_id":55,"country_code":"HR","latitude":"46.02944000","longitude":"17.11556000"},{"id":"54660","name":"Koprivnicki Ivanec","state_id":742,"state_code":"06","country_id":55,"country_code":"HR","latitude":"46.19907000","longitude":"16.81629000"},{"id":"54659","name":"Koprivnica","state_id":742,"state_code":"06","country_id":55,"country_code":"HR","latitude":"46.16278000","longitude":"16.82750000"},{"id":"54670","name":"Krizevci","state_id":742,"state_code":"06","country_id":55,"country_code":"HR","latitude":"46.02194000","longitude":"16.54250000"},{"id":"54685","name":"Legrad","state_id":742,"state_code":"06","country_id":55,"country_code":"HR","latitude":"46.29750000","longitude":"16.85667000"},{"id":"54738","name":"Molve","state_id":742,"state_code":"06","country_id":55,"country_code":"HR","latitude":"46.10917000","longitude":"17.03167000"},{"id":"54765","name":"Novo Virje","state_id":742,"state_code":"06","country_id":55,"country_code":"HR","latitude":"46.09834000","longitude":"17.15215000"},{"id":"54803","name":"Peteranec","state_id":742,"state_code":"06","country_id":55,"country_code":"HR","latitude":"46.19222000","longitude":"16.89167000"},{"id":"54854","name":"Rasinja","state_id":742,"state_code":"06","country_id":55,"country_code":"HR","latitude":"46.18389000","longitude":"16.70667000"},{"id":"54857","name":"Reka","state_id":742,"state_code":"06","country_id":55,"country_code":"HR","latitude":"46.13028000","longitude":"16.76694000"},{"id":"54888","name":"Sigetec","state_id":742,"state_code":"06","country_id":55,"country_code":"HR","latitude":"46.18833000","longitude":"16.93583000"},{"id":"54972","name":"Virje","state_id":742,"state_code":"06","country_id":55,"country_code":"HR","latitude":"46.06722000","longitude":"16.99000000"}]