[{"id":"109045","name":"Bariadi","state_id":1464,"state_code":"30","country_id":218,"country_code":"TZ","latitude":"-2.80000000","longitude":"33.98333000"},{"id":"109126","name":"Kisesa","state_id":1464,"state_code":"30","country_id":218,"country_code":"TZ","latitude":"-3.08333000","longitude":"34.15000000"},{"id":"109140","name":"Lalago","state_id":1464,"state_code":"30","country_id":218,"country_code":"TZ","latitude":"-3.45000000","longitude":"33.95000000"},{"id":"109168","name":"Malampaka","state_id":1464,"state_code":"30","country_id":218,"country_code":"TZ","latitude":"-3.13333000","longitude":"33.53333000"},{"id":"109179","name":"Maswa","state_id":1464,"state_code":"30","country_id":218,"country_code":"TZ","latitude":"-2.68333000","longitude":"33.98333000"},{"id":"109183","name":"Matonga","state_id":1464,"state_code":"30","country_id":218,"country_code":"TZ","latitude":"-2.38333000","longitude":"34.08333000"},{"id":"109262","name":"Nyakabindi","state_id":1464,"state_code":"30","country_id":218,"country_code":"TZ","latitude":"-2.63333000","longitude":"33.98333000"},{"id":"109264","name":"Nyalikungu","state_id":1464,"state_code":"30","country_id":218,"country_code":"TZ","latitude":"-3.18333000","longitude":"33.78333000"},{"id":"109282","name":"Somanda","state_id":1464,"state_code":"30","country_id":218,"country_code":"TZ","latitude":"-3.36667000","longitude":"33.95000000"}]