[{"id":"109053","name":"Bukonyo","state_id":1468,"state_code":"13","country_id":218,"country_code":"TZ","latitude":"-1.95000000","longitude":"32.93333000"},{"id":"109056","name":"Butiama","state_id":1468,"state_code":"13","country_id":218,"country_code":"TZ","latitude":"-1.76667000","longitude":"33.96667000"},{"id":"109085","name":"Issenye","state_id":1468,"state_code":"13","country_id":218,"country_code":"TZ","latitude":"-2.00000000","longitude":"34.33333000"},{"id":"109102","name":"Kibara","state_id":1468,"state_code":"13","country_id":218,"country_code":"TZ","latitude":"-2.15000000","longitude":"33.45000000"},{"id":"109221","name":"Mugango","state_id":1468,"state_code":"13","country_id":218,"country_code":"TZ","latitude":"-1.68333000","longitude":"33.70000000"},{"id":"109222","name":"Mugumu","state_id":1468,"state_code":"13","country_id":218,"country_code":"TZ","latitude":"-1.85000000","longitude":"34.70000000"},{"id":"109225","name":"Muriti","state_id":1468,"state_code":"13","country_id":218,"country_code":"TZ","latitude":"-1.98333000","longitude":"32.91667000"},{"id":"109226","name":"Musoma","state_id":1468,"state_code":"13","country_id":218,"country_code":"TZ","latitude":"-1.50000000","longitude":"33.80000000"},{"id":"109236","name":"Nakatunguru","state_id":1468,"state_code":"13","country_id":218,"country_code":"TZ","latitude":"-2.11667000","longitude":"33.06667000"},{"id":"109245","name":"Nansio","state_id":1468,"state_code":"13","country_id":218,"country_code":"TZ","latitude":"-2.13333000","longitude":"33.05000000"},{"id":"109265","name":"Nyamuswa","state_id":1468,"state_code":"13","country_id":218,"country_code":"TZ","latitude":"-1.90000000","longitude":"34.01667000"},{"id":"109280","name":"Sirari","state_id":1468,"state_code":"13","country_id":218,"country_code":"TZ","latitude":"-1.25367000","longitude":"34.47596000"}]