[{"id":"109062","name":"Chiungutwa","state_id":1476,"state_code":"17","country_id":218,"country_code":"TZ","latitude":"-10.88333000","longitude":"38.98333000"},{"id":"109129","name":"Kitama","state_id":1476,"state_code":"17","country_id":218,"country_code":"TZ","latitude":"-10.71667000","longitude":"39.73333000"},{"id":"109130","name":"Kitangari","state_id":1476,"state_code":"17","country_id":218,"country_code":"TZ","latitude":"-10.65000000","longitude":"39.33333000"},{"id":"109145","name":"Luchingu","state_id":1476,"state_code":"17","country_id":218,"country_code":"TZ","latitude":"-10.90000000","longitude":"39.33333000"},{"id":"109147","name":"Lukuledi","state_id":1476,"state_code":"17","country_id":218,"country_code":"TZ","latitude":"-10.56667000","longitude":"38.80000000"},{"id":"109148","name":"Lulindi","state_id":1476,"state_code":"17","country_id":218,"country_code":"TZ","latitude":"-10.81667000","longitude":"39.13333000"},{"id":"109153","name":"Madimba","state_id":1476,"state_code":"17","country_id":218,"country_code":"TZ","latitude":"-10.40000000","longitude":"40.33333000"},{"id":"109162","name":"Mahuta","state_id":1476,"state_code":"17","country_id":218,"country_code":"TZ","latitude":"-10.86667000","longitude":"39.45000000"},{"id":"109176","name":"Masasi","state_id":1476,"state_code":"17","country_id":218,"country_code":"TZ","latitude":"-10.71667000","longitude":"38.80000000"},{"id":"109177","name":"Masuguru","state_id":1476,"state_code":"17","country_id":218,"country_code":"TZ","latitude":"-11.36667000","longitude":"38.41667000"},{"id":"109220","name":"Mtwara","state_id":1476,"state_code":"17","country_id":218,"country_code":"TZ","latitude":"-10.26667000","longitude":"40.18333000"},{"id":"109237","name":"Namalenga","state_id":1476,"state_code":"17","country_id":218,"country_code":"TZ","latitude":"-10.95000000","longitude":"39.10000000"},{"id":"109240","name":"Namikupa","state_id":1476,"state_code":"17","country_id":218,"country_code":"TZ","latitude":"-10.83333000","longitude":"39.60000000"},{"id":"109241","name":"Nanganga","state_id":1476,"state_code":"17","country_id":218,"country_code":"TZ","latitude":"-10.38333000","longitude":"39.15000000"},{"id":"109242","name":"Nangomba","state_id":1476,"state_code":"17","country_id":218,"country_code":"TZ","latitude":"-10.90000000","longitude":"38.50000000"},{"id":"109244","name":"Nanhyanga","state_id":1476,"state_code":"17","country_id":218,"country_code":"TZ","latitude":"-10.80000000","longitude":"39.55000000"},{"id":"109246","name":"Nanyamba","state_id":1476,"state_code":"17","country_id":218,"country_code":"TZ","latitude":"-10.68333000","longitude":"39.83333000"},{"id":"109249","name":"Newala Kisimani","state_id":1476,"state_code":"17","country_id":218,"country_code":"TZ","latitude":"-10.95000000","longitude":"39.28333000"},{"id":"109288","name":"Tandahimba","state_id":1476,"state_code":"17","country_id":218,"country_code":"TZ","latitude":"-10.75000000","longitude":"39.63333000"}]