[{"id":"109058","name":"Chala","state_id":1477,"state_code":"20","country_id":218,"country_code":"TZ","latitude":"-7.58333000","longitude":"31.26667000"},{"id":"109120","name":"Kirando","state_id":1477,"state_code":"20","country_id":218,"country_code":"TZ","latitude":"-7.41667000","longitude":"30.60000000"},{"id":"109139","name":"Laela","state_id":1477,"state_code":"20","country_id":218,"country_code":"TZ","latitude":"-8.56667000","longitude":"32.05000000"},{"id":"109180","name":"Matai","state_id":1477,"state_code":"20","country_id":218,"country_code":"TZ","latitude":"-8.30000000","longitude":"31.51667000"},{"id":"109239","name":"Namanyere","state_id":1477,"state_code":"20","country_id":218,"country_code":"TZ","latitude":"-7.51667000","longitude":"31.05000000"},{"id":"109258","name":"Nkove","state_id":1477,"state_code":"20","country_id":218,"country_code":"TZ","latitude":"-7.95000000","longitude":"30.85000000"},{"id":"109286","name":"Sumbawanga","state_id":1477,"state_code":"20","country_id":218,"country_code":"TZ","latitude":"-7.96667000","longitude":"31.61667000"}]