[{"id":"109090","name":"Kakonko","state_id":1478,"state_code":"08","country_id":218,"country_code":"TZ","latitude":"-3.28278000","longitude":"30.96417000"},{"id":"109095","name":"Kasulu","state_id":1478,"state_code":"08","country_id":218,"country_code":"TZ","latitude":"-4.57667000","longitude":"30.10250000"},{"id":"109105","name":"Kibondo","state_id":1478,"state_code":"08","country_id":218,"country_code":"TZ","latitude":"-3.58639000","longitude":"30.72028000"},{"id":"109108","name":"Kigoma","state_id":1478,"state_code":"08","country_id":218,"country_code":"TZ","latitude":"-4.87694000","longitude":"29.62667000"},{"id":"109152","name":"Mabamba","state_id":1478,"state_code":"08","country_id":218,"country_code":"TZ","latitude":"-3.59833000","longitude":"30.50194000"},{"id":"109230","name":"Mwandiga","state_id":1478,"state_code":"08","country_id":218,"country_code":"TZ","latitude":"-4.83000000","longitude":"29.65806000"},{"id":"109255","name":"Nguruka","state_id":1478,"state_code":"08","country_id":218,"country_code":"TZ","latitude":"-5.10917000","longitude":"31.04194000"},{"id":"109299","name":"Uvinza","state_id":1478,"state_code":"08","country_id":218,"country_code":"TZ","latitude":"-5.10361000","longitude":"30.39111000"}]