[{"id":"109043","name":"Babati","state_id":1484,"state_code":"26","country_id":218,"country_code":"TZ","latitude":"-4.21667000","longitude":"35.75000000"},{"id":"109046","name":"Bashanet","state_id":1484,"state_code":"26","country_id":218,"country_code":"TZ","latitude":"-4.23333000","longitude":"35.41667000"},{"id":"109047","name":"Basotu","state_id":1484,"state_code":"26","country_id":218,"country_code":"TZ","latitude":"-4.36667000","longitude":"35.08333000"},{"id":"109064","name":"Dareda","state_id":1484,"state_code":"26","country_id":218,"country_code":"TZ","latitude":"-4.21667000","longitude":"35.55000000"},{"id":"109066","name":"Dongobesh","state_id":1484,"state_code":"26","country_id":218,"country_code":"TZ","latitude":"-4.06667000","longitude":"35.38333000"},{"id":"109067","name":"Endasak","state_id":1484,"state_code":"26","country_id":218,"country_code":"TZ","latitude":"-4.41667000","longitude":"35.51667000"},{"id":"109068","name":"Galappo","state_id":1484,"state_code":"26","country_id":218,"country_code":"TZ","latitude":"-4.26667000","longitude":"35.85000000"},{"id":"109097","name":"Katesh","state_id":1484,"state_code":"26","country_id":218,"country_code":"TZ","latitude":"-4.52483000","longitude":"35.38490000"},{"id":"109103","name":"Kibaya","state_id":1484,"state_code":"26","country_id":218,"country_code":"TZ","latitude":"-5.30000000","longitude":"36.56667000"},{"id":"109122","name":"Kirya","state_id":1484,"state_code":"26","country_id":218,"country_code":"TZ","latitude":"-3.91667000","longitude":"37.48333000"},{"id":"109158","name":"Magugu","state_id":1484,"state_code":"26","country_id":218,"country_code":"TZ","latitude":"-4.01667000","longitude":"35.76667000"},{"id":"109190","name":"Mbulu","state_id":1484,"state_code":"26","country_id":218,"country_code":"TZ","latitude":"-3.85000000","longitude":"35.53333000"},{"id":"109234","name":"Naberera","state_id":1484,"state_code":"26","country_id":218,"country_code":"TZ","latitude":"-4.20000000","longitude":"36.93333000"},{"id":"109243","name":"Nangwa","state_id":1484,"state_code":"26","country_id":218,"country_code":"TZ","latitude":"-4.46667000","longitude":"35.45000000"}]