[{"id":"130052","name":"Cagua","state_id":2047,"state_code":"D","country_id":239,"country_code":"VE","latitude":"10.18634000","longitude":"-67.45935000"},{"id":"130077","name":"El Lim\u00f3n","state_id":2047,"state_code":"D","country_id":239,"country_code":"VE","latitude":"10.30589000","longitude":"-67.63212000"},{"id":"130093","name":"La Victoria","state_id":2047,"state_code":"D","country_id":239,"country_code":"VE","latitude":"10.22677000","longitude":"-67.33122000"},{"id":"130096","name":"Las Tejer\u00edas","state_id":2047,"state_code":"D","country_id":239,"country_code":"VE","latitude":"10.25416000","longitude":"-67.17333000"},{"id":"130104","name":"Maracay","state_id":2047,"state_code":"D","country_id":239,"country_code":"VE","latitude":"10.23535000","longitude":"-67.59113000"},{"id":"130128","name":"Palo Negro","state_id":2047,"state_code":"D","country_id":239,"country_code":"VE","latitude":"10.17389000","longitude":"-67.54194000"},{"id":"130151","name":"San Mateo","state_id":2047,"state_code":"D","country_id":239,"country_code":"VE","latitude":"10.21302000","longitude":"-67.42365000"},{"id":"130153","name":"Santa Rita","state_id":2047,"state_code":"D","country_id":239,"country_code":"VE","latitude":"10.20540000","longitude":"-67.55948000"},{"id":"130162","name":"Turmero","state_id":2047,"state_code":"D","country_id":239,"country_code":"VE","latitude":"10.22856000","longitude":"-67.47421000"},{"id":"130169","name":"Villa de Cura","state_id":2047,"state_code":"D","country_id":239,"country_code":"VE","latitude":"10.03863000","longitude":"-67.48938000"}]