[{"id":"130070","name":"Col\u00f3n","state_id":2048,"state_code":"S","country_id":239,"country_code":"VE","latitude":"8.03125000","longitude":"-72.26053000"},{"id":"130090","name":"La Fr\u00eda","state_id":2048,"state_code":"S","country_id":239,"country_code":"VE","latitude":"8.21523000","longitude":"-72.24888000"},{"id":"130091","name":"La Grita","state_id":2048,"state_code":"S","country_id":239,"country_code":"VE","latitude":"8.13316000","longitude":"-71.98390000"},{"id":"130114","name":"Municipio Jos\u00e9 Mar\u00eda Vargas","state_id":2048,"state_code":"S","country_id":239,"country_code":"VE","latitude":"8.03514000","longitude":"-72.05675000"},{"id":"130138","name":"Rubio","state_id":2048,"state_code":"S","country_id":239,"country_code":"VE","latitude":"7.70131000","longitude":"-72.35569000"},{"id":"130140","name":"San Antonio del T\u00e1chira","state_id":2048,"state_code":"S","country_id":239,"country_code":"VE","latitude":"7.81454000","longitude":"-72.44310000"},{"id":"130144","name":"San Crist\u00f3bal","state_id":2048,"state_code":"S","country_id":239,"country_code":"VE","latitude":"7.76694000","longitude":"-72.22500000"},{"id":"130163","name":"T\u00e1riba","state_id":2048,"state_code":"S","country_id":239,"country_code":"VE","latitude":"7.81880000","longitude":"-72.22427000"}]