[{"id":"130041","name":"Anaco","state_id":2050,"state_code":"B","country_id":239,"country_code":"VE","latitude":"9.42958000","longitude":"-64.46428000"},{"id":"130042","name":"Aragua de Barcelona","state_id":2050,"state_code":"B","country_id":239,"country_code":"VE","latitude":"9.45588000","longitude":"-64.82928000"},{"id":"130044","name":"Barcelona","state_id":2050,"state_code":"B","country_id":239,"country_code":"VE","latitude":"10.13625000","longitude":"-64.68618000"},{"id":"130054","name":"Cantaura","state_id":2050,"state_code":"B","country_id":239,"country_code":"VE","latitude":"9.30571000","longitude":"-64.35841000"},{"id":"130078","name":"El Tigre","state_id":2050,"state_code":"B","country_id":239,"country_code":"VE","latitude":"8.88902000","longitude":"-64.25270000"},{"id":"130113","name":"Municipio Jos\u00e9 Gregorio Monagas","state_id":2050,"state_code":"B","country_id":239,"country_code":"VE","latitude":"7.73874000","longitude":"-64.71876000"},{"id":"130127","name":"Onoto","state_id":2050,"state_code":"B","country_id":239,"country_code":"VE","latitude":"9.59714000","longitude":"-65.19350000"},{"id":"130133","name":"Puerto La Cruz","state_id":2050,"state_code":"B","country_id":239,"country_code":"VE","latitude":"10.21382000","longitude":"-64.63280000"},{"id":"130134","name":"Puerto P\u00edritu","state_id":2050,"state_code":"B","country_id":239,"country_code":"VE","latitude":"10.05896000","longitude":"-65.03698000"},{"id":"130148","name":"San Jos\u00e9 de Guanipa","state_id":2050,"state_code":"B","country_id":239,"country_code":"VE","latitude":"8.88724000","longitude":"-64.16512000"}]