[{"id":"130074","name":"Ejido","state_id":2053,"state_code":"L","country_id":239,"country_code":"VE","latitude":"8.54665000","longitude":"-71.24087000"},{"id":"130080","name":"El Vig\u00eda","state_id":2053,"state_code":"L","country_id":239,"country_code":"VE","latitude":"8.61350000","longitude":"-71.65702000"},{"id":"130124","name":"M\u00e9rida","state_id":2053,"state_code":"L","country_id":239,"country_code":"VE","latitude":"8.58972000","longitude":"-71.15611000"},{"id":"130109","name":"Mucumpiz","state_id":2053,"state_code":"L","country_id":239,"country_code":"VE","latitude":"8.41667000","longitude":"-71.13333000"},{"id":"130115","name":"Municipio Libertador","state_id":2053,"state_code":"L","country_id":239,"country_code":"VE","latitude":"8.33333000","longitude":"-71.11667000"}]