[{"id":"62292","name":"Above Rocks","state_id":3746,"state_code":"14","country_id":108,"country_code":"JM","latitude":"18.11432000","longitude":"-76.87590000"},{"id":"62338","name":"Bartons","state_id":3746,"state_code":"14","country_id":108,"country_code":"JM","latitude":"18.02895000","longitude":"-77.13322000"},{"id":"62348","name":"Bellas Gate","state_id":3746,"state_code":"14","country_id":108,"country_code":"JM","latitude":"18.04715000","longitude":"-77.14906000"},{"id":"62369","name":"Bog Walk","state_id":3746,"state_code":"14","country_id":108,"country_code":"JM","latitude":"18.10205000","longitude":"-77.00541000"},{"id":"62372","name":"Bogwalk","state_id":3746,"state_code":"14","country_id":108,"country_code":"JM","latitude":"18.10468000","longitude":"-76.98792000"},{"id":"62382","name":"Braeton","state_id":3746,"state_code":"14","country_id":108,"country_code":"JM","latitude":"17.94174000","longitude":"-76.88635000"},{"id":"62389","name":"Bridgeport","state_id":3746,"state_code":"14","country_id":108,"country_code":"JM","latitude":"17.96264000","longitude":"-76.87809000"},{"id":"62395","name":"Browns Hill","state_id":3746,"state_code":"14","country_id":108,"country_code":"JM","latitude":"18.05358000","longitude":"-77.11855000"},{"id":"62436","name":"Caymanas","state_id":3746,"state_code":"14","country_id":108,"country_code":"JM","latitude":"18.03824000","longitude":"-76.89833000"},{"id":"62441","name":"Central Village","state_id":3746,"state_code":"14","country_id":108,"country_code":"JM","latitude":"17.99992000","longitude":"-76.92393000"},{"id":"62488","name":"Crescent","state_id":3746,"state_code":"14","country_id":108,"country_code":"JM","latitude":"18.03621000","longitude":"-76.97626000"},{"id":"62490","name":"Cromarty","state_id":3746,"state_code":"14","country_id":108,"country_code":"JM","latitude":"17.95840000","longitude":"-76.98457000"},{"id":"62495","name":"Cumberland","state_id":3746,"state_code":"14","country_id":108,"country_code":"JM","latitude":"17.97650000","longitude":"-76.88208000"},{"id":"62532","name":"Edgewater","state_id":3746,"state_code":"14","country_id":108,"country_code":"JM","latitude":"17.96448000","longitude":"-76.86547000"},{"id":"62540","name":"Ensom","state_id":3746,"state_code":"14","country_id":108,"country_code":"JM","latitude":"18.01778000","longitude":"-76.96221000"},{"id":"62544","name":"Ewarton","state_id":3746,"state_code":"14","country_id":108,"country_code":"JM","latitude":"18.18333000","longitude":"-77.08536000"},{"id":"62587","name":"Ginger Ridge","state_id":3746,"state_code":"14","country_id":108,"country_code":"JM","latitude":"18.07688000","longitude":"-77.16865000"},{"id":"62589","name":"Glengoffe","state_id":3746,"state_code":"14","country_id":108,"country_code":"JM","latitude":"18.15214000","longitude":"-76.89057000"},{"id":"62591","name":"Golden Acres","state_id":3746,"state_code":"14","country_id":108,"country_code":"JM","latitude":"18.01950000","longitude":"-76.98040000"},{"id":"62609","name":"Greater Portmore","state_id":3746,"state_code":"14","country_id":108,"country_code":"JM","latitude":"17.95228000","longitude":"-76.91133000"},{"id":"62612","name":"Greendale","state_id":3746,"state_code":"14","country_id":108,"country_code":"JM","latitude":"18.01251000","longitude":"-76.94831000"},{"id":"62616","name":"Gregory Park","state_id":3746,"state_code":"14","country_id":108,"country_code":"JM","latitude":"17.99490000","longitude":"-76.88302000"},{"id":"62628","name":"Hampton Green","state_id":3746,"state_code":"14","country_id":108,"country_code":"JM","latitude":"18.00544000","longitude":"-76.96818000"},{"id":"62631","name":"Harewood","state_id":3746,"state_code":"14","country_id":108,"country_code":"JM","latitude":"18.17277000","longitude":"-76.94395000"},{"id":"62632","name":"Harkers Hall","state_id":3746,"state_code":"14","country_id":108,"country_code":"JM","latitude":"18.13149000","longitude":"-76.91350000"},{"id":"62643","name":"Hellshire","state_id":3746,"state_code":"14","country_id":108,"country_code":"JM","latitude":"17.89669000","longitude":"-76.96187000"},{"id":"62660","name":"Independence City","state_id":3746,"state_code":"14","country_id":108,"country_code":"JM","latitude":"17.97783000","longitude":"-76.87498000"},{"id":"62689","name":"Keystone","state_id":3746,"state_code":"14","country_id":108,"country_code":"JM","latitude":"18.01652000","longitude":"-76.93525000"},{"id":"62696","name":"Kitson Town","state_id":3746,"state_code":"14","country_id":108,"country_code":"JM","latitude":"18.03487000","longitude":"-77.04028000"},{"id":"62713","name":"Linstead","state_id":3746,"state_code":"14","country_id":108,"country_code":"JM","latitude":"18.13683000","longitude":"-77.03171000"},{"id":"62722","name":"Lluidas Vale","state_id":3746,"state_code":"14","country_id":108,"country_code":"JM","latitude":"18.14977000","longitude":"-77.16853000"},{"id":"62808","name":"Naggo Head","state_id":3746,"state_code":"14","country_id":108,"country_code":"JM","latitude":"17.96415000","longitude":"-76.88820000"},{"id":"62838","name":"Old Harbour","state_id":3746,"state_code":"14","country_id":108,"country_code":"JM","latitude":"17.94144000","longitude":"-77.10898000"},{"id":"62839","name":"Old Harbour Bay","state_id":3746,"state_code":"14","country_id":108,"country_code":"JM","latitude":"17.90918000","longitude":"-77.09718000"},{"id":"62840","name":"Old Harbour Road","state_id":3746,"state_code":"14","country_id":108,"country_code":"JM","latitude":"17.95797000","longitude":"-77.02730000"},{"id":"62860","name":"Part of Guys Hill","state_id":3746,"state_code":"14","country_id":108,"country_code":"JM","latitude":"18.24525000","longitude":"-76.99081000"},{"id":"62862","name":"Part of Keystone","state_id":3746,"state_code":"14","country_id":108,"country_code":"JM","latitude":"18.03965000","longitude":"-76.95113000"},{"id":"62863","name":"Part of Rock Hall","state_id":3746,"state_code":"14","country_id":108,"country_code":"JM","latitude":"18.09119000","longitude":"-76.88804000"},{"id":"62865","name":"Passage Fort","state_id":3746,"state_code":"14","country_id":108,"country_code":"JM","latitude":"17.97788000","longitude":"-76.86793000"},{"id":"62870","name":"Pear Tree Grove","state_id":3746,"state_code":"14","country_id":108,"country_code":"JM","latitude":"18.22515000","longitude":"-76.95293000"},{"id":"62888","name":"Point Hill","state_id":3746,"state_code":"14","country_id":108,"country_code":"JM","latitude":"18.09361000","longitude":"-77.10480000"},{"id":"62898","name":"Portmore","state_id":3746,"state_code":"14","country_id":108,"country_code":"JM","latitude":"17.95032000","longitude":"-76.88215000"},{"id":"62920","name":"Redwood","state_id":3746,"state_code":"14","country_id":108,"country_code":"JM","latitude":"18.21026000","longitude":"-76.98536000"},{"id":"62937","name":"Riversdale","state_id":3746,"state_code":"14","country_id":108,"country_code":"JM","latitude":"18.17802000","longitude":"-76.96636000"},{"id":"62995","name":"Sligoville","state_id":3746,"state_code":"14","country_id":108,"country_code":"JM","latitude":"18.08203000","longitude":"-76.93991000"},{"id":"63007","name":"Spanish Town","state_id":3746,"state_code":"14","country_id":108,"country_code":"JM","latitude":"17.99107000","longitude":"-76.95742000"},{"id":"63008","name":"Spanish Town Central","state_id":3746,"state_code":"14","country_id":108,"country_code":"JM","latitude":"17.98014000","longitude":"-76.92294000"},{"id":"63021","name":"St. John's East","state_id":3746,"state_code":"14","country_id":108,"country_code":"JM","latitude":"18.00090000","longitude":"-76.97466000"},{"id":"63022","name":"St. John's West","state_id":3746,"state_code":"14","country_id":108,"country_code":"JM","latitude":"18.00539000","longitude":"-77.00755000"},{"id":"63066","name":"Troja","state_id":3746,"state_code":"14","country_id":108,"country_code":"JM","latitude":"18.20485000","longitude":"-76.93196000"},{"id":"63089","name":"Waterford","state_id":3746,"state_code":"14","country_id":108,"country_code":"JM","latitude":"17.99340000","longitude":"-76.86090000"},{"id":"63091","name":"Watermount","state_id":3746,"state_code":"14","country_id":108,"country_code":"JM","latitude":"18.06686000","longitude":"-77.09112000"},{"id":"63095","name":"West Cumberland","state_id":3746,"state_code":"14","country_id":108,"country_code":"JM","latitude":"17.97890000","longitude":"-76.88662000"},{"id":"63108","name":"Willowdene","state_id":3746,"state_code":"14","country_id":108,"country_code":"JM","latitude":"17.99189000","longitude":"-76.98199000"}]