[{"id":"62309","name":"Amiel Town","state_id":3747,"state_code":"05","country_id":108,"country_code":"JM","latitude":"18.34027000","longitude":"-76.97612000"},{"id":"62313","name":"Annotto Bay","state_id":3747,"state_code":"05","country_id":108,"country_code":"JM","latitude":"18.27170000","longitude":"-76.76523000"},{"id":"62325","name":"Baileys Vale","state_id":3747,"state_code":"05","country_id":108,"country_code":"JM","latitude":"18.34527000","longitude":"-76.92593000"},{"id":"62342","name":"Baxter Mountain","state_id":3747,"state_code":"05","country_id":108,"country_code":"JM","latitude":"18.20405000","longitude":"-76.77198000"},{"id":"62347","name":"Belfield","state_id":3747,"state_code":"05","country_id":108,"country_code":"JM","latitude":"18.27347000","longitude":"-76.83574000"},{"id":"62375","name":"Bonnygate","state_id":3747,"state_code":"05","country_id":108,"country_code":"JM","latitude":"18.32869000","longitude":"-76.94606000"},{"id":"62383","name":"Brainerd","state_id":3747,"state_code":"05","country_id":108,"country_code":"JM","latitude":"18.16988000","longitude":"-76.86890000"},{"id":"62392","name":"Broadgate","state_id":3747,"state_code":"05","country_id":108,"country_code":"JM","latitude":"18.22847000","longitude":"-76.80788000"},{"id":"62414","name":"Camberwell","state_id":3747,"state_code":"05","country_id":108,"country_code":"JM","latitude":"18.23930000","longitude":"-76.78088000"},{"id":"62421","name":"Carron Hall","state_id":3747,"state_code":"05","country_id":108,"country_code":"JM","latitude":"18.27797000","longitude":"-76.95246000"},{"id":"62428","name":"Castleton","state_id":3747,"state_code":"05","country_id":108,"country_code":"JM","latitude":"18.17618000","longitude":"-76.78340000"},{"id":"62448","name":"Charles Town","state_id":3747,"state_code":"05","country_id":108,"country_code":"JM","latitude":"18.38918000","longitude":"-77.03978000"},{"id":"62459","name":"Clonmel","state_id":3747,"state_code":"05","country_id":108,"country_code":"JM","latitude":"18.24281000","longitude":"-76.83137000"},{"id":"62511","name":"Devon Pen","state_id":3747,"state_code":"05","country_id":108,"country_code":"JM","latitude":"18.21561000","longitude":"-76.82440000"},{"id":"62515","name":"Dover","state_id":3747,"state_code":"05","country_id":108,"country_code":"JM","latitude":"18.25534000","longitude":"-76.70811000"},{"id":"62539","name":"Enfield","state_id":3747,"state_code":"05","country_id":108,"country_code":"JM","latitude":"18.22036000","longitude":"-76.73745000"},{"id":"62541","name":"Epson","state_id":3747,"state_code":"05","country_id":108,"country_code":"JM","latitude":"18.25220000","longitude":"-76.72641000"},{"id":"62559","name":"Flint River","state_id":3747,"state_code":"05","country_id":108,"country_code":"JM","latitude":"18.23790000","longitude":"-76.92173000"},{"id":"62568","name":"Free Hill","state_id":3747,"state_code":"05","country_id":108,"country_code":"JM","latitude":"18.35439000","longitude":"-76.94317000"},{"id":"62573","name":"Friendship Gap","state_id":3747,"state_code":"05","country_id":108,"country_code":"JM","latitude":"18.19719000","longitude":"-76.81960000"},{"id":"62578","name":"Galina","state_id":3747,"state_code":"05","country_id":108,"country_code":"JM","latitude":"18.40265000","longitude":"-76.90041000"},{"id":"62580","name":"Gayle","state_id":3747,"state_code":"05","country_id":108,"country_code":"JM","latitude":"18.34278000","longitude":"-77.00211000"},{"id":"62619","name":"Guys Hill","state_id":3747,"state_code":"05","country_id":108,"country_code":"JM","latitude":"18.26243000","longitude":"-76.99561000"},{"id":"62626","name":"Hampstead","state_id":3747,"state_code":"05","country_id":108,"country_code":"JM","latitude":"18.32051000","longitude":"-76.90477000"},{"id":"62648","name":"Highgate","state_id":3747,"state_code":"05","country_id":108,"country_code":"JM","latitude":"18.27739000","longitude":"-76.89554000"},{"id":"62666","name":"Islington","state_id":3747,"state_code":"05","country_id":108,"country_code":"JM","latitude":"18.32160000","longitude":"-76.84102000"},{"id":"62668","name":"Jacks River","state_id":3747,"state_code":"05","country_id":108,"country_code":"JM","latitude":"18.37220000","longitude":"-76.94101000"},{"id":"62671","name":"Jeffery Town","state_id":3747,"state_code":"05","country_id":108,"country_code":"JM","latitude":"18.28956000","longitude":"-77.00343000"},{"id":"62698","name":"Labyrinth","state_id":3747,"state_code":"05","country_id":108,"country_code":"JM","latitude":"18.34419000","longitude":"-77.03227000"},{"id":"62725","name":"Long Road","state_id":3747,"state_code":"05","country_id":108,"country_code":"JM","latitude":"18.21337000","longitude":"-76.75009000"},{"id":"62734","name":"Lucky Hill","state_id":3747,"state_code":"05","country_id":108,"country_code":"JM","latitude":"18.30252000","longitude":"-77.01678000"},{"id":"62747","name":"Mango Valley","state_id":3747,"state_code":"05","country_id":108,"country_code":"JM","latitude":"18.37481000","longitude":"-76.97694000"},{"id":"62756","name":"Martin","state_id":3747,"state_code":"05","country_id":108,"country_code":"JM","latitude":"18.30118000","longitude":"-76.87257000"},{"id":"62760","name":"Mason Hall","state_id":3747,"state_code":"05","country_id":108,"country_code":"JM","latitude":"18.39662000","longitude":"-76.92063000"},{"id":"62774","name":"Mile Gully","state_id":3747,"state_code":"05","country_id":108,"country_code":"JM","latitude":"18.31801000","longitude":"-76.96051000"},{"id":"62841","name":"Oracabessa","state_id":3747,"state_code":"05","country_id":108,"country_code":"JM","latitude":"18.40319000","longitude":"-76.94641000"},{"id":"62893","name":"Port Maria","state_id":3747,"state_code":"05","country_id":108,"country_code":"JM","latitude":"18.36849000","longitude":"-76.88946000"},{"id":"62906","name":"Prospect","state_id":3747,"state_code":"05","country_id":108,"country_code":"JM","latitude":"18.41273000","longitude":"-77.04119000"},{"id":"62924","name":"Retreat","state_id":3747,"state_code":"05","country_id":108,"country_code":"JM","latitude":"18.37865000","longitude":"-77.01590000"},{"id":"62928","name":"Richmond","state_id":3747,"state_code":"05","country_id":108,"country_code":"JM","latitude":"18.21113000","longitude":"-76.88301000"},{"id":"62940","name":"Robins Bay","state_id":3747,"state_code":"05","country_id":108,"country_code":"JM","latitude":"18.31236000","longitude":"-76.81783000"},{"id":"62967","name":"Sandside","state_id":3747,"state_code":"05","country_id":108,"country_code":"JM","latitude":"18.33888000","longitude":"-76.89551000"},{"id":"62977","name":"Scotts Hall","state_id":3747,"state_code":"05","country_id":108,"country_code":"JM","latitude":"18.19083000","longitude":"-76.83942000"},{"id":"63121","name":"Woodpark","state_id":3747,"state_code":"05","country_id":108,"country_code":"JM","latitude":"18.29734000","longitude":"-76.98114000"},{"id":"63122","name":"Woodside","state_id":3747,"state_code":"05","country_id":108,"country_code":"JM","latitude":"18.25258000","longitude":"-76.92679000"}]