[{"id":"131435","name":"Gokwe","state_id":1957,"state_code":"MI","country_id":247,"country_code":"ZW","latitude":"-18.20476000","longitude":"28.93490000"},{"id":"131441","name":"Gweru","state_id":1957,"state_code":"MI","country_id":247,"country_code":"ZW","latitude":"-19.45000000","longitude":"29.81667000"},{"id":"131442","name":"Gweru District","state_id":1957,"state_code":"MI","country_id":247,"country_code":"ZW","latitude":"-19.45665000","longitude":"29.64495000"},{"id":"131457","name":"Kwekwe","state_id":1957,"state_code":"MI","country_id":247,"country_code":"ZW","latitude":"-18.92809000","longitude":"29.81486000"},{"id":"131458","name":"Kwekwe District","state_id":1957,"state_code":"MI","country_id":247,"country_code":"ZW","latitude":"-18.75000000","longitude":"29.50000000"},{"id":"131459","name":"Lalapanzi","state_id":1957,"state_code":"MI","country_id":247,"country_code":"ZW","latitude":"-19.33225000","longitude":"30.17768000"},{"id":"131474","name":"Mberengwa District","state_id":1957,"state_code":"MI","country_id":247,"country_code":"ZW","latitude":"-20.72579000","longitude":"30.00962000"},{"id":"131484","name":"Mvuma","state_id":1957,"state_code":"MI","country_id":247,"country_code":"ZW","latitude":"-19.27924000","longitude":"30.52828000"},{"id":"131496","name":"Redcliff","state_id":1957,"state_code":"MI","country_id":247,"country_code":"ZW","latitude":"-19.03333000","longitude":"29.78333000"},{"id":"131502","name":"Shangani","state_id":1957,"state_code":"MI","country_id":247,"country_code":"ZW","latitude":"-19.78333000","longitude":"29.36667000"},{"id":"131503","name":"Shurugwi","state_id":1957,"state_code":"MI","country_id":247,"country_code":"ZW","latitude":"-19.67016000","longitude":"30.00589000"},{"id":"131504","name":"Shurugwi District","state_id":1957,"state_code":"MI","country_id":247,"country_code":"ZW","latitude":"-19.75000000","longitude":"30.16667000"},{"id":"131508","name":"Zvishavane District","state_id":1957,"state_code":"MI","country_id":247,"country_code":"ZW","latitude":"-20.30345000","longitude":"30.07514000"}]