[{"id":"131404","name":"Bikita District","state_id":1960,"state_code":"MV","country_id":247,"country_code":"ZW","latitude":"-20.13752000","longitude":"31.93156000"},{"id":"131422","name":"Chiredzi","state_id":1960,"state_code":"MV","country_id":247,"country_code":"ZW","latitude":"-21.05000000","longitude":"31.66667000"},{"id":"131423","name":"Chiredzi District","state_id":1960,"state_code":"MV","country_id":247,"country_code":"ZW","latitude":"-21.28585000","longitude":"31.77039000"},{"id":"131427","name":"Chivi District","state_id":1960,"state_code":"MV","country_id":247,"country_code":"ZW","latitude":"-20.50000000","longitude":"30.58333000"},{"id":"131438","name":"Gutu District","state_id":1960,"state_code":"MV","country_id":247,"country_code":"ZW","latitude":"-19.60884000","longitude":"31.25059000"},{"id":"131468","name":"Mashava","state_id":1960,"state_code":"MV","country_id":247,"country_code":"ZW","latitude":"-20.03665000","longitude":"30.48225000"},{"id":"131469","name":"Masvingo","state_id":1960,"state_code":"MV","country_id":247,"country_code":"ZW","latitude":"-20.06373000","longitude":"30.82766000"},{"id":"131470","name":"Masvingo District","state_id":1960,"state_code":"MV","country_id":247,"country_code":"ZW","latitude":"-20.31481000","longitude":"30.90008000"},{"id":"131486","name":"Mwenezi District","state_id":1960,"state_code":"MV","country_id":247,"country_code":"ZW","latitude":"-21.35838000","longitude":"30.70668000"},{"id":"131507","name":"Zvishavane","state_id":1960,"state_code":"MV","country_id":247,"country_code":"ZW","latitude":"-20.32674000","longitude":"30.06648000"}]