[{"id":"66883","name":"Bolderaja","state_id":4491,"state_code":"RIX","country_id":120,"country_code":"LV","latitude":"57.03132000","longitude":"24.05571000"},{"id":"66890","name":"Daugavgriva","state_id":4491,"state_code":"RIX","country_id":120,"country_code":"LV","latitude":"57.04315000","longitude":"24.03613000"},{"id":"66903","name":"Jaunciems","state_id":4491,"state_code":"RIX","country_id":120,"country_code":"LV","latitude":"57.03910000","longitude":"24.17413000"},{"id":"66928","name":"Mezaparks","state_id":4491,"state_code":"RIX","country_id":120,"country_code":"LV","latitude":"57.00008000","longitude":"24.15997000"},{"id":"66948","name":"Riga","state_id":4491,"state_code":"RIX","country_id":120,"country_code":"LV","latitude":"56.94600000","longitude":"24.10589000"}]