[{"id":"158","name":"Bashkia Dropull","state_id":621,"state_code":"GJ","country_id":3,"country_code":"AL","latitude":"39.98584000","longitude":"20.30529000"},{"id":"164","name":"Bashkia Kelcyr\u00eb","state_id":621,"state_code":"GJ","country_id":3,"country_code":"AL","latitude":"40.36196000","longitude":"20.16476000"},{"id":"172","name":"Bashkia Libohov\u00eb","state_id":621,"state_code":"GJ","country_id":3,"country_code":"AL","latitude":"40.10754000","longitude":"20.25753000"},{"id":"177","name":"Bashkia Memaliaj","state_id":621,"state_code":"GJ","country_id":3,"country_code":"AL","latitude":"40.41524000","longitude":"19.96911000"},{"id":"183","name":"Bashkia P\u00ebrmet","state_id":621,"state_code":"GJ","country_id":3,"country_code":"AL","latitude":"40.23246000","longitude":"20.41091000"},{"id":"187","name":"Bashkia Tepelen\u00eb","state_id":621,"state_code":"GJ","country_id":3,"country_code":"AL","latitude":"40.26736000","longitude":"19.97003000"},{"id":"204","name":"Gjinkar","state_id":621,"state_code":"GJ","country_id":3,"country_code":"AL","latitude":"40.19944000","longitude":"20.40611000"},{"id":"205","name":"Gjirokast\u00ebr","state_id":621,"state_code":"GJ","country_id":3,"country_code":"AL","latitude":"40.07583000","longitude":"20.13889000"},{"id":"220","name":"K\u00eblcyr\u00eb","state_id":621,"state_code":"GJ","country_id":3,"country_code":"AL","latitude":"40.31306000","longitude":"20.18944000"},{"id":"221","name":"Lazarat","state_id":621,"state_code":"GJ","country_id":3,"country_code":"AL","latitude":"40.04667000","longitude":"20.14750000"},{"id":"225","name":"Libohov\u00eb","state_id":621,"state_code":"GJ","country_id":3,"country_code":"AL","latitude":"40.03111000","longitude":"20.26306000"},{"id":"231","name":"Memaliaj","state_id":621,"state_code":"GJ","country_id":3,"country_code":"AL","latitude":"40.35167000","longitude":"19.98028000"},{"id":"240","name":"P\u00ebrmet","state_id":621,"state_code":"GJ","country_id":3,"country_code":"AL","latitude":"40.23361000","longitude":"20.35167000"},{"id":"270","name":"Tepelen\u00eb","state_id":621,"state_code":"GJ","country_id":3,"country_code":"AL","latitude":"40.29583000","longitude":"20.01917000"}]