[{"id":"280","name":"\u00c7orovod\u00eb","state_id":629,"state_code":"BR","country_id":3,"country_code":"AL","latitude":"40.50417000","longitude":"20.22722000"},{"id":"153","name":"Banaj","state_id":629,"state_code":"BR","country_id":3,"country_code":"AL","latitude":"40.82492000","longitude":"19.84074000"},{"id":"154","name":"Bashkia Berat","state_id":629,"state_code":"BR","country_id":3,"country_code":"AL","latitude":"40.69997000","longitude":"19.94983000"},{"id":"170","name":"Bashkia Ku\u00e7ov\u00eb","state_id":629,"state_code":"BR","country_id":3,"country_code":"AL","latitude":"40.82489000","longitude":"19.95350000"},{"id":"180","name":"Bashkia Poli\u00e7an","state_id":629,"state_code":"BR","country_id":3,"country_code":"AL","latitude":"40.58608000","longitude":"20.04535000"},{"id":"186","name":"Bashkia Skrapar","state_id":629,"state_code":"BR","country_id":3,"country_code":"AL","latitude":"40.56036000","longitude":"20.25477000"},{"id":"191","name":"Berat","state_id":629,"state_code":"BR","country_id":3,"country_code":"AL","latitude":"40.70583000","longitude":"19.95222000"},{"id":"219","name":"Ku\u00e7ov\u00eb","state_id":629,"state_code":"BR","country_id":3,"country_code":"AL","latitude":"40.80028000","longitude":"19.91667000"},{"id":"238","name":"Poli\u00e7an","state_id":629,"state_code":"BR","country_id":3,"country_code":"AL","latitude":"40.61222000","longitude":"20.09806000"},{"id":"242","name":"Rrethi i Beratit","state_id":629,"state_code":"BR","country_id":3,"country_code":"AL","latitude":"40.66667000","longitude":"20.00000000"},{"id":"253","name":"Rrethi i Ku\u00e7ov\u00ebs","state_id":629,"state_code":"BR","country_id":3,"country_code":"AL","latitude":"40.83333000","longitude":"19.91667000"},{"id":"258","name":"Rrethi i Skraparit","state_id":629,"state_code":"BR","country_id":3,"country_code":"AL","latitude":"40.55000000","longitude":"20.26667000"},{"id":"273","name":"Ura Vajgurore","state_id":629,"state_code":"BR","country_id":3,"country_code":"AL","latitude":"40.76889000","longitude":"19.87778000"}]