[{"id":"156","name":"Bashkia Devoll","state_id":630,"state_code":"06","country_id":3,"country_code":"AL","latitude":"40.60078000","longitude":"20.93814000"},{"id":"166","name":"Bashkia Kolonj\u00eb","state_id":630,"state_code":"06","country_id":3,"country_code":"AL","latitude":"40.31420000","longitude":"20.61482000"},{"id":"173","name":"Bashkia Maliq","state_id":630,"state_code":"06","country_id":3,"country_code":"AL","latitude":"40.75508000","longitude":"20.60748000"},{"id":"182","name":"Bashkia Pustec","state_id":630,"state_code":"06","country_id":3,"country_code":"AL","latitude":"40.83591000","longitude":"20.89405000"},{"id":"192","name":"Bilisht","state_id":630,"state_code":"06","country_id":3,"country_code":"AL","latitude":"40.62750000","longitude":"20.99000000"},{"id":"199","name":"Ersek\u00eb","state_id":630,"state_code":"06","country_id":3,"country_code":"AL","latitude":"40.33778000","longitude":"20.67889000"},{"id":"212","name":"Kor\u00e7\u00eb","state_id":630,"state_code":"06","country_id":3,"country_code":"AL","latitude":"40.61861000","longitude":"20.78083000"},{"id":"223","name":"Leskovik","state_id":630,"state_code":"06","country_id":3,"country_code":"AL","latitude":"40.15139000","longitude":"20.59722000"},{"id":"226","name":"Libonik","state_id":630,"state_code":"06","country_id":3,"country_code":"AL","latitude":"40.70444000","longitude":"20.70861000"},{"id":"228","name":"Maliq","state_id":630,"state_code":"06","country_id":3,"country_code":"AL","latitude":"40.70583000","longitude":"20.69972000"},{"id":"230","name":"Mborje","state_id":630,"state_code":"06","country_id":3,"country_code":"AL","latitude":"40.60333000","longitude":"20.80306000"},{"id":"237","name":"Pogradec","state_id":630,"state_code":"06","country_id":3,"country_code":"AL","latitude":"40.90250000","longitude":"20.65250000"},{"id":"245","name":"Rrethi i Devollit","state_id":630,"state_code":"06","country_id":3,"country_code":"AL","latitude":"40.58333000","longitude":"20.91667000"},{"id":"249","name":"Rrethi i Kolonj\u00ebs","state_id":630,"state_code":"06","country_id":3,"country_code":"AL","latitude":"40.25000000","longitude":"20.66667000"},{"id":"275","name":"Vel\u00e7an","state_id":630,"state_code":"06","country_id":3,"country_code":"AL","latitude":"40.95472000","longitude":"20.46222000"},{"id":"278","name":"Voskopoj\u00eb","state_id":630,"state_code":"06","country_id":3,"country_code":"AL","latitude":"40.63306000","longitude":"20.58889000"}]