[{"id":"161","name":"Bashkia Finiq","state_id":634,"state_code":"12","country_id":3,"country_code":"AL","latitude":"39.84393000","longitude":"20.16659000"},{"id":"162","name":"Bashkia Himar\u00eb","state_id":634,"state_code":"12","country_id":3,"country_code":"AL","latitude":"40.11581000","longitude":"19.81389000"},{"id":"167","name":"Bashkia Konispol","state_id":634,"state_code":"12","country_id":3,"country_code":"AL","latitude":"39.70064000","longitude":"20.13353000"},{"id":"184","name":"Bashkia Selenic\u00eb","state_id":634,"state_code":"12","country_id":3,"country_code":"AL","latitude":"40.39503000","longitude":"19.65958000"},{"id":"189","name":"Bashkia Vlor\u00eb","state_id":634,"state_code":"12","country_id":3,"country_code":"AL","latitude":"40.41340000","longitude":"19.49792000"},{"id":"195","name":"Delvin\u00eb","state_id":634,"state_code":"12","country_id":3,"country_code":"AL","latitude":"39.95111000","longitude":"20.09778000"},{"id":"206","name":"Himar\u00eb","state_id":634,"state_code":"12","country_id":3,"country_code":"AL","latitude":"40.10167000","longitude":"19.74472000"},{"id":"210","name":"Konispol","state_id":634,"state_code":"12","country_id":3,"country_code":"AL","latitude":"39.65889000","longitude":"20.18139000"},{"id":"216","name":"Ksamil","state_id":634,"state_code":"12","country_id":3,"country_code":"AL","latitude":"39.76889000","longitude":"19.99972000"},{"id":"233","name":"Orikum","state_id":634,"state_code":"12","country_id":3,"country_code":"AL","latitude":"40.32528000","longitude":"19.47139000"},{"id":"244","name":"Rrethi i Delvin\u00ebs","state_id":634,"state_code":"12","country_id":3,"country_code":"AL","latitude":"39.91667000","longitude":"20.08333000"},{"id":"263","name":"Sarand\u00eb","state_id":634,"state_code":"12","country_id":3,"country_code":"AL","latitude":"39.87534000","longitude":"20.00477000"},{"id":"264","name":"Selenic\u00eb","state_id":634,"state_code":"12","country_id":3,"country_code":"AL","latitude":"40.53056000","longitude":"19.63583000"},{"id":"276","name":"Vlor\u00eb","state_id":634,"state_code":"12","country_id":3,"country_code":"AL","latitude":"40.46860000","longitude":"19.48318000"}]