[{"id":"80007","name":"Buena Vista","state_id":1386,"state_code":"3","country_id":170,"country_code":"PA","latitude":"9.27356000","longitude":"-79.69551000"},{"id":"80035","name":"Cativ\u00e1","state_id":1386,"state_code":"3","country_id":170,"country_code":"PA","latitude":"9.36218000","longitude":"-79.83232000"},{"id":"80072","name":"Cocl\u00e9 del Norte","state_id":1386,"state_code":"3","country_id":170,"country_code":"PA","latitude":"9.07540000","longitude":"-80.57177000"},{"id":"80073","name":"Col\u00f3n","state_id":1386,"state_code":"3","country_id":170,"country_code":"PA","latitude":"9.35451000","longitude":"-79.90011000"},{"id":"80078","name":"Crist\u00f3bal","state_id":1386,"state_code":"3","country_id":170,"country_code":"PA","latitude":"9.35222000","longitude":"-79.90444000"},{"id":"80099","name":"Distrito de Chagres","state_id":1386,"state_code":"3","country_id":170,"country_code":"PA","latitude":"9.12300000","longitude":"-80.11841000"},{"id":"80106","name":"Distrito de Col\u00f3n","state_id":1386,"state_code":"3","country_id":170,"country_code":"PA","latitude":"9.24313000","longitude":"-79.79463000"},{"id":"80109","name":"Distrito de Donoso","state_id":1386,"state_code":"3","country_id":170,"country_code":"PA","latitude":"9.01999000","longitude":"-80.42967000"},{"id":"80131","name":"Distrito de Portobelo","state_id":1386,"state_code":"3","country_id":170,"country_code":"PA","latitude":"9.49748000","longitude":"-79.60730000"},{"id":"80140","name":"Distrito de Santa Isabel","state_id":1386,"state_code":"3","country_id":170,"country_code":"PA","latitude":"9.48333000","longitude":"-79.31667000"},{"id":"80174","name":"El Giral","state_id":1386,"state_code":"3","country_id":170,"country_code":"PA","latitude":"9.24509000","longitude":"-79.69266000"},{"id":"80175","name":"El Guabo","state_id":1386,"state_code":"3","country_id":170,"country_code":"PA","latitude":"9.07842000","longitude":"-80.08316000"},{"id":"80206","name":"El Valle de la Uni\u00f3n","state_id":1386,"state_code":"3","country_id":170,"country_code":"PA","latitude":"9.23630000","longitude":"-79.65986000"},{"id":"80208","name":"Escobal","state_id":1386,"state_code":"3","country_id":170,"country_code":"PA","latitude":"9.14373000","longitude":"-79.96439000"},{"id":"80214","name":"Gat\u00fan","state_id":1386,"state_code":"3","country_id":170,"country_code":"PA","latitude":"9.28922000","longitude":"-79.77204000"},{"id":"80213","name":"Gatuncillo","state_id":1386,"state_code":"3","country_id":170,"country_code":"PA","latitude":"9.24346000","longitude":"-79.64856000"},{"id":"80298","name":"Las Margaritas","state_id":1386,"state_code":"3","country_id":170,"country_code":"PA","latitude":"9.32603000","longitude":"-79.89028000"},{"id":"80350","name":"Mar\u00eda Chiquita","state_id":1386,"state_code":"3","country_id":170,"country_code":"PA","latitude":"9.43991000","longitude":"-79.75455000"},{"id":"80354","name":"Miramar","state_id":1386,"state_code":"3","country_id":170,"country_code":"PA","latitude":"9.57544000","longitude":"-79.33573000"},{"id":"80368","name":"Nombre de Dios","state_id":1386,"state_code":"3","country_id":170,"country_code":"PA","latitude":"9.57937000","longitude":"-79.47109000"},{"id":"80376","name":"Nuevo Chagres","state_id":1386,"state_code":"3","country_id":170,"country_code":"PA","latitude":"9.23979000","longitude":"-80.08267000"},{"id":"80379","name":"Nuevo San Juan","state_id":1386,"state_code":"3","country_id":170,"country_code":"PA","latitude":"9.22205000","longitude":"-79.66602000"},{"id":"80380","name":"Nuevo Vig\u00eda","state_id":1386,"state_code":"3","country_id":170,"country_code":"PA","latitude":"9.24263000","longitude":"-79.60756000"},{"id":"80388","name":"Palenque","state_id":1386,"state_code":"3","country_id":170,"country_code":"PA","latitude":"9.56970000","longitude":"-79.36341000"},{"id":"80389","name":"Palmas Bellas","state_id":1386,"state_code":"3","country_id":170,"country_code":"PA","latitude":"9.22838000","longitude":"-80.08503000"},{"id":"80391","name":"Palmira","state_id":1386,"state_code":"3","country_id":170,"country_code":"PA","latitude":"9.54359000","longitude":"-79.21946000"},{"id":"80415","name":"Playa Chiquita","state_id":1386,"state_code":"3","country_id":170,"country_code":"PA","latitude":"9.56620000","longitude":"-79.29185000"},{"id":"80423","name":"Portobelo","state_id":1386,"state_code":"3","country_id":170,"country_code":"PA","latitude":"9.55303000","longitude":"-79.65693000"},{"id":"80433","name":"Puerto Escondido","state_id":1386,"state_code":"3","country_id":170,"country_code":"PA","latitude":"9.19333000","longitude":"-80.08833000"},{"id":"80435","name":"Puerto Pil\u00f3n","state_id":1386,"state_code":"3","country_id":170,"country_code":"PA","latitude":"9.36316000","longitude":"-79.79333000"},{"id":"80443","name":"Quebrada Bonita Adentro","state_id":1386,"state_code":"3","country_id":170,"country_code":"PA","latitude":"9.29662000","longitude":"-79.70606000"},{"id":"80457","name":"R\u00edo Alejandro","state_id":1386,"state_code":"3","country_id":170,"country_code":"PA","latitude":"9.37149000","longitude":"-79.78809000"},{"id":"80459","name":"R\u00edo Duque","state_id":1386,"state_code":"3","country_id":170,"country_code":"PA","latitude":"9.25688000","longitude":"-79.67937000"},{"id":"80464","name":"R\u00edo Rita","state_id":1386,"state_code":"3","country_id":170,"country_code":"PA","latitude":"9.30296000","longitude":"-79.79234000"},{"id":"80469","name":"Sabanitas","state_id":1386,"state_code":"3","country_id":170,"country_code":"PA","latitude":"9.34269000","longitude":"-79.80961000"},{"id":"80502","name":"Santa Isabel","state_id":1386,"state_code":"3","country_id":170,"country_code":"PA","latitude":"9.53922000","longitude":"-79.19570000"},{"id":"80506","name":"Santa Rita Arriba","state_id":1386,"state_code":"3","country_id":170,"country_code":"PA","latitude":"9.33032000","longitude":"-79.79363000"},{"id":"80541","name":"Viento Fr\u00edo","state_id":1386,"state_code":"3","country_id":170,"country_code":"PA","latitude":"9.58263000","longitude":"-79.40690000"}]