[{"id":"79998","name":"Boca de Parita","state_id":1389,"state_code":"6","country_id":170,"country_code":"PA","latitude":"8.00796000","longitude":"-80.45320000"},{"id":"80015","name":"Cabuya","state_id":1389,"state_code":"6","country_id":170,"country_code":"PA","latitude":"8.03138000","longitude":"-80.63227000"},{"id":"80049","name":"Cerro Largo","state_id":1389,"state_code":"6","country_id":170,"country_code":"PA","latitude":"7.83377000","longitude":"-80.83168000"},{"id":"80064","name":"Chitr\u00e9","state_id":1389,"state_code":"6","country_id":170,"country_code":"PA","latitude":"7.96082000","longitude":"-80.42944000"},{"id":"80065","name":"Chumical","state_id":1389,"state_code":"6","country_id":170,"country_code":"PA","latitude":"7.84482000","longitude":"-80.72627000"},{"id":"80066","name":"Chupampa","state_id":1389,"state_code":"6","country_id":170,"country_code":"PA","latitude":"8.07620000","longitude":"-80.77656000"},{"id":"80105","name":"Distrito de Chitr\u00e9","state_id":1389,"state_code":"6","country_id":170,"country_code":"PA","latitude":"7.98333000","longitude":"-80.43333000"},{"id":"80115","name":"Distrito de Las Minas","state_id":1389,"state_code":"6","country_id":170,"country_code":"PA","latitude":"7.76525000","longitude":"-80.82249000"},{"id":"80118","name":"Distrito de Los Pozos","state_id":1389,"state_code":"6","country_id":170,"country_code":"PA","latitude":"7.70944000","longitude":"-80.64311000"},{"id":"80123","name":"Distrito de Oc\u00fa","state_id":1389,"state_code":"6","country_id":170,"country_code":"PA","latitude":"7.90641000","longitude":"-80.79752000"},{"id":"80126","name":"Distrito de Parita","state_id":1389,"state_code":"6","country_id":170,"country_code":"PA","latitude":"8.06240000","longitude":"-80.56373000"},{"id":"80128","name":"Distrito de Pes\u00e9","state_id":1389,"state_code":"6","country_id":170,"country_code":"PA","latitude":"7.88194000","longitude":"-80.63261000"},{"id":"80141","name":"Distrito de Santa Mar\u00eda","state_id":1389,"state_code":"6","country_id":170,"country_code":"PA","latitude":"8.11667000","longitude":"-80.68333000"},{"id":"80153","name":"El Calabacito","state_id":1389,"state_code":"6","country_id":170,"country_code":"PA","latitude":"7.71843000","longitude":"-80.59757000"},{"id":"80154","name":"El Capur\u00ed","state_id":1389,"state_code":"6","country_id":170,"country_code":"PA","latitude":"7.72571000","longitude":"-80.64349000"},{"id":"80158","name":"El Cedro","state_id":1389,"state_code":"6","country_id":170,"country_code":"PA","latitude":"7.68565000","longitude":"-80.65927000"},{"id":"80188","name":"El Pedregoso","state_id":1389,"state_code":"6","country_id":170,"country_code":"PA","latitude":"7.93642000","longitude":"-80.63807000"},{"id":"80199","name":"El Rinc\u00f3n","state_id":1389,"state_code":"6","country_id":170,"country_code":"PA","latitude":"8.11923000","longitude":"-80.61707000"},{"id":"80204","name":"El Toro","state_id":1389,"state_code":"6","country_id":170,"country_code":"PA","latitude":"7.75110000","longitude":"-80.86943000"},{"id":"80241","name":"La Arena","state_id":1389,"state_code":"6","country_id":170,"country_code":"PA","latitude":"7.96766000","longitude":"-80.46523000"},{"id":"80279","name":"La Trinidad","state_id":1389,"state_code":"6","country_id":170,"country_code":"PA","latitude":"7.91457000","longitude":"-80.70332000"},{"id":"80289","name":"Las Guabas","state_id":1389,"state_code":"6","country_id":170,"country_code":"PA","latitude":"7.90949000","longitude":"-80.80706000"},{"id":"80300","name":"Las Minas","state_id":1389,"state_code":"6","country_id":170,"country_code":"PA","latitude":"7.79581000","longitude":"-80.74570000"},{"id":"80309","name":"Leones Arriba","state_id":1389,"state_code":"6","country_id":170,"country_code":"PA","latitude":"7.76590000","longitude":"-80.84515000"},{"id":"80312","name":"Lim\u00f3n de Tijeras","state_id":1389,"state_code":"6","country_id":170,"country_code":"PA","latitude":"7.81756000","longitude":"-80.91335000"},{"id":"80314","name":"Llano Bonito","state_id":1389,"state_code":"6","country_id":170,"country_code":"PA","latitude":"7.97637000","longitude":"-80.41646000"},{"id":"80321","name":"Llano de La Cruz","state_id":1389,"state_code":"6","country_id":170,"country_code":"PA","latitude":"7.95178000","longitude":"-80.64239000"},{"id":"80315","name":"Llano Grande","state_id":1389,"state_code":"6","country_id":170,"country_code":"PA","latitude":"7.97406000","longitude":"-80.71103000"},{"id":"80330","name":"Los Canelos","state_id":1389,"state_code":"6","country_id":170,"country_code":"PA","latitude":"8.11722000","longitude":"-80.70769000"},{"id":"80331","name":"Los Castillos","state_id":1389,"state_code":"6","country_id":170,"country_code":"PA","latitude":"7.98565000","longitude":"-80.61886000"},{"id":"80333","name":"Los Cerritos","state_id":1389,"state_code":"6","country_id":170,"country_code":"PA","latitude":"7.79746000","longitude":"-80.61071000"},{"id":"80334","name":"Los Cerros de Paja","state_id":1389,"state_code":"6","country_id":170,"country_code":"PA","latitude":"7.71821000","longitude":"-80.67273000"},{"id":"80341","name":"Los Pozos","state_id":1389,"state_code":"6","country_id":170,"country_code":"PA","latitude":"7.78300000","longitude":"-80.64524000"},{"id":"80358","name":"Monagrillo","state_id":1389,"state_code":"6","country_id":170,"country_code":"PA","latitude":"7.98179000","longitude":"-80.43764000"},{"id":"80382","name":"Oc\u00fa","state_id":1389,"state_code":"6","country_id":170,"country_code":"PA","latitude":"7.94052000","longitude":"-80.77936000"},{"id":"80401","name":"Par\u00eds","state_id":1389,"state_code":"6","country_id":170,"country_code":"PA","latitude":"8.05053000","longitude":"-80.55409000"},{"id":"80398","name":"Parita","state_id":1389,"state_code":"6","country_id":170,"country_code":"PA","latitude":"7.99393000","longitude":"-80.52097000"},{"id":"80410","name":"Pe\u00f1as Chatas","state_id":1389,"state_code":"6","country_id":170,"country_code":"PA","latitude":"8.01502000","longitude":"-80.80366000"},{"id":"80408","name":"Pes\u00e9","state_id":1389,"state_code":"6","country_id":170,"country_code":"PA","latitude":"7.90863000","longitude":"-80.61433000"},{"id":"80413","name":"Pitaloza Arriba","state_id":1389,"state_code":"6","country_id":170,"country_code":"PA","latitude":"7.64216000","longitude":"-80.66788000"},{"id":"80422","name":"Portobelillo","state_id":1389,"state_code":"6","country_id":170,"country_code":"PA","latitude":"8.01738000","longitude":"-80.59538000"},{"id":"80427","name":"Potuga","state_id":1389,"state_code":"6","country_id":170,"country_code":"PA","latitude":"8.06317000","longitude":"-80.62271000"},{"id":"80448","name":"Quebrada del Rosario","state_id":1389,"state_code":"6","country_id":170,"country_code":"PA","latitude":"7.71238000","longitude":"-80.74222000"},{"id":"80453","name":"Rinc\u00f3n Hondo","state_id":1389,"state_code":"6","country_id":170,"country_code":"PA","latitude":"7.84436000","longitude":"-80.60397000"},{"id":"80467","name":"Sabana Grande","state_id":1389,"state_code":"6","country_id":170,"country_code":"PA","latitude":"7.88002000","longitude":"-80.63818000"},{"id":"80485","name":"San Juan Bautista","state_id":1389,"state_code":"6","country_id":170,"country_code":"PA","latitude":"7.96099000","longitude":"-80.41283000"},{"id":"80504","name":"Santa Mar\u00eda","state_id":1389,"state_code":"6","country_id":170,"country_code":"PA","latitude":"8.11143000","longitude":"-80.66582000"}]