[{"id":"79964","name":"Alto de Jes\u00fas","state_id":1392,"state_code":"9","country_id":170,"country_code":"PA","latitude":"8.26152000","longitude":"-81.48412000"},{"id":"79970","name":"Arenas","state_id":1392,"state_code":"9","country_id":170,"country_code":"PA","latitude":"7.36865000","longitude":"-80.86268000"},{"id":"79975","name":"Atalaya","state_id":1392,"state_code":"9","country_id":170,"country_code":"PA","latitude":"8.04213000","longitude":"-80.92528000"},{"id":"79981","name":"Barnizal","state_id":1392,"state_code":"9","country_id":170,"country_code":"PA","latitude":"8.40460000","longitude":"-80.77765000"},{"id":"79994","name":"Bisvalles","state_id":1392,"state_code":"9","country_id":170,"country_code":"PA","latitude":"8.18298000","longitude":"-81.22092000"},{"id":"80001","name":"Boquer\u00f3n","state_id":1392,"state_code":"9","country_id":170,"country_code":"PA","latitude":"8.24414000","longitude":"-80.85897000"},{"id":"80004","name":"Bor\u00f3","state_id":1392,"state_code":"9","country_id":170,"country_code":"PA","latitude":"8.16933000","longitude":"-81.30071000"},{"id":"80040","name":"Ca\u00f1azas","state_id":1392,"state_code":"9","country_id":170,"country_code":"PA","latitude":"8.32004000","longitude":"-81.21152000"},{"id":"80022","name":"Calabacito","state_id":1392,"state_code":"9","country_id":170,"country_code":"PA","latitude":"8.24817000","longitude":"-81.08187000"},{"id":"80024","name":"Calidonia","state_id":1392,"state_code":"9","country_id":170,"country_code":"PA","latitude":"7.95756000","longitude":"-81.38633000"},{"id":"80025","name":"Calobre","state_id":1392,"state_code":"9","country_id":170,"country_code":"PA","latitude":"8.31886000","longitude":"-80.84067000"},{"id":"80026","name":"Calov\u00e9bora","state_id":1392,"state_code":"9","country_id":170,"country_code":"PA","latitude":"8.78703000","longitude":"-81.21056000"},{"id":"80031","name":"Canto del Llano","state_id":1392,"state_code":"9","country_id":170,"country_code":"PA","latitude":"8.12472000","longitude":"-80.96374000"},{"id":"80077","name":"Corozal","state_id":1392,"state_code":"9","country_id":170,"country_code":"PA","latitude":"8.07712000","longitude":"-81.43990000"},{"id":"80089","name":"Distrito de Atalaya","state_id":1392,"state_code":"9","country_id":170,"country_code":"PA","latitude":"8.02899000","longitude":"-80.91739000"},{"id":"80098","name":"Distrito de Ca\u00f1azas","state_id":1392,"state_code":"9","country_id":170,"country_code":"PA","latitude":"8.35596000","longitude":"-81.28633000"},{"id":"80096","name":"Distrito de Calobre","state_id":1392,"state_code":"9","country_id":170,"country_code":"PA","latitude":"8.39684000","longitude":"-80.85124000"},{"id":"80113","name":"Distrito de La Mesa","state_id":1392,"state_code":"9","country_id":170,"country_code":"PA","latitude":"8.10976000","longitude":"-81.17767000"},{"id":"80116","name":"Distrito de Las Palmas","state_id":1392,"state_code":"9","country_id":170,"country_code":"PA","latitude":"8.14532000","longitude":"-81.42849000"},{"id":"80121","name":"Distrito de Montijo","state_id":1392,"state_code":"9","country_id":170,"country_code":"PA","latitude":"7.95316000","longitude":"-81.05301000"},{"id":"80134","name":"Distrito de R\u00edo de Jes\u00fas","state_id":1392,"state_code":"9","country_id":170,"country_code":"PA","latitude":"7.91438000","longitude":"-81.16133000"},{"id":"80136","name":"Distrito de San Francisco","state_id":1392,"state_code":"9","country_id":170,"country_code":"PA","latitude":"8.26965000","longitude":"-81.00108000"},{"id":"80139","name":"Distrito de Santa F\u00e9","state_id":1392,"state_code":"9","country_id":170,"country_code":"PA","latitude":"8.72063000","longitude":"-80.95858000"},{"id":"80142","name":"Distrito de Santiago","state_id":1392,"state_code":"9","country_id":170,"country_code":"PA","latitude":"8.12425000","longitude":"-80.87827000"},{"id":"80143","name":"Distrito de Son\u00e1","state_id":1392,"state_code":"9","country_id":170,"country_code":"PA","latitude":"7.84378000","longitude":"-81.36612000"},{"id":"80149","name":"El Alto","state_id":1392,"state_code":"9","country_id":170,"country_code":"PA","latitude":"8.51191000","longitude":"-81.03646000"},{"id":"80150","name":"El Barrito","state_id":1392,"state_code":"9","country_id":170,"country_code":"PA","latitude":"7.96059000","longitude":"-80.94801000"},{"id":"80162","name":"El Cocl\u00e1","state_id":1392,"state_code":"9","country_id":170,"country_code":"PA","latitude":"8.32143000","longitude":"-80.92069000"},{"id":"80173","name":"El Espino de Santa Rosa","state_id":1392,"state_code":"9","country_id":170,"country_code":"PA","latitude":"8.09286000","longitude":"-80.82380000"},{"id":"80182","name":"El Mara\u00f1\u00f3n","state_id":1392,"state_code":"9","country_id":170,"country_code":"PA","latitude":"8.03582000","longitude":"-81.21489000"},{"id":"80183","name":"El Mar\u00eda","state_id":1392,"state_code":"9","country_id":170,"country_code":"PA","latitude":"8.02905000","longitude":"-81.44384000"},{"id":"80187","name":"El Pantano","state_id":1392,"state_code":"9","country_id":170,"country_code":"PA","latitude":"8.53755000","longitude":"-81.06941000"},{"id":"80197","name":"El P\u00e1jaro","state_id":1392,"state_code":"9","country_id":170,"country_code":"PA","latitude":"7.95342000","longitude":"-81.12154000"},{"id":"80190","name":"El Pe\u00f1\u00f3n","state_id":1392,"state_code":"9","country_id":170,"country_code":"PA","latitude":"8.35000000","longitude":"-80.97620000"},{"id":"80191","name":"El Picador","state_id":1392,"state_code":"9","country_id":170,"country_code":"PA","latitude":"8.37803000","longitude":"-81.25621000"},{"id":"80195","name":"El Potrero","state_id":1392,"state_code":"9","country_id":170,"country_code":"PA","latitude":"8.37692000","longitude":"-80.79434000"},{"id":"80200","name":"El Rinc\u00f3n","state_id":1392,"state_code":"9","country_id":170,"country_code":"PA","latitude":"8.18422000","longitude":"-81.43333000"},{"id":"80205","name":"El Uvito","state_id":1392,"state_code":"9","country_id":170,"country_code":"PA","latitude":"8.11648000","longitude":"-80.98461000"},{"id":"80224","name":"Guarumal","state_id":1392,"state_code":"9","country_id":170,"country_code":"PA","latitude":"7.79404000","longitude":"-81.25904000"},{"id":"80244","name":"La Colorada","state_id":1392,"state_code":"9","country_id":170,"country_code":"PA","latitude":"8.01319000","longitude":"-80.98590000"},{"id":"80255","name":"La Garceana","state_id":1392,"state_code":"9","country_id":170,"country_code":"PA","latitude":"7.93708000","longitude":"-81.01643000"},{"id":"80259","name":"La Laguna","state_id":1392,"state_code":"9","country_id":170,"country_code":"PA","latitude":"8.33882000","longitude":"-80.72949000"},{"id":"80262","name":"La Loma","state_id":1392,"state_code":"9","country_id":170,"country_code":"PA","latitude":"7.43708000","longitude":"-80.89118000"},{"id":"80263","name":"La Mesa","state_id":1392,"state_code":"9","country_id":170,"country_code":"PA","latitude":"8.14707000","longitude":"-81.18114000"},{"id":"80269","name":"La Monta\u00f1uela","state_id":1392,"state_code":"9","country_id":170,"country_code":"PA","latitude":"8.02487000","longitude":"-80.86325000"},{"id":"80274","name":"La Pe\u00f1a","state_id":1392,"state_code":"9","country_id":170,"country_code":"PA","latitude":"8.12784000","longitude":"-81.02693000"},{"id":"80276","name":"La Raya de Calobre","state_id":1392,"state_code":"9","country_id":170,"country_code":"PA","latitude":"8.21630000","longitude":"-80.82729000"},{"id":"80277","name":"La Raya de Santa Mar\u00eda","state_id":1392,"state_code":"9","country_id":170,"country_code":"PA","latitude":"8.16429000","longitude":"-80.82143000"},{"id":"80281","name":"La Yeguada","state_id":1392,"state_code":"9","country_id":170,"country_code":"PA","latitude":"8.43060000","longitude":"-80.85752000"},{"id":"80291","name":"Las Gu\u00edas Abajo","state_id":1392,"state_code":"9","country_id":170,"country_code":"PA","latitude":"8.19451000","longitude":"-80.75494000"},{"id":"80292","name":"Las Huacas","state_id":1392,"state_code":"9","country_id":170,"country_code":"PA","latitude":"7.90167000","longitude":"-81.14056000"},{"id":"80302","name":"Las Palmas","state_id":1392,"state_code":"9","country_id":170,"country_code":"PA","latitude":"8.13564000","longitude":"-81.45674000"},{"id":"80310","name":"Leones Arriba","state_id":1392,"state_code":"9","country_id":170,"country_code":"PA","latitude":"7.75415000","longitude":"-81.11556000"},{"id":"80316","name":"Llano Grande","state_id":1392,"state_code":"9","country_id":170,"country_code":"PA","latitude":"8.07473000","longitude":"-81.13626000"},{"id":"80324","name":"Lol\u00e1","state_id":1392,"state_code":"9","country_id":170,"country_code":"PA","latitude":"8.09326000","longitude":"-81.47163000"},{"id":"80327","name":"Los Algarrobos","state_id":1392,"state_code":"9","country_id":170,"country_code":"PA","latitude":"8.10898000","longitude":"-81.01355000"},{"id":"80332","name":"Los Castillos","state_id":1392,"state_code":"9","country_id":170,"country_code":"PA","latitude":"8.02326000","longitude":"-81.11941000"},{"id":"80335","name":"Los Higos","state_id":1392,"state_code":"9","country_id":170,"country_code":"PA","latitude":"8.20553000","longitude":"-80.86022000"},{"id":"80349","name":"Mariato District","state_id":1392,"state_code":"9","country_id":170,"country_code":"PA","latitude":"7.67810000","longitude":"-81.00409000"},{"id":"80359","name":"Monjar\u00e1s","state_id":1392,"state_code":"9","country_id":170,"country_code":"PA","latitude":"8.36942000","longitude":"-80.86667000"},{"id":"80361","name":"Montijo","state_id":1392,"state_code":"9","country_id":170,"country_code":"PA","latitude":"7.98858000","longitude":"-81.05643000"},{"id":"80412","name":"Piedras Gordas","state_id":1392,"state_code":"9","country_id":170,"country_code":"PA","latitude":"8.52419000","longitude":"-80.91152000"},{"id":"80421","name":"Ponuga","state_id":1392,"state_code":"9","country_id":170,"country_code":"PA","latitude":"7.88245000","longitude":"-80.97880000"},{"id":"80436","name":"Puerto Vidal","state_id":1392,"state_code":"9","country_id":170,"country_code":"PA","latitude":"8.04834000","longitude":"-81.60499000"},{"id":"80446","name":"Quebrada de Oro","state_id":1392,"state_code":"9","country_id":170,"country_code":"PA","latitude":"8.03548000","longitude":"-81.38692000"},{"id":"80466","name":"R\u00edo de Jes\u00fas","state_id":1392,"state_code":"9","country_id":170,"country_code":"PA","latitude":"7.97882000","longitude":"-81.16162000"},{"id":"80461","name":"R\u00edo Grande","state_id":1392,"state_code":"9","country_id":170,"country_code":"PA","latitude":"7.71907000","longitude":"-81.33423000"},{"id":"80454","name":"Rodeo Viejo","state_id":1392,"state_code":"9","country_id":170,"country_code":"PA","latitude":"8.11205000","longitude":"-81.31684000"},{"id":"80473","name":"San Bartolo","state_id":1392,"state_code":"9","country_id":170,"country_code":"PA","latitude":"8.21063000","longitude":"-81.27572000"},{"id":"80477","name":"San Francisco","state_id":1392,"state_code":"9","country_id":170,"country_code":"PA","latitude":"8.06667000","longitude":"-81.36667000"},{"id":"80482","name":"San Jos\u00e9","state_id":1392,"state_code":"9","country_id":170,"country_code":"PA","latitude":"8.46704000","longitude":"-80.80514000"},{"id":"80484","name":"San Juan","state_id":1392,"state_code":"9","country_id":170,"country_code":"PA","latitude":"8.30311000","longitude":"-81.01575000"},{"id":"80488","name":"San Marcelo","state_id":1392,"state_code":"9","country_id":170,"country_code":"PA","latitude":"8.27252000","longitude":"-81.15988000"},{"id":"80493","name":"San Pedro del Espino","state_id":1392,"state_code":"9","country_id":170,"country_code":"PA","latitude":"8.14011000","longitude":"-81.08663000"},{"id":"80501","name":"Santa F\u00e9","state_id":1392,"state_code":"9","country_id":170,"country_code":"PA","latitude":"8.51063000","longitude":"-81.07802000"},{"id":"80508","name":"Santiago de Veraguas","state_id":1392,"state_code":"9","country_id":170,"country_code":"PA","latitude":"8.10000000","longitude":"-80.98333000"},{"id":"80516","name":"Son\u00e1","state_id":1392,"state_code":"9","country_id":170,"country_code":"PA","latitude":"8.01223000","longitude":"-81.32163000"},{"id":"80519","name":"Tebario","state_id":1392,"state_code":"9","country_id":170,"country_code":"PA","latitude":"7.71369000","longitude":"-80.97825000"},{"id":"80535","name":"Utir\u00e1","state_id":1392,"state_code":"9","country_id":170,"country_code":"PA","latitude":"7.97208000","longitude":"-81.21777000"},{"id":"80542","name":"Vigu\u00ed","state_id":1392,"state_code":"9","country_id":170,"country_code":"PA","latitude":"8.33921000","longitude":"-81.49823000"},{"id":"80553","name":"Zapotillo","state_id":1392,"state_code":"9","country_id":170,"country_code":"PA","latitude":"8.00532000","longitude":"-81.50653000"}]