[{"id":"79960","name":"Alcalde D\u00edaz","state_id":1395,"state_code":"8","country_id":170,"country_code":"PA","latitude":"9.12016000","longitude":"-79.55641000"},{"id":"79968","name":"Anc\u00f3n","state_id":1395,"state_code":"8","country_id":170,"country_code":"PA","latitude":"8.96015000","longitude":"-79.55140000"},{"id":"80006","name":"Brujas","state_id":1395,"state_code":"8","country_id":170,"country_code":"PA","latitude":"8.58536000","longitude":"-78.53008000"},{"id":"80041","name":"Ca\u00f1ita","state_id":1395,"state_code":"8","country_id":170,"country_code":"PA","latitude":"9.22236000","longitude":"-78.89509000"},{"id":"80014","name":"Cabra N\u00famero Uno","state_id":1395,"state_code":"8","country_id":170,"country_code":"PA","latitude":"9.10863000","longitude":"-79.33694000"},{"id":"80018","name":"Caimitillo","state_id":1395,"state_code":"8","country_id":170,"country_code":"PA","latitude":"9.15559000","longitude":"-79.53974000"},{"id":"80027","name":"Calzada Larga","state_id":1395,"state_code":"8","country_id":170,"country_code":"PA","latitude":"9.17272000","longitude":"-79.56212000"},{"id":"80045","name":"Cerro Azul","state_id":1395,"state_code":"8","country_id":170,"country_code":"PA","latitude":"9.15735000","longitude":"-79.42097000"},{"id":"80055","name":"Chepillo","state_id":1395,"state_code":"8","country_id":170,"country_code":"PA","latitude":"8.95396000","longitude":"-79.12856000"},{"id":"80056","name":"Chepo","state_id":1395,"state_code":"8","country_id":170,"country_code":"PA","latitude":"9.17019000","longitude":"-79.10083000"},{"id":"80060","name":"Chilibre","state_id":1395,"state_code":"8","country_id":170,"country_code":"PA","latitude":"9.15093000","longitude":"-79.62098000"},{"id":"80061","name":"Chim\u00e1n","state_id":1395,"state_code":"8","country_id":170,"country_code":"PA","latitude":"8.69125000","longitude":"-78.63570000"},{"id":"80074","name":"Contadora","state_id":1395,"state_code":"8","country_id":170,"country_code":"PA","latitude":"8.62483000","longitude":"-79.03748000"},{"id":"80080","name":"Curund\u00fa","state_id":1395,"state_code":"8","country_id":170,"country_code":"PA","latitude":"8.97092000","longitude":"-79.54612000"},{"id":"80090","name":"Distrito de Balboa","state_id":1395,"state_code":"8","country_id":170,"country_code":"PA","latitude":"8.46667000","longitude":"-79.00000000"},{"id":"80103","name":"Distrito de Chepo","state_id":1395,"state_code":"8","country_id":170,"country_code":"PA","latitude":"9.17391000","longitude":"-78.70374000"},{"id":"80104","name":"Distrito de Chim\u00e1n","state_id":1395,"state_code":"8","country_id":170,"country_code":"PA","latitude":"8.76043000","longitude":"-78.56470000"},{"id":"80125","name":"Distrito de Panam\u00e1","state_id":1395,"state_code":"8","country_id":170,"country_code":"PA","latitude":"9.30612000","longitude":"-79.45246000"},{"id":"80144","name":"Distrito de Taboga","state_id":1395,"state_code":"8","country_id":170,"country_code":"PA","latitude":"8.78333000","longitude":"-79.55833000"},{"id":"80160","name":"El Chorrillo","state_id":1395,"state_code":"8","country_id":170,"country_code":"PA","latitude":"8.94964000","longitude":"-79.54715000"},{"id":"80196","name":"El Progreso","state_id":1395,"state_code":"8","country_id":170,"country_code":"PA","latitude":"9.26667000","longitude":"-79.11667000"},{"id":"80215","name":"Gonzalillo","state_id":1395,"state_code":"8","country_id":170,"country_code":"PA","latitude":"9.09183000","longitude":"-79.51928000"},{"id":"80234","name":"Howard","state_id":1395,"state_code":"8","country_id":170,"country_code":"PA","latitude":"8.93942000","longitude":"-79.59097000"},{"id":"80238","name":"Juan D\u00edaz","state_id":1395,"state_code":"8","country_id":170,"country_code":"PA","latitude":"9.05000000","longitude":"-79.45000000"},{"id":"80242","name":"La Cabima","state_id":1395,"state_code":"8","country_id":170,"country_code":"PA","latitude":"9.11865000","longitude":"-79.53660000"},{"id":"80245","name":"La Colorada","state_id":1395,"state_code":"8","country_id":170,"country_code":"PA","latitude":"9.10224000","longitude":"-79.41600000"},{"id":"80249","name":"La Ensenada","state_id":1395,"state_code":"8","country_id":170,"country_code":"PA","latitude":"8.36618000","longitude":"-78.84606000"},{"id":"80251","name":"La Esmeralda","state_id":1395,"state_code":"8","country_id":170,"country_code":"PA","latitude":"8.26817000","longitude":"-78.92460000"},{"id":"80256","name":"La Guinea","state_id":1395,"state_code":"8","country_id":170,"country_code":"PA","latitude":"8.34250000","longitude":"-78.93430000"},{"id":"80264","name":"La Mesa","state_id":1395,"state_code":"8","country_id":170,"country_code":"PA","latitude":"9.17308000","longitude":"-79.27401000"},{"id":"80288","name":"Las Cumbres","state_id":1395,"state_code":"8","country_id":170,"country_code":"PA","latitude":"9.08916000","longitude":"-79.52809000"},{"id":"80297","name":"Las Margaritas","state_id":1395,"state_code":"8","country_id":170,"country_code":"PA","latitude":"9.18426000","longitude":"-79.08730000"},{"id":"80345","name":"L\u00eddice","state_id":1395,"state_code":"8","country_id":170,"country_code":"PA","latitude":"8.74869000","longitude":"-79.90974000"},{"id":"80337","name":"Los Lotes","state_id":1395,"state_code":"8","country_id":170,"country_code":"PA","latitude":"9.12425000","longitude":"-79.28929000"},{"id":"80372","name":"Nueva Esperanza","state_id":1395,"state_code":"8","country_id":170,"country_code":"PA","latitude":"9.10210000","longitude":"-79.33414000"},{"id":"80375","name":"Nuevo Bel\u00e9n","state_id":1395,"state_code":"8","country_id":170,"country_code":"PA","latitude":"9.07939000","longitude":"-79.39556000"},{"id":"80386","name":"Pacora","state_id":1395,"state_code":"8","country_id":170,"country_code":"PA","latitude":"9.07937000","longitude":"-79.28997000"},{"id":"80394","name":"Panam\u00e1","state_id":1395,"state_code":"8","country_id":170,"country_code":"PA","latitude":"8.99360000","longitude":"-79.51973000"},{"id":"80400","name":"Parque Lefevre","state_id":1395,"state_code":"8","country_id":170,"country_code":"PA","latitude":"9.01667000","longitude":"-79.48333000"},{"id":"80441","name":"P\u00e1siga","state_id":1395,"state_code":"8","country_id":170,"country_code":"PA","latitude":"8.93647000","longitude":"-78.90917000"},{"id":"80404","name":"Pedregal","state_id":1395,"state_code":"8","country_id":170,"country_code":"PA","latitude":"9.06667000","longitude":"-79.43333000"},{"id":"80456","name":"R\u00edo Abajo","state_id":1395,"state_code":"8","country_id":170,"country_code":"PA","latitude":"9.01667000","longitude":"-79.50000000"},{"id":"80472","name":"San Antonio","state_id":1395,"state_code":"8","country_id":170,"country_code":"PA","latitude":"9.17290000","longitude":"-79.54743000"},{"id":"80476","name":"San Felipe","state_id":1395,"state_code":"8","country_id":170,"country_code":"PA","latitude":"8.95118000","longitude":"-79.53726000"},{"id":"80489","name":"San Miguel","state_id":1395,"state_code":"8","country_id":170,"country_code":"PA","latitude":"8.45685000","longitude":"-78.93695000"},{"id":"80490","name":"San Miguelito","state_id":1395,"state_code":"8","country_id":170,"country_code":"PA","latitude":"9.05032000","longitude":"-79.47068000"},{"id":"80494","name":"San Vicente","state_id":1395,"state_code":"8","country_id":170,"country_code":"PA","latitude":"9.11445000","longitude":"-79.59755000"},{"id":"80524","name":"Tocumen","state_id":1395,"state_code":"8","country_id":170,"country_code":"PA","latitude":"9.08939000","longitude":"-79.38310000"},{"id":"80527","name":"Tort\u00ed","state_id":1395,"state_code":"8","country_id":170,"country_code":"PA","latitude":"8.92132000","longitude":"-78.40546000"},{"id":"80533","name":"Uni\u00f3n de Azuero","state_id":1395,"state_code":"8","country_id":170,"country_code":"PA","latitude":"9.15256000","longitude":"-79.17005000"},{"id":"80532","name":"Uni\u00f3n Sante\u00f1a","state_id":1395,"state_code":"8","country_id":170,"country_code":"PA","latitude":"8.83525000","longitude":"-78.65104000"},{"id":"80546","name":"Villa Unida","state_id":1395,"state_code":"8","country_id":170,"country_code":"PA","latitude":"9.18908000","longitude":"-79.62452000"},{"id":"80549","name":"Vista Hermosa","state_id":1395,"state_code":"8","country_id":170,"country_code":"PA","latitude":"9.11178000","longitude":"-79.36113000"}]