[{"id":"76422","name":"Batu Feringgi","state_id":1939,"state_code":"07","country_id":132,"country_code":"MY","latitude":"5.47090000","longitude":"100.24529000"},{"id":"76431","name":"Bukit Mertajam","state_id":1939,"state_code":"07","country_id":132,"country_code":"MY","latitude":"5.36301000","longitude":"100.46670000"},{"id":"76434","name":"Butterworth","state_id":1939,"state_code":"07","country_id":132,"country_code":"MY","latitude":"5.39910000","longitude":"100.36382000"},{"id":"76447","name":"George Town","state_id":1939,"state_code":"07","country_id":132,"country_code":"MY","latitude":"5.41123000","longitude":"100.33543000"},{"id":"76456","name":"Juru","state_id":1939,"state_code":"07","country_id":132,"country_code":"MY","latitude":"5.31201000","longitude":"100.44229000"},{"id":"76467","name":"Kampung Batu Feringgi","state_id":1939,"state_code":"07","country_id":132,"country_code":"MY","latitude":"5.46948000","longitude":"100.24449000"},{"id":"76475","name":"Kampung Sungai Ara","state_id":1939,"state_code":"07","country_id":132,"country_code":"MY","latitude":"5.32699000","longitude":"100.27348000"},{"id":"76482","name":"Kepala Batas","state_id":1939,"state_code":"07","country_id":132,"country_code":"MY","latitude":"5.51707000","longitude":"100.42650000"},{"id":"76528","name":"Nibong Tebal","state_id":1939,"state_code":"07","country_id":132,"country_code":"MY","latitude":"5.16586000","longitude":"100.47793000"},{"id":"76540","name":"Perai","state_id":1939,"state_code":"07","country_id":132,"country_code":"MY","latitude":"5.38333000","longitude":"100.38333000"},{"id":"76542","name":"Permatang Kuching","state_id":1939,"state_code":"07","country_id":132,"country_code":"MY","latitude":"5.46339000","longitude":"100.38144000"},{"id":"76555","name":"Seberang Perai","state_id":1939,"state_code":"07","country_id":132,"country_code":"MY","latitude":"5.38770000","longitude":"100.42603000"},{"id":"76578","name":"Tanjung Tokong","state_id":1939,"state_code":"07","country_id":132,"country_code":"MY","latitude":"5.46061000","longitude":"100.30742000"},{"id":"76580","name":"Tasek Glugor","state_id":1939,"state_code":"07","country_id":132,"country_code":"MY","latitude":"5.48032000","longitude":"100.49849000"},{"id":"76582","name":"Telaga Batu","state_id":1939,"state_code":"07","country_id":132,"country_code":"MY","latitude":"5.46667000","longitude":"100.23333000"}]