[{"id":"76410","name":"Alor Setar","state_id":1947,"state_code":"02","country_id":132,"country_code":"MY","latitude":"6.12104000","longitude":"100.36014000"},{"id":"76412","name":"Ayer Hangat","state_id":1947,"state_code":"02","country_id":132,"country_code":"MY","latitude":"6.42062000","longitude":"99.82199000"},{"id":"76426","name":"Bedong","state_id":1947,"state_code":"02","country_id":132,"country_code":"MY","latitude":"5.72743000","longitude":"100.50876000"},{"id":"76449","name":"Gurun","state_id":1947,"state_code":"02","country_id":132,"country_code":"MY","latitude":"5.81717000","longitude":"100.47381000"},{"id":"76454","name":"Jitra","state_id":1947,"state_code":"02","country_id":132,"country_code":"MY","latitude":"6.26812000","longitude":"100.42167000"},{"id":"76470","name":"Kampung Kilim","state_id":1947,"state_code":"02","country_id":132,"country_code":"MY","latitude":"6.40550000","longitude":"99.85020000"},{"id":"76471","name":"Kampung Kok","state_id":1947,"state_code":"02","country_id":132,"country_code":"MY","latitude":"6.36759000","longitude":"99.68252000"},{"id":"76492","name":"Kuah","state_id":1947,"state_code":"02","country_id":132,"country_code":"MY","latitude":"6.32649000","longitude":"99.84320000"},{"id":"76495","name":"Kuala Kedah","state_id":1947,"state_code":"02","country_id":132,"country_code":"MY","latitude":"6.10000000","longitude":"100.30000000"},{"id":"76503","name":"Kuala Teriang","state_id":1947,"state_code":"02","country_id":132,"country_code":"MY","latitude":"6.36377000","longitude":"99.71532000"},{"id":"76509","name":"Kulim","state_id":1947,"state_code":"02","country_id":132,"country_code":"MY","latitude":"5.36499000","longitude":"100.56177000"},{"id":"76514","name":"Langkawi","state_id":1947,"state_code":"02","country_id":132,"country_code":"MY","latitude":"6.35608000","longitude":"99.78375000"},{"id":"76529","name":"Padang Mat Sirat","state_id":1947,"state_code":"02","country_id":132,"country_code":"MY","latitude":"6.35423000","longitude":"99.73404000"},{"id":"76569","name":"Sungai Petani","state_id":1947,"state_code":"02","country_id":132,"country_code":"MY","latitude":"5.64700000","longitude":"100.48772000"}]