[{"id":"76415","name":"Bahau","state_id":1948,"state_code":"05","country_id":132,"country_code":"MY","latitude":"2.80790000","longitude":"102.40490000"},{"id":"76465","name":"Kampung Baharu Nilai","state_id":1948,"state_code":"05","country_id":132,"country_code":"MY","latitude":"2.80330000","longitude":"101.79720000"},{"id":"76499","name":"Kuala Pilah","state_id":1948,"state_code":"05","country_id":132,"country_code":"MY","latitude":"2.73890000","longitude":"102.24870000"},{"id":"76545","name":"Port Dickson","state_id":1948,"state_code":"05","country_id":132,"country_code":"MY","latitude":"2.53718000","longitude":"101.80571000"},{"id":"76559","name":"Seremban","state_id":1948,"state_code":"05","country_id":132,"country_code":"MY","latitude":"2.72970000","longitude":"101.93810000"},{"id":"76574","name":"Tampin","state_id":1948,"state_code":"05","country_id":132,"country_code":"MY","latitude":"2.47010000","longitude":"102.23020000"}]