[{"id":"76511","name":"Labuan","state_id":1935,"state_code":"15","country_id":132,"country_code":"MY","latitude":"5.28028000","longitude":"115.24750000"},{"id":"76417","name":"Bandar Labuan","state_id":1936,"state_code":"12","country_id":132,"country_code":"MY","latitude":"5.28883000","longitude":"115.26924000"},{"id":"76425","name":"Beaufort","state_id":1936,"state_code":"12","country_id":132,"country_code":"MY","latitude":"5.34730000","longitude":"115.74550000"},{"id":"76446","name":"Donggongon","state_id":1936,"state_code":"12","country_id":132,"country_code":"MY","latitude":"5.90702000","longitude":"116.10146000"},{"id":"76481","name":"Keningau","state_id":1936,"state_code":"12","country_id":132,"country_code":"MY","latitude":"5.33780000","longitude":"116.16020000"},{"id":"76484","name":"Kinarut","state_id":1936,"state_code":"12","country_id":132,"country_code":"MY","latitude":"5.82310000","longitude":"116.04660000"},{"id":"76488","name":"Kota Belud","state_id":1936,"state_code":"12","country_id":132,"country_code":"MY","latitude":"6.35100000","longitude":"116.43050000"},{"id":"76490","name":"Kota Kinabalu","state_id":1936,"state_code":"12","country_id":132,"country_code":"MY","latitude":"5.97490000","longitude":"116.07240000"},{"id":"76507","name":"Kudat","state_id":1936,"state_code":"12","country_id":132,"country_code":"MY","latitude":"6.88732000","longitude":"116.82364000"},{"id":"76513","name":"Lahad Datu","state_id":1936,"state_code":"12","country_id":132,"country_code":"MY","latitude":"5.02298000","longitude":"118.32897000"},{"id":"76533","name":"Papar","state_id":1936,"state_code":"12","country_id":132,"country_code":"MY","latitude":"5.73333000","longitude":"115.93333000"},{"id":"76547","name":"Putatan","state_id":1936,"state_code":"12","country_id":132,"country_code":"MY","latitude":"5.92580000","longitude":"116.06094000"},{"id":"76550","name":"Ranau","state_id":1936,"state_code":"12","country_id":132,"country_code":"MY","latitude":"5.95380000","longitude":"116.66410000"},{"id":"76553","name":"Sandakan","state_id":1936,"state_code":"12","country_id":132,"country_code":"MY","latitude":"5.84020000","longitude":"118.11790000"},{"id":"76558","name":"Semporna","state_id":1936,"state_code":"12","country_id":132,"country_code":"MY","latitude":"4.48178000","longitude":"118.61119000"},{"id":"76572","name":"Taman Rajawali","state_id":1936,"state_code":"12","country_id":132,"country_code":"MY","latitude":"5.89477000","longitude":"118.04576000"},{"id":"76581","name":"Tawau","state_id":1936,"state_code":"12","country_id":132,"country_code":"MY","latitude":"4.24482000","longitude":"117.89115000"},{"id":"76430","name":"Bintulu","state_id":1937,"state_code":"13","country_id":132,"country_code":"MY","latitude":"3.16667000","longitude":"113.03333000"},{"id":"76445","name":"Data Kakus","state_id":1937,"state_code":"13","country_id":132,"country_code":"MY","latitude":"2.65465000","longitude":"113.62249000"},{"id":"76479","name":"Kapit","state_id":1937,"state_code":"13","country_id":132,"country_code":"MY","latitude":"1.99546000","longitude":"112.93254000"},{"id":"76506","name":"Kuching","state_id":1937,"state_code":"13","country_id":132,"country_code":"MY","latitude":"1.55000000","longitude":"110.33333000"},{"id":"76515","name":"Lawas","state_id":1937,"state_code":"13","country_id":132,"country_code":"MY","latitude":"4.86040000","longitude":"115.40900000"},{"id":"76516","name":"Lidung Jelo","state_id":1937,"state_code":"13","country_id":132,"country_code":"MY","latitude":"2.64848000","longitude":"114.78653000"},{"id":"76517","name":"Limbang","state_id":1937,"state_code":"13","country_id":132,"country_code":"MY","latitude":"4.75000000","longitude":"115.00000000"},{"id":"76518","name":"Long Ampan Aing or Abanang","state_id":1937,"state_code":"13","country_id":132,"country_code":"MY","latitude":"2.65671000","longitude":"114.73675000"},{"id":"76522","name":"Marudi","state_id":1937,"state_code":"13","country_id":132,"country_code":"MY","latitude":"4.18333000","longitude":"114.31667000"},{"id":"76525","name":"Miri","state_id":1937,"state_code":"13","country_id":132,"country_code":"MY","latitude":"4.39928000","longitude":"113.99163000"},{"id":"76527","name":"Mukah","state_id":1937,"state_code":"13","country_id":132,"country_code":"MY","latitude":"2.89435000","longitude":"112.09145000"},{"id":"76554","name":"Sarikei","state_id":1937,"state_code":"13","country_id":132,"country_code":"MY","latitude":"2.11667000","longitude":"111.51667000"},{"id":"76562","name":"Sibu","state_id":1937,"state_code":"13","country_id":132,"country_code":"MY","latitude":"2.30000000","longitude":"111.81667000"},{"id":"76563","name":"Simanggang","state_id":1937,"state_code":"13","country_id":132,"country_code":"MY","latitude":"1.24722000","longitude":"111.45278000"},{"id":"76478","name":"Kangar","state_id":1938,"state_code":"09","country_id":132,"country_code":"MY","latitude":"6.44140000","longitude":"100.19862000"},{"id":"76498","name":"Kuala Perlis","state_id":1938,"state_code":"09","country_id":132,"country_code":"MY","latitude":"6.40000000","longitude":"100.13333000"},{"id":"76531","name":"Pantai Cenang","state_id":1938,"state_code":"09","country_id":132,"country_code":"MY","latitude":"6.29369000","longitude":"99.72786000"},{"id":"76422","name":"Batu Feringgi","state_id":1939,"state_code":"07","country_id":132,"country_code":"MY","latitude":"5.47090000","longitude":"100.24529000"},{"id":"76431","name":"Bukit Mertajam","state_id":1939,"state_code":"07","country_id":132,"country_code":"MY","latitude":"5.36301000","longitude":"100.46670000"},{"id":"76434","name":"Butterworth","state_id":1939,"state_code":"07","country_id":132,"country_code":"MY","latitude":"5.39910000","longitude":"100.36382000"},{"id":"76447","name":"George Town","state_id":1939,"state_code":"07","country_id":132,"country_code":"MY","latitude":"5.41123000","longitude":"100.33543000"},{"id":"76456","name":"Juru","state_id":1939,"state_code":"07","country_id":132,"country_code":"MY","latitude":"5.31201000","longitude":"100.44229000"},{"id":"76467","name":"Kampung Batu Feringgi","state_id":1939,"state_code":"07","country_id":132,"country_code":"MY","latitude":"5.46948000","longitude":"100.24449000"},{"id":"76475","name":"Kampung Sungai Ara","state_id":1939,"state_code":"07","country_id":132,"country_code":"MY","latitude":"5.32699000","longitude":"100.27348000"},{"id":"76482","name":"Kepala Batas","state_id":1939,"state_code":"07","country_id":132,"country_code":"MY","latitude":"5.51707000","longitude":"100.42650000"},{"id":"76528","name":"Nibong Tebal","state_id":1939,"state_code":"07","country_id":132,"country_code":"MY","latitude":"5.16586000","longitude":"100.47793000"},{"id":"76540","name":"Perai","state_id":1939,"state_code":"07","country_id":132,"country_code":"MY","latitude":"5.38333000","longitude":"100.38333000"},{"id":"76542","name":"Permatang Kuching","state_id":1939,"state_code":"07","country_id":132,"country_code":"MY","latitude":"5.46339000","longitude":"100.38144000"},{"id":"76555","name":"Seberang Perai","state_id":1939,"state_code":"07","country_id":132,"country_code":"MY","latitude":"5.38770000","longitude":"100.42603000"},{"id":"76578","name":"Tanjung Tokong","state_id":1939,"state_code":"07","country_id":132,"country_code":"MY","latitude":"5.46061000","longitude":"100.30742000"},{"id":"76580","name":"Tasek Glugor","state_id":1939,"state_code":"07","country_id":132,"country_code":"MY","latitude":"5.48032000","longitude":"100.49849000"},{"id":"76582","name":"Telaga Batu","state_id":1939,"state_code":"07","country_id":132,"country_code":"MY","latitude":"5.46667000","longitude":"100.23333000"},{"id":"76428","name":"Bentong Town","state_id":1940,"state_code":"06","country_id":132,"country_code":"MY","latitude":"3.52229000","longitude":"101.90866000"},{"id":"76452","name":"Jerantut","state_id":1940,"state_code":"06","country_id":132,"country_code":"MY","latitude":"3.93600000","longitude":"102.36260000"},{"id":"76469","name":"Kampung Bukit Tinggi, Bentong","state_id":1940,"state_code":"06","country_id":132,"country_code":"MY","latitude":"3.34944000","longitude":"101.82631000"},{"id":"76477","name":"Kampung Tekek","state_id":1940,"state_code":"06","country_id":132,"country_code":"MY","latitude":"2.81470000","longitude":"104.15920000"},{"id":"76496","name":"Kuala Lipis","state_id":1940,"state_code":"06","country_id":132,"country_code":"MY","latitude":"4.18420000","longitude":"102.04680000"},{"id":"76505","name":"Kuantan","state_id":1940,"state_code":"06","country_id":132,"country_code":"MY","latitude":"3.80770000","longitude":"103.32600000"},{"id":"76523","name":"Mentekab","state_id":1940,"state_code":"06","country_id":132,"country_code":"MY","latitude":"3.48540000","longitude":"102.34840000"},{"id":"76537","name":"Pekan","state_id":1940,"state_code":"06","country_id":132,"country_code":"MY","latitude":"3.48360000","longitude":"103.39960000"},{"id":"76551","name":"Raub","state_id":1940,"state_code":"06","country_id":132,"country_code":"MY","latitude":"3.78990000","longitude":"101.85700000"},{"id":"76575","name":"Tanah Rata","state_id":1940,"state_code":"06","country_id":132,"country_code":"MY","latitude":"4.46361000","longitude":"101.37630000"},{"id":"76584","name":"Temerluh","state_id":1940,"state_code":"06","country_id":132,"country_code":"MY","latitude":"3.45060000","longitude":"102.41760000"},{"id":"76409","name":"Alor Gajah","state_id":1941,"state_code":"04","country_id":132,"country_code":"MY","latitude":"2.38040000","longitude":"102.20890000"},{"id":"76421","name":"Batu Berendam","state_id":1941,"state_code":"04","country_id":132,"country_code":"MY","latitude":"2.24870000","longitude":"102.24600000"},{"id":"76427","name":"Bemban","state_id":1941,"state_code":"04","country_id":132,"country_code":"MY","latitude":"2.26840000","longitude":"102.37460000"},{"id":"76432","name":"Bukit Rambai","state_id":1941,"state_code":"04","country_id":132,"country_code":"MY","latitude":"2.25940000","longitude":"102.18380000"},{"id":"76461","name":"Kampong Masjid Tanah","state_id":1941,"state_code":"04","country_id":132,"country_code":"MY","latitude":"2.35000000","longitude":"102.11667000"},{"id":"76463","name":"Kampung Ayer Keroh","state_id":1941,"state_code":"04","country_id":132,"country_code":"MY","latitude":"2.26540000","longitude":"102.28010000"},{"id":"76464","name":"Kampung Ayer Molek","state_id":1941,"state_code":"04","country_id":132,"country_code":"MY","latitude":"2.21390000","longitude":"102.32780000"},{"id":"76468","name":"Kampung Bukit Baharu","state_id":1941,"state_code":"04","country_id":132,"country_code":"MY","latitude":"2.21520000","longitude":"102.28510000"},{"id":"76486","name":"Klebang Besar","state_id":1941,"state_code":"04","country_id":132,"country_code":"MY","latitude":"2.21860000","longitude":"102.19950000"},{"id":"76501","name":"Kuala Sungai Baru","state_id":1941,"state_code":"04","country_id":132,"country_code":"MY","latitude":"2.35940000","longitude":"102.03530000"},{"id":"76520","name":"Malacca","state_id":1941,"state_code":"04","country_id":132,"country_code":"MY","latitude":"2.19600000","longitude":"102.24050000"},{"id":"76546","name":"Pulau Sebang","state_id":1941,"state_code":"04","country_id":132,"country_code":"MY","latitude":"2.45500000","longitude":"102.23290000"},{"id":"76570","name":"Sungai Udang","state_id":1941,"state_code":"04","country_id":132,"country_code":"MY","latitude":"2.26900000","longitude":"102.14270000"},{"id":"76436","name":"Cukai","state_id":1942,"state_code":"11","country_id":132,"country_code":"MY","latitude":"4.25000000","longitude":"103.41667000"},{"id":"76453","name":"Jertih","state_id":1942,"state_code":"11","country_id":132,"country_code":"MY","latitude":"5.73360000","longitude":"102.48970000"},{"id":"76472","name":"Kampung Kuala Besut","state_id":1942,"state_code":"11","country_id":132,"country_code":"MY","latitude":"5.83297000","longitude":"102.55061000"},{"id":"76483","name":"Kertih","state_id":1942,"state_code":"11","country_id":132,"country_code":"MY","latitude":"4.51410000","longitude":"103.44830000"},{"id":"76493","name":"Kuala Besut","state_id":1942,"state_code":"11","country_id":132,"country_code":"MY","latitude":"5.83303000","longitude":"102.55514000"},{"id":"76502","name":"Kuala Terengganu","state_id":1942,"state_code":"11","country_id":132,"country_code":"MY","latitude":"5.33020000","longitude":"103.14080000"},{"id":"76521","name":"Marang","state_id":1942,"state_code":"11","country_id":132,"country_code":"MY","latitude":"5.20560000","longitude":"103.20590000"},{"id":"76530","name":"Paka","state_id":1942,"state_code":"11","country_id":132,"country_code":"MY","latitude":"4.63740000","longitude":"103.43680000"},{"id":"76414","name":"Bagan Serai","state_id":1943,"state_code":"08","country_id":132,"country_code":"MY","latitude":"5.01080000","longitude":"100.54101000"},{"id":"76423","name":"Batu Gajah","state_id":1943,"state_code":"08","country_id":132,"country_code":"MY","latitude":"4.46916000","longitude":"101.04107000"},{"id":"76429","name":"Bidur","state_id":1943,"state_code":"08","country_id":132,"country_code":"MY","latitude":"4.11667000","longitude":"101.28333000"},{"id":"76450","name":"Ipoh","state_id":1943,"state_code":"08","country_id":132,"country_code":"MY","latitude":"4.58410000","longitude":"101.08290000"},{"id":"76457","name":"Kampar","state_id":1943,"state_code":"08","country_id":132,"country_code":"MY","latitude":"4.30000000","longitude":"101.15000000"},{"id":"76459","name":"Kampong Dungun","state_id":1943,"state_code":"08","country_id":132,"country_code":"MY","latitude":"3.21667000","longitude":"101.31667000"},{"id":"76494","name":"Kuala Kangsar","state_id":1943,"state_code":"08","country_id":132,"country_code":"MY","latitude":"4.76667000","longitude":"100.93333000"},{"id":"76519","name":"Lumut","state_id":1943,"state_code":"08","country_id":132,"country_code":"MY","latitude":"4.23230000","longitude":"100.62980000"},{"id":"76532","name":"Pantai Remis","state_id":1943,"state_code":"08","country_id":132,"country_code":"MY","latitude":"4.45570000","longitude":"100.62880000"},{"id":"76534","name":"Parit Buntar","state_id":1943,"state_code":"08","country_id":132,"country_code":"MY","latitude":"5.12671000","longitude":"100.49316000"},{"id":"76564","name":"Simpang Empat","state_id":1943,"state_code":"08","country_id":132,"country_code":"MY","latitude":"4.95000000","longitude":"100.63333000"},{"id":"76571","name":"Taiping","state_id":1943,"state_code":"08","country_id":132,"country_code":"MY","latitude":"4.85000000","longitude":"100.73333000"},{"id":"76579","name":"Tapah Road","state_id":1943,"state_code":"08","country_id":132,"country_code":"MY","latitude":"4.16667000","longitude":"101.20000000"},{"id":"76583","name":"Teluk Intan","state_id":1943,"state_code":"08","country_id":132,"country_code":"MY","latitude":"4.02219000","longitude":"101.02083000"},{"id":"76411","name":"Ampang","state_id":1944,"state_code":"10","country_id":132,"country_code":"MY","latitude":"3.15000000","longitude":"101.76667000"},{"id":"76413","name":"Bagan Pulau Ketam","state_id":1944,"state_code":"10","country_id":132,"country_code":"MY","latitude":"3.01667000","longitude":"101.26667000"},{"id":"76418","name":"Banting","state_id":1944,"state_code":"10","country_id":132,"country_code":"MY","latitude":"2.81360000","longitude":"101.50185000"},{"id":"76419","name":"Batang Berjuntai","state_id":1944,"state_code":"10","country_id":132,"country_code":"MY","latitude":"3.38333000","longitude":"101.41667000"},{"id":"76420","name":"Batu Arang","state_id":1944,"state_code":"10","country_id":132,"country_code":"MY","latitude":"3.31667000","longitude":"101.46667000"},{"id":"76451","name":"Jenjarum","state_id":1944,"state_code":"10","country_id":132,"country_code":"MY","latitude":"2.87240000","longitude":"101.49484000"},{"id":"76458","name":"Kampong Baharu Balakong","state_id":1944,"state_code":"10","country_id":132,"country_code":"MY","latitude":"3.03333000","longitude":"101.75000000"},{"id":"76466","name":"Kampung Baru Subang","state_id":1944,"state_code":"10","country_id":132,"country_code":"MY","latitude":"3.15000000","longitude":"101.53333000"},{"id":"76476","name":"Kampung Tanjung Karang","state_id":1944,"state_code":"10","country_id":132,"country_code":"MY","latitude":"3.42420000","longitude":"101.18490000"},{"id":"76485","name":"Klang","state_id":1944,"state_code":"10","country_id":132,"country_code":"MY","latitude":"3.03667000","longitude":"101.44333000"},{"id":"76500","name":"Kuala Selangor","state_id":1944,"state_code":"10","country_id":132,"country_code":"MY","latitude":"3.35000000","longitude":"101.25000000"},{"id":"76504","name":"Kuang","state_id":1944,"state_code":"10","country_id":132,"country_code":"MY","latitude":"3.25940000","longitude":"101.55410000"},{"id":"76512","name":"Ladang Seri Kundang","state_id":1944,"state_code":"10","country_id":132,"country_code":"MY","latitude":"3.28560000","longitude":"101.51900000"},{"id":"76539","name":"Pelabuhan Klang","state_id":1944,"state_code":"10","country_id":132,"country_code":"MY","latitude":"2.99959000","longitude":"101.39287000"},{"id":"76543","name":"Petaling Jaya","state_id":1944,"state_code":"10","country_id":132,"country_code":"MY","latitude":"3.10726000","longitude":"101.60671000"},{"id":"76548","name":"Putra Heights","state_id":1944,"state_code":"10","country_id":132,"country_code":"MY","latitude":"2.99361000","longitude":"101.57255000"},{"id":"76552","name":"Rawang","state_id":1944,"state_code":"10","country_id":132,"country_code":"MY","latitude":"3.32130000","longitude":"101.57670000"},{"id":"76557","name":"Semenyih","state_id":1944,"state_code":"10","country_id":132,"country_code":"MY","latitude":"2.95160000","longitude":"101.84300000"},{"id":"76560","name":"Serendah","state_id":1944,"state_code":"10","country_id":132,"country_code":"MY","latitude":"3.36460000","longitude":"101.60410000"},{"id":"76561","name":"Shah Alam","state_id":1944,"state_code":"10","country_id":132,"country_code":"MY","latitude":"3.08507000","longitude":"101.53281000"},{"id":"76566","name":"Subang Jaya","state_id":1944,"state_code":"10","country_id":132,"country_code":"MY","latitude":"3.04384000","longitude":"101.58062000"},{"id":"76567","name":"Sungai Besar","state_id":1944,"state_code":"10","country_id":132,"country_code":"MY","latitude":"3.67460000","longitude":"100.98670000"},{"id":"76568","name":"Sungai Pelek New Village","state_id":1944,"state_code":"10","country_id":132,"country_code":"MY","latitude":"2.65000000","longitude":"101.70000000"},{"id":"76577","name":"Tanjung Sepat","state_id":1944,"state_code":"10","country_id":132,"country_code":"MY","latitude":"2.65790000","longitude":"101.56290000"},{"id":"76549","name":"Putrajaya","state_id":1945,"state_code":"16","country_id":132,"country_code":"MY","latitude":"2.93527000","longitude":"101.69112000"},{"id":"76448","name":"Gua Musang","state_id":1946,"state_code":"03","country_id":132,"country_code":"MY","latitude":"4.88441000","longitude":"101.96857000"},{"id":"76460","name":"Kampong Kadok","state_id":1946,"state_code":"03","country_id":132,"country_code":"MY","latitude":"6.00000000","longitude":"102.25000000"},{"id":"76462","name":"Kampong Pangkal Kalong","state_id":1946,"state_code":"03","country_id":132,"country_code":"MY","latitude":"5.91667000","longitude":"102.21667000"},{"id":"76489","name":"Kota Bharu","state_id":1946,"state_code":"03","country_id":132,"country_code":"MY","latitude":"6.12361000","longitude":"102.24333000"},{"id":"76536","name":"Pasir Mas","state_id":1946,"state_code":"03","country_id":132,"country_code":"MY","latitude":"6.04934000","longitude":"102.13987000"},{"id":"76541","name":"Peringat","state_id":1946,"state_code":"03","country_id":132,"country_code":"MY","latitude":"6.03333000","longitude":"102.28333000"},{"id":"76585","name":"Tumpat","state_id":1946,"state_code":"03","country_id":132,"country_code":"MY","latitude":"6.19775000","longitude":"102.17098000"},{"id":"76410","name":"Alor Setar","state_id":1947,"state_code":"02","country_id":132,"country_code":"MY","latitude":"6.12104000","longitude":"100.36014000"},{"id":"76412","name":"Ayer Hangat","state_id":1947,"state_code":"02","country_id":132,"country_code":"MY","latitude":"6.42062000","longitude":"99.82199000"},{"id":"76426","name":"Bedong","state_id":1947,"state_code":"02","country_id":132,"country_code":"MY","latitude":"5.72743000","longitude":"100.50876000"},{"id":"76449","name":"Gurun","state_id":1947,"state_code":"02","country_id":132,"country_code":"MY","latitude":"5.81717000","longitude":"100.47381000"},{"id":"76454","name":"Jitra","state_id":1947,"state_code":"02","country_id":132,"country_code":"MY","latitude":"6.26812000","longitude":"100.42167000"},{"id":"76470","name":"Kampung Kilim","state_id":1947,"state_code":"02","country_id":132,"country_code":"MY","latitude":"6.40550000","longitude":"99.85020000"},{"id":"76471","name":"Kampung Kok","state_id":1947,"state_code":"02","country_id":132,"country_code":"MY","latitude":"6.36759000","longitude":"99.68252000"},{"id":"76492","name":"Kuah","state_id":1947,"state_code":"02","country_id":132,"country_code":"MY","latitude":"6.32649000","longitude":"99.84320000"},{"id":"76495","name":"Kuala Kedah","state_id":1947,"state_code":"02","country_id":132,"country_code":"MY","latitude":"6.10000000","longitude":"100.30000000"},{"id":"76503","name":"Kuala Teriang","state_id":1947,"state_code":"02","country_id":132,"country_code":"MY","latitude":"6.36377000","longitude":"99.71532000"},{"id":"76509","name":"Kulim","state_id":1947,"state_code":"02","country_id":132,"country_code":"MY","latitude":"5.36499000","longitude":"100.56177000"},{"id":"76514","name":"Langkawi","state_id":1947,"state_code":"02","country_id":132,"country_code":"MY","latitude":"6.35608000","longitude":"99.78375000"},{"id":"76529","name":"Padang Mat Sirat","state_id":1947,"state_code":"02","country_id":132,"country_code":"MY","latitude":"6.35423000","longitude":"99.73404000"},{"id":"76569","name":"Sungai Petani","state_id":1947,"state_code":"02","country_id":132,"country_code":"MY","latitude":"5.64700000","longitude":"100.48772000"},{"id":"76415","name":"Bahau","state_id":1948,"state_code":"05","country_id":132,"country_code":"MY","latitude":"2.80790000","longitude":"102.40490000"},{"id":"76465","name":"Kampung Baharu Nilai","state_id":1948,"state_code":"05","country_id":132,"country_code":"MY","latitude":"2.80330000","longitude":"101.79720000"},{"id":"76499","name":"Kuala Pilah","state_id":1948,"state_code":"05","country_id":132,"country_code":"MY","latitude":"2.73890000","longitude":"102.24870000"},{"id":"76545","name":"Port Dickson","state_id":1948,"state_code":"05","country_id":132,"country_code":"MY","latitude":"2.53718000","longitude":"101.80571000"},{"id":"76559","name":"Seremban","state_id":1948,"state_code":"05","country_id":132,"country_code":"MY","latitude":"2.72970000","longitude":"101.93810000"},{"id":"76574","name":"Tampin","state_id":1948,"state_code":"05","country_id":132,"country_code":"MY","latitude":"2.47010000","longitude":"102.23020000"},{"id":"76497","name":"Kuala Lumpur","state_id":1949,"state_code":"14","country_id":132,"country_code":"MY","latitude":"3.14120000","longitude":"101.68653000"},{"id":"76416","name":"Bakri","state_id":1950,"state_code":"01","country_id":132,"country_code":"MY","latitude":"2.04410000","longitude":"102.65270000"},{"id":"76424","name":"Batu Pahat","state_id":1950,"state_code":"01","country_id":132,"country_code":"MY","latitude":"1.85480000","longitude":"102.93250000"},{"id":"76433","name":"Buloh Kasap","state_id":1950,"state_code":"01","country_id":132,"country_code":"MY","latitude":"2.55360000","longitude":"102.76400000"},{"id":"76435","name":"Chaah","state_id":1950,"state_code":"01","country_id":132,"country_code":"MY","latitude":"2.24900000","longitude":"103.04800000"},{"id":"76437","name":"Daerah Batu Pahat","state_id":1950,"state_code":"01","country_id":132,"country_code":"MY","latitude":"1.93333000","longitude":"103.00000000"},{"id":"76438","name":"Daerah Johor Baharu","state_id":1950,"state_code":"01","country_id":132,"country_code":"MY","latitude":"1.65000000","longitude":"103.60000000"},{"id":"76439","name":"Daerah Keluang","state_id":1950,"state_code":"01","country_id":132,"country_code":"MY","latitude":"2.20000000","longitude":"103.33333000"},{"id":"76440","name":"Daerah Kota Tinggi","state_id":1950,"state_code":"01","country_id":132,"country_code":"MY","latitude":"1.81667000","longitude":"103.96667000"},{"id":"76441","name":"Daerah Mersing","state_id":1950,"state_code":"01","country_id":132,"country_code":"MY","latitude":"2.31667000","longitude":"103.71667000"},{"id":"76442","name":"Daerah Muar","state_id":1950,"state_code":"01","country_id":132,"country_code":"MY","latitude":"2.25000000","longitude":"102.75000000"},{"id":"76443","name":"Daerah Pontian","state_id":1950,"state_code":"01","country_id":132,"country_code":"MY","latitude":"1.50000000","longitude":"103.50000000"},{"id":"76444","name":"Daerah Segamat","state_id":1950,"state_code":"01","country_id":132,"country_code":"MY","latitude":"2.60000000","longitude":"102.81667000"},{"id":"76455","name":"Johor Bahru","state_id":1950,"state_code":"01","country_id":132,"country_code":"MY","latitude":"1.46550000","longitude":"103.75780000"},{"id":"76473","name":"Kampung Pasir Gudang Baru","state_id":1950,"state_code":"01","country_id":132,"country_code":"MY","latitude":"1.47260000","longitude":"103.87800000"},{"id":"76474","name":"Kampung Simpang Renggam","state_id":1950,"state_code":"01","country_id":132,"country_code":"MY","latitude":"1.82780000","longitude":"103.30000000"},{"id":"76480","name":"Kelapa Sawit","state_id":1950,"state_code":"01","country_id":132,"country_code":"MY","latitude":"1.66980000","longitude":"103.53270000"},{"id":"76487","name":"Kluang","state_id":1950,"state_code":"01","country_id":132,"country_code":"MY","latitude":"2.03046000","longitude":"103.31689000"},{"id":"76491","name":"Kota Tinggi","state_id":1950,"state_code":"01","country_id":132,"country_code":"MY","latitude":"1.73810000","longitude":"103.89990000"},{"id":"76508","name":"Kulai","state_id":1950,"state_code":"01","country_id":132,"country_code":"MY","latitude":"1.65610000","longitude":"103.60320000"},{"id":"76510","name":"Labis","state_id":1950,"state_code":"01","country_id":132,"country_code":"MY","latitude":"2.38500000","longitude":"103.02100000"},{"id":"76524","name":"Mersing","state_id":1950,"state_code":"01","country_id":132,"country_code":"MY","latitude":"2.43120000","longitude":"103.84050000"},{"id":"76526","name":"Muar","state_id":1950,"state_code":"01","country_id":132,"country_code":"MY","latitude":"2.04420000","longitude":"102.56890000"},{"id":"76535","name":"Parit Raja","state_id":1950,"state_code":"01","country_id":132,"country_code":"MY","latitude":"1.86810000","longitude":"103.11240000"},{"id":"76538","name":"Pekan Nenas","state_id":1950,"state_code":"01","country_id":132,"country_code":"MY","latitude":"1.51000000","longitude":"103.51410000"},{"id":"76544","name":"Pontian Kechil","state_id":1950,"state_code":"01","country_id":132,"country_code":"MY","latitude":"1.48660000","longitude":"103.38960000"},{"id":"76556","name":"Segamat","state_id":1950,"state_code":"01","country_id":132,"country_code":"MY","latitude":"2.51480000","longitude":"102.81580000"},{"id":"76565","name":"Skudai","state_id":1950,"state_code":"01","country_id":132,"country_code":"MY","latitude":"1.53741000","longitude":"103.65779000"},{"id":"76573","name":"Taman Senai","state_id":1950,"state_code":"01","country_id":132,"country_code":"MY","latitude":"1.60060000","longitude":"103.64190000"},{"id":"76576","name":"Tangkak","state_id":1950,"state_code":"01","country_id":132,"country_code":"MY","latitude":"2.26730000","longitude":"102.54530000"},{"id":"76586","name":"Ulu Tiram","state_id":1950,"state_code":"01","country_id":132,"country_code":"MY","latitude":"1.60000000","longitude":"103.81667000"},{"id":"76587","name":"Yong Peng","state_id":1950,"state_code":"01","country_id":132,"country_code":"MY","latitude":"2.01360000","longitude":"103.06590000"}]