[{"id":"21645","name":"Alvarado","state_id":1211,"state_code":"C","country_id":53,"country_code":"CR","latitude":"9.93333000","longitude":"-83.80000000"},{"id":"21659","name":"Cartago","state_id":1211,"state_code":"C","country_id":53,"country_code":"CR","latitude":"9.86444000","longitude":"-83.91944000"},{"id":"21665","name":"Concepci\u00f3n","state_id":1211,"state_code":"C","country_id":53,"country_code":"CR","latitude":"9.93333000","longitude":"-84.00000000"},{"id":"21668","name":"Cot","state_id":1211,"state_code":"C","country_id":53,"country_code":"CR","latitude":"9.89449000","longitude":"-83.87302000"},{"id":"21675","name":"El Guarco","state_id":1211,"state_code":"C","country_id":53,"country_code":"CR","latitude":"9.75000000","longitude":"-83.91667000"},{"id":"21694","name":"Jim\u00e9nez","state_id":1211,"state_code":"C","country_id":53,"country_code":"CR","latitude":"9.75000000","longitude":"-83.68333000"},{"id":"21699","name":"La Suiza","state_id":1211,"state_code":"C","country_id":53,"country_code":"CR","latitude":"9.85065000","longitude":"-83.61690000"},{"id":"21700","name":"La Uni\u00f3n","state_id":1211,"state_code":"C","country_id":53,"country_code":"CR","latitude":"9.91667000","longitude":"-83.98333000"},{"id":"21717","name":"Oreamuno","state_id":1211,"state_code":"C","country_id":53,"country_code":"CR","latitude":"10.00000000","longitude":"-83.83333000"},{"id":"21718","name":"Oros\u00ed","state_id":1211,"state_code":"C","country_id":53,"country_code":"CR","latitude":"9.79617000","longitude":"-83.85383000"},{"id":"21721","name":"Pacayas","state_id":1211,"state_code":"C","country_id":53,"country_code":"CR","latitude":"9.80709000","longitude":"-84.04764000"},{"id":"21725","name":"Para\u00edso","state_id":1211,"state_code":"C","country_id":53,"country_code":"CR","latitude":"9.75000000","longitude":"-83.80000000"},{"id":"21728","name":"Pejibaye","state_id":1211,"state_code":"C","country_id":53,"country_code":"CR","latitude":"9.81135000","longitude":"-83.70336000"},{"id":"21748","name":"San Diego","state_id":1211,"state_code":"C","country_id":53,"country_code":"CR","latitude":"9.89898000","longitude":"-84.00287000"},{"id":"21790","name":"Tobosi","state_id":1211,"state_code":"C","country_id":53,"country_code":"CR","latitude":"9.83837000","longitude":"-83.98391000"},{"id":"21791","name":"Tres R\u00edos","state_id":1211,"state_code":"C","country_id":53,"country_code":"CR","latitude":"9.90644000","longitude":"-83.98760000"},{"id":"21792","name":"Tucurrique","state_id":1211,"state_code":"C","country_id":53,"country_code":"CR","latitude":"9.85336000","longitude":"-83.72273000"},{"id":"21793","name":"Turrialba","state_id":1211,"state_code":"C","country_id":53,"country_code":"CR","latitude":"9.80000000","longitude":"-83.53333000"}]