[{"id":"23492","name":"Admannshagen-Bargeshagen","state_id":3007,"state_code":"MV","country_id":82,"country_code":"DE","latitude":"54.13038000","longitude":"11.99915000"},{"id":"23502","name":"Ahlbeck","state_id":3007,"state_code":"MV","country_id":82,"country_code":"DE","latitude":"53.66972000","longitude":"14.18622000"},{"id":"23576","name":"Alt Meteln","state_id":3007,"state_code":"MV","country_id":82,"country_code":"DE","latitude":"53.74709000","longitude":"11.34056000"},{"id":"23580","name":"Alt-Sanitz","state_id":3007,"state_code":"MV","country_id":82,"country_code":"DE","latitude":"53.81363000","longitude":"13.58786000"},{"id":"23586","name":"Altef\u00e4hr","state_id":3007,"state_code":"MV","country_id":82,"country_code":"DE","latitude":"54.32994000","longitude":"13.12643000"},{"id":"23604","name":"Altenkirchen","state_id":3007,"state_code":"MV","country_id":82,"country_code":"DE","latitude":"54.63624000","longitude":"13.34332000"},{"id":"23611","name":"Altenpleen","state_id":3007,"state_code":"MV","country_id":82,"country_code":"DE","latitude":"54.35456000","longitude":"12.95640000"},{"id":"23617","name":"Altentreptow","state_id":3007,"state_code":"MV","country_id":82,"country_code":"DE","latitude":"53.69416000","longitude":"13.26504000"},{"id":"23635","name":"Altstadt","state_id":3007,"state_code":"MV","country_id":82,"country_code":"DE","latitude":"53.62805000","longitude":"11.41582000"},{"id":"23659","name":"Anklam","state_id":3007,"state_code":"MV","country_id":82,"country_code":"DE","latitude":"53.85637000","longitude":"13.68965000"},{"id":"23782","name":"Bad Doberan","state_id":3007,"state_code":"MV","country_id":82,"country_code":"DE","latitude":"54.10712000","longitude":"11.90051000"},{"id":"23814","name":"Bad Kleinen","state_id":3007,"state_code":"MV","country_id":82,"country_code":"DE","latitude":"53.77134000","longitude":"11.47165000"},{"id":"23875","name":"Bad S\u00fclze","state_id":3007,"state_code":"MV","country_id":82,"country_code":"DE","latitude":"54.11084000","longitude":"12.66054000"},{"id":"23923","name":"Banzkow","state_id":3007,"state_code":"MV","country_id":82,"country_code":"DE","latitude":"53.52497000","longitude":"11.52306000"},{"id":"23943","name":"Bartenshagen-Parkentin","state_id":3007,"state_code":"MV","country_id":82,"country_code":"DE","latitude":"54.08116000","longitude":"11.97849000"},{"id":"23944","name":"Barth","state_id":3007,"state_code":"MV","country_id":82,"country_code":"DE","latitude":"54.36346000","longitude":"12.72491000"},{"id":"23955","name":"Bastorf","state_id":3007,"state_code":"MV","country_id":82,"country_code":"DE","latitude":"54.12566000","longitude":"11.69695000"},{"id":"24473","name":"B\u00f6rgerende-Rethwisch","state_id":3007,"state_code":"MV","country_id":82,"country_code":"DE","latitude":"54.14177000","longitude":"11.92528000"},{"id":"24510","name":"B\u00fctzow","state_id":3007,"state_code":"MV","country_id":82,"country_code":"DE","latitude":"53.84832000","longitude":"11.98256000"},{"id":"24020","name":"Bentwisch","state_id":3007,"state_code":"MV","country_id":82,"country_code":"DE","latitude":"54.11503000","longitude":"12.20465000"},{"id":"24021","name":"Bentzin","state_id":3007,"state_code":"MV","country_id":82,"country_code":"DE","latitude":"53.94608000","longitude":"13.27320000"},{"id":"24037","name":"Bergen auf R\u00fcgen","state_id":3007,"state_code":"MV","country_id":82,"country_code":"DE","latitude":"54.41823000","longitude":"13.43349000"},{"id":"24066","name":"Bernitt","state_id":3007,"state_code":"MV","country_id":82,"country_code":"DE","latitude":"53.90403000","longitude":"11.88669000"},{"id":"24108","name":"Biendorf","state_id":3007,"state_code":"MV","country_id":82,"country_code":"DE","latitude":"54.07520000","longitude":"11.70127000"},{"id":"24172","name":"Blankensee","state_id":3007,"state_code":"MV","country_id":82,"country_code":"DE","latitude":"53.40390000","longitude":"13.26836000"},{"id":"24186","name":"Blowatz","state_id":3007,"state_code":"MV","country_id":82,"country_code":"DE","latitude":"53.98972000","longitude":"11.53360000"},{"id":"24191","name":"Bobitz","state_id":3007,"state_code":"MV","country_id":82,"country_code":"DE","latitude":"53.80450000","longitude":"11.35914000"},{"id":"24218","name":"Boizenburg","state_id":3007,"state_code":"MV","country_id":82,"country_code":"DE","latitude":"53.38153000","longitude":"10.72375000"},{"id":"24249","name":"Born","state_id":3007,"state_code":"MV","country_id":82,"country_code":"DE","latitude":"54.38536000","longitude":"12.53051000"},{"id":"24256","name":"Borrentin","state_id":3007,"state_code":"MV","country_id":82,"country_code":"DE","latitude":"53.80968000","longitude":"12.96718000"},{"id":"24282","name":"Brandshagen","state_id":3007,"state_code":"MV","country_id":82,"country_code":"DE","latitude":"54.23945000","longitude":"13.16917000"},{"id":"24367","name":"Br\u00fcel","state_id":3007,"state_code":"MV","country_id":82,"country_code":"DE","latitude":"53.73719000","longitude":"11.71471000"},{"id":"24373","name":"Br\u00fcsewitz","state_id":3007,"state_code":"MV","country_id":82,"country_code":"DE","latitude":"53.67588000","longitude":"11.24379000"},{"id":"24341","name":"Broderstorf","state_id":3007,"state_code":"MV","country_id":82,"country_code":"DE","latitude":"54.08114000","longitude":"12.26350000"},{"id":"24358","name":"Brunn","state_id":3007,"state_code":"MV","country_id":82,"country_code":"DE","latitude":"53.67076000","longitude":"13.37032000"},{"id":"24408","name":"Burg Stargard","state_id":3007,"state_code":"MV","country_id":82,"country_code":"DE","latitude":"53.49582000","longitude":"13.31122000"},{"id":"24444","name":"Burow","state_id":3007,"state_code":"MV","country_id":82,"country_code":"DE","latitude":"53.77372000","longitude":"13.27318000"},{"id":"24522","name":"Carlow","state_id":3007,"state_code":"MV","country_id":82,"country_code":"DE","latitude":"53.75861000","longitude":"10.93789000"},{"id":"24524","name":"Carpin","state_id":3007,"state_code":"MV","country_id":82,"country_code":"DE","latitude":"53.35691000","longitude":"13.24328000"},{"id":"24565","name":"Crivitz","state_id":3007,"state_code":"MV","country_id":82,"country_code":"DE","latitude":"53.57316000","longitude":"11.65194000"},{"id":"24573","name":"Dabel","state_id":3007,"state_code":"MV","country_id":82,"country_code":"DE","latitude":"53.66112000","longitude":"11.90025000"},{"id":"24595","name":"Dargun","state_id":3007,"state_code":"MV","country_id":82,"country_code":"DE","latitude":"53.90090000","longitude":"12.85014000"},{"id":"24601","name":"Dassow","state_id":3007,"state_code":"MV","country_id":82,"country_code":"DE","latitude":"53.91096000","longitude":"10.97551000"},{"id":"24798","name":"D\u00f6mitz","state_id":3007,"state_code":"MV","country_id":82,"country_code":"DE","latitude":"53.14080000","longitude":"11.25017000"},{"id":"24806","name":"D\u00fcmmer","state_id":3007,"state_code":"MV","country_id":82,"country_code":"DE","latitude":"53.57629000","longitude":"11.20497000"},{"id":"24627","name":"Demen","state_id":3007,"state_code":"MV","country_id":82,"country_code":"DE","latitude":"53.62967000","longitude":"11.76639000"},{"id":"24629","name":"Demmin","state_id":3007,"state_code":"MV","country_id":82,"country_code":"DE","latitude":"53.90762000","longitude":"13.03142000"},{"id":"24641","name":"Dersekow","state_id":3007,"state_code":"MV","country_id":82,"country_code":"DE","latitude":"54.04583000","longitude":"13.29243000"},{"id":"24672","name":"Dierkow-Neu","state_id":3007,"state_code":"MV","country_id":82,"country_code":"DE","latitude":"54.10571000","longitude":"12.16753000"},{"id":"24673","name":"Dierkow-West","state_id":3007,"state_code":"MV","country_id":82,"country_code":"DE","latitude":"54.10608000","longitude":"12.15041000"},{"id":"24711","name":"Dobbertin","state_id":3007,"state_code":"MV","country_id":82,"country_code":"DE","latitude":"53.62306000","longitude":"12.07466000"},{"id":"24728","name":"Doms\u00fchl","state_id":3007,"state_code":"MV","country_id":82,"country_code":"DE","latitude":"53.48723000","longitude":"11.77099000"},{"id":"24756","name":"Dranske","state_id":3007,"state_code":"MV","country_id":82,"country_code":"DE","latitude":"54.63118000","longitude":"13.22831000"},{"id":"24774","name":"Ducherow","state_id":3007,"state_code":"MV","country_id":82,"country_code":"DE","latitude":"53.76436000","longitude":"13.78216000"},{"id":"24781","name":"Dummerstorf","state_id":3007,"state_code":"MV","country_id":82,"country_code":"DE","latitude":"54.01484000","longitude":"12.22821000"},{"id":"24877","name":"Eggesin","state_id":3007,"state_code":"MV","country_id":82,"country_code":"DE","latitude":"53.67973000","longitude":"14.07992000"},{"id":"24941","name":"Eldena","state_id":3007,"state_code":"MV","country_id":82,"country_code":"DE","latitude":"53.23191000","longitude":"11.41804000"},{"id":"24959","name":"Elmenhorst","state_id":3007,"state_code":"MV","country_id":82,"country_code":"DE","latitude":"54.15583000","longitude":"12.01084000"},{"id":"25157","name":"Feldstadt","state_id":3007,"state_code":"MV","country_id":82,"country_code":"DE","latitude":"53.62331000","longitude":"11.40673000"},{"id":"25164","name":"Ferdinandshof","state_id":3007,"state_code":"MV","country_id":82,"country_code":"DE","latitude":"53.66124000","longitude":"13.88724000"},{"id":"25224","name":"Franzburg","state_id":3007,"state_code":"MV","country_id":82,"country_code":"DE","latitude":"54.18501000","longitude":"12.88210000"},{"id":"25281","name":"Friedland","state_id":3007,"state_code":"MV","country_id":82,"country_code":"DE","latitude":"53.67028000","longitude":"13.55400000"},{"id":"25343","name":"Gadebusch","state_id":3007,"state_code":"MV","country_id":82,"country_code":"DE","latitude":"53.70137000","longitude":"11.11676000"},{"id":"25374","name":"Garz","state_id":3007,"state_code":"MV","country_id":82,"country_code":"DE","latitude":"54.31843000","longitude":"13.35125000"},{"id":"25773","name":"G\u00e4gelow","state_id":3007,"state_code":"MV","country_id":82,"country_code":"DE","latitude":"53.68558000","longitude":"11.89639000"},{"id":"25782","name":"G\u00f6rmin","state_id":3007,"state_code":"MV","country_id":82,"country_code":"DE","latitude":"53.99092000","longitude":"13.27054000"},{"id":"25800","name":"G\u00fcstrow","state_id":3007,"state_code":"MV","country_id":82,"country_code":"DE","latitude":"53.79720000","longitude":"12.17337000"},{"id":"25803","name":"G\u00fctzkow","state_id":3007,"state_code":"MV","country_id":82,"country_code":"DE","latitude":"53.72432000","longitude":"13.10664000"},{"id":"25411","name":"Gelbensande","state_id":3007,"state_code":"MV","country_id":82,"country_code":"DE","latitude":"54.20272000","longitude":"12.30168000"},{"id":"25483","name":"Gielow","state_id":3007,"state_code":"MV","country_id":82,"country_code":"DE","latitude":"53.69756000","longitude":"12.74521000"},{"id":"25495","name":"Gingst","state_id":3007,"state_code":"MV","country_id":82,"country_code":"DE","latitude":"54.45654000","longitude":"13.25737000"},{"id":"25516","name":"Glowe","state_id":3007,"state_code":"MV","country_id":82,"country_code":"DE","latitude":"54.56911000","longitude":"13.46550000"},{"id":"25523","name":"Gnoien","state_id":3007,"state_code":"MV","country_id":82,"country_code":"DE","latitude":"53.96870000","longitude":"12.71099000"},{"id":"25531","name":"Goldberg","state_id":3007,"state_code":"MV","country_id":82,"country_code":"DE","latitude":"53.58878000","longitude":"12.08855000"},{"id":"25559","name":"Grabow","state_id":3007,"state_code":"MV","country_id":82,"country_code":"DE","latitude":"53.27966000","longitude":"11.56502000"},{"id":"25560","name":"Grabowh\u00f6fe","state_id":3007,"state_code":"MV","country_id":82,"country_code":"DE","latitude":"53.56865000","longitude":"12.59482000"},{"id":"25574","name":"Gramkow","state_id":3007,"state_code":"MV","country_id":82,"country_code":"DE","latitude":"53.92092000","longitude":"11.31740000"},{"id":"25592","name":"Greifswald","state_id":3007,"state_code":"MV","country_id":82,"country_code":"DE","latitude":"54.09311000","longitude":"13.38786000"},{"id":"25606","name":"Grevesm\u00fchlen","state_id":3007,"state_code":"MV","country_id":82,"country_code":"DE","latitude":"53.86337000","longitude":"11.19160000"},{"id":"25611","name":"Grimmen","state_id":3007,"state_code":"MV","country_id":82,"country_code":"DE","latitude":"54.11215000","longitude":"13.04051000"},{"id":"25624","name":"Gro\u00df Kiesow","state_id":3007,"state_code":"MV","country_id":82,"country_code":"DE","latitude":"54.01261000","longitude":"13.47851000"},{"id":"25628","name":"Gro\u00df Laasch","state_id":3007,"state_code":"MV","country_id":82,"country_code":"DE","latitude":"53.34646000","longitude":"11.54919000"},{"id":"25630","name":"Gro\u00df Miltzow","state_id":3007,"state_code":"MV","country_id":82,"country_code":"DE","latitude":"53.53565000","longitude":"13.59354000"},{"id":"25632","name":"Gro\u00df Nemerow","state_id":3007,"state_code":"MV","country_id":82,"country_code":"DE","latitude":"53.47342000","longitude":"13.22482000"},{"id":"25642","name":"Gro\u00df Wokern","state_id":3007,"state_code":"MV","country_id":82,"country_code":"DE","latitude":"53.75135000","longitude":"12.49249000"},{"id":"25823","name":"Hagenow","state_id":3007,"state_code":"MV","country_id":82,"country_code":"DE","latitude":"53.43134000","longitude":"11.19159000"},{"id":"26131","name":"Hiddensee","state_id":3007,"state_code":"MV","country_id":82,"country_code":"DE","latitude":"54.56689000","longitude":"13.10411000"},{"id":"26270","name":"Hornstorf","state_id":3007,"state_code":"MV","country_id":82,"country_code":"DE","latitude":"53.90994000","longitude":"11.53214000"},{"id":"26430","name":"Jarmen","state_id":3007,"state_code":"MV","country_id":82,"country_code":"DE","latitude":"53.92385000","longitude":"13.34032000"},{"id":"26432","name":"Jatznick","state_id":3007,"state_code":"MV","country_id":82,"country_code":"DE","latitude":"53.57951000","longitude":"13.93955000"},{"id":"26468","name":"J\u00f6rdenstorf","state_id":3007,"state_code":"MV","country_id":82,"country_code":"DE","latitude":"53.87823000","longitude":"12.61619000"},{"id":"26475","name":"J\u00fcrgenshagen","state_id":3007,"state_code":"MV","country_id":82,"country_code":"DE","latitude":"53.95417000","longitude":"11.89665000"},{"id":"26491","name":"Kalkhorst","state_id":3007,"state_code":"MV","country_id":82,"country_code":"DE","latitude":"53.97012000","longitude":"11.04469000"},{"id":"26516","name":"Karlshagen","state_id":3007,"state_code":"MV","country_id":82,"country_code":"DE","latitude":"54.11107000","longitude":"13.83193000"},{"id":"26547","name":"Kavelstorf","state_id":3007,"state_code":"MV","country_id":82,"country_code":"DE","latitude":"54.00596000","longitude":"12.19082000"},{"id":"26566","name":"Kemnitz","state_id":3007,"state_code":"MV","country_id":82,"country_code":"DE","latitude":"54.07723000","longitude":"13.53528000"},{"id":"26574","name":"Kessin","state_id":3007,"state_code":"MV","country_id":82,"country_code":"DE","latitude":"53.72928000","longitude":"13.30773000"},{"id":"26700","name":"Kl\u00fctz","state_id":3007,"state_code":"MV","country_id":82,"country_code":"DE","latitude":"53.96470000","longitude":"11.16367000"},{"id":"26663","name":"Klein Rogahn","state_id":3007,"state_code":"MV","country_id":82,"country_code":"DE","latitude":"53.60534000","longitude":"11.34579000"},{"id":"26690","name":"Klink","state_id":3007,"state_code":"MV","country_id":82,"country_code":"DE","latitude":"53.47758000","longitude":"12.62131000"},{"id":"26728","name":"Koserow","state_id":3007,"state_code":"MV","country_id":82,"country_code":"DE","latitude":"54.05189000","longitude":"14.00197000"},{"id":"26737","name":"Krakow am See","state_id":3007,"state_code":"MV","country_id":82,"country_code":"DE","latitude":"53.65163000","longitude":"12.27034000"},{"id":"26738","name":"Kramerhof","state_id":3007,"state_code":"MV","country_id":82,"country_code":"DE","latitude":"54.35366000","longitude":"13.05412000"},{"id":"26783","name":"Kr\u00f6pelin","state_id":3007,"state_code":"MV","country_id":82,"country_code":"DE","latitude":"54.06963000","longitude":"11.79473000"},{"id":"26785","name":"Kr\u00f6slin","state_id":3007,"state_code":"MV","country_id":82,"country_code":"DE","latitude":"54.11662000","longitude":"13.75067000"},{"id":"26764","name":"Kritzmow","state_id":3007,"state_code":"MV","country_id":82,"country_code":"DE","latitude":"54.05237000","longitude":"12.05311000"},{"id":"26862","name":"Laage","state_id":3007,"state_code":"MV","country_id":82,"country_code":"DE","latitude":"53.92560000","longitude":"12.34694000"},{"id":"26878","name":"Lalendorf","state_id":3007,"state_code":"MV","country_id":82,"country_code":"DE","latitude":"53.75774000","longitude":"12.38983000"},{"id":"26882","name":"Lambrechtshagen","state_id":3007,"state_code":"MV","country_id":82,"country_code":"DE","latitude":"54.10208000","longitude":"12.01645000"},{"id":"26947","name":"Lankow","state_id":3007,"state_code":"MV","country_id":82,"country_code":"DE","latitude":"53.64983000","longitude":"11.36913000"},{"id":"26952","name":"Lassan","state_id":3007,"state_code":"MV","country_id":82,"country_code":"DE","latitude":"53.94874000","longitude":"13.85219000"},{"id":"27191","name":"L\u00f6cknitz","state_id":3007,"state_code":"MV","country_id":82,"country_code":"DE","latitude":"53.28694000","longitude":"11.78108000"},{"id":"27206","name":"L\u00fcbow","state_id":3007,"state_code":"MV","country_id":82,"country_code":"DE","latitude":"53.85256000","longitude":"11.52440000"},{"id":"27207","name":"L\u00fcbstorf","state_id":3007,"state_code":"MV","country_id":82,"country_code":"DE","latitude":"53.72561000","longitude":"11.41471000"},{"id":"27208","name":"L\u00fcbtheen","state_id":3007,"state_code":"MV","country_id":82,"country_code":"DE","latitude":"53.30118000","longitude":"11.08368000"},{"id":"27209","name":"L\u00fcbz","state_id":3007,"state_code":"MV","country_id":82,"country_code":"DE","latitude":"53.46261000","longitude":"12.02917000"},{"id":"27214","name":"L\u00fcdersdorf","state_id":3007,"state_code":"MV","country_id":82,"country_code":"DE","latitude":"53.86835000","longitude":"11.74902000"},{"id":"27226","name":"L\u00fctzow","state_id":3007,"state_code":"MV","country_id":82,"country_code":"DE","latitude":"53.65345000","longitude":"11.17582000"},{"id":"27003","name":"Leezen","state_id":3007,"state_code":"MV","country_id":82,"country_code":"DE","latitude":"53.66265000","longitude":"11.49874000"},{"id":"27072","name":"Lewenberg","state_id":3007,"state_code":"MV","country_id":82,"country_code":"DE","latitude":"53.64591000","longitude":"11.40767000"},{"id":"27128","name":"Loddin","state_id":3007,"state_code":"MV","country_id":82,"country_code":"DE","latitude":"54.02252000","longitude":"14.00754000"},{"id":"27140","name":"Loitz","state_id":3007,"state_code":"MV","country_id":82,"country_code":"DE","latitude":"53.44205000","longitude":"13.38802000"},{"id":"27158","name":"Lubmin","state_id":3007,"state_code":"MV","country_id":82,"country_code":"DE","latitude":"54.13509000","longitude":"13.61687000"},{"id":"27166","name":"Ludwigslust","state_id":3007,"state_code":"MV","country_id":82,"country_code":"DE","latitude":"53.32917000","longitude":"11.49714000"},{"id":"27249","name":"Malchin","state_id":3007,"state_code":"MV","country_id":82,"country_code":"DE","latitude":"53.73990000","longitude":"12.76539000"},{"id":"27251","name":"Malchow","state_id":3007,"state_code":"MV","country_id":82,"country_code":"DE","latitude":"53.47477000","longitude":"12.42210000"},{"id":"27255","name":"Malli\u00df","state_id":3007,"state_code":"MV","country_id":82,"country_code":"DE","latitude":"53.21132000","longitude":"11.32716000"},{"id":"27320","name":"Marlow","state_id":3007,"state_code":"MV","country_id":82,"country_code":"DE","latitude":"54.15439000","longitude":"12.57261000"},{"id":"27563","name":"M\u00f6llenhagen","state_id":3007,"state_code":"MV","country_id":82,"country_code":"DE","latitude":"53.52388000","longitude":"12.92868000"},{"id":"27570","name":"M\u00f6nchhagen","state_id":3007,"state_code":"MV","country_id":82,"country_code":"DE","latitude":"54.15146000","longitude":"12.21670000"},{"id":"27588","name":"M\u00fchl Rosin","state_id":3007,"state_code":"MV","country_id":82,"country_code":"DE","latitude":"53.76383000","longitude":"12.21388000"},{"id":"27594","name":"M\u00fchlen Eichsen","state_id":3007,"state_code":"MV","country_id":82,"country_code":"DE","latitude":"53.75775000","longitude":"11.25006000"},{"id":"27360","name":"Mecklenburg","state_id":3007,"state_code":"MV","country_id":82,"country_code":"DE","latitude":"53.84270000","longitude":"11.46330000"},{"id":"27432","name":"Mesekenhagen","state_id":3007,"state_code":"MV","country_id":82,"country_code":"DE","latitude":"54.14846000","longitude":"13.31843000"},{"id":"27475","name":"Mirow","state_id":3007,"state_code":"MV","country_id":82,"country_code":"DE","latitude":"53.50510000","longitude":"11.50294000"},{"id":"27689","name":"Neu Kali\u00df","state_id":3007,"state_code":"MV","country_id":82,"country_code":"DE","latitude":"53.17466000","longitude":"11.29446000"},{"id":"27700","name":"Neubrandenburg","state_id":3007,"state_code":"MV","country_id":82,"country_code":"DE","latitude":"53.56414000","longitude":"13.27532000"},{"id":"27704","name":"Neubukow","state_id":3007,"state_code":"MV","country_id":82,"country_code":"DE","latitude":"54.03177000","longitude":"11.67391000"},{"id":"27706","name":"Neuburg","state_id":3007,"state_code":"MV","country_id":82,"country_code":"DE","latitude":"53.40677000","longitude":"11.91742000"},{"id":"27722","name":"Neuenkirchen","state_id":3007,"state_code":"MV","country_id":82,"country_code":"DE","latitude":"53.59729000","longitude":"13.36942000"},{"id":"27753","name":"Neukalen","state_id":3007,"state_code":"MV","country_id":82,"country_code":"DE","latitude":"53.82275000","longitude":"12.79015000"},{"id":"27764","name":"Neukloster","state_id":3007,"state_code":"MV","country_id":82,"country_code":"DE","latitude":"53.86548000","longitude":"11.68512000"},{"id":"27773","name":"Neum\u00fchle","state_id":3007,"state_code":"MV","country_id":82,"country_code":"DE","latitude":"53.63171000","longitude":"11.37085000"},{"id":"27807","name":"Neustadt-Glewe","state_id":3007,"state_code":"MV","country_id":82,"country_code":"DE","latitude":"53.37846000","longitude":"11.59264000"},{"id":"27810","name":"Neustrelitz","state_id":3007,"state_code":"MV","country_id":82,"country_code":"DE","latitude":"53.36130000","longitude":"13.07292000"},{"id":"27818","name":"Neverin","state_id":3007,"state_code":"MV","country_id":82,"country_code":"DE","latitude":"53.62067000","longitude":"13.33660000"},{"id":"27894","name":"Nienhagen","state_id":3007,"state_code":"MV","country_id":82,"country_code":"DE","latitude":"54.14869000","longitude":"12.17434000"},{"id":"27896","name":"Niepars","state_id":3007,"state_code":"MV","country_id":82,"country_code":"DE","latitude":"54.31447000","longitude":"12.92447000"},{"id":"27935","name":"Nostorf","state_id":3007,"state_code":"MV","country_id":82,"country_code":"DE","latitude":"53.40656000","longitude":"10.65408000"},{"id":"28168","name":"Ostseebad Binz","state_id":3007,"state_code":"MV","country_id":82,"country_code":"DE","latitude":"54.39995000","longitude":"13.61052000"},{"id":"28169","name":"Ostseebad Boltenhagen","state_id":3007,"state_code":"MV","country_id":82,"country_code":"DE","latitude":"53.98779000","longitude":"11.20193000"},{"id":"28170","name":"Ostseebad Dierhagen","state_id":3007,"state_code":"MV","country_id":82,"country_code":"DE","latitude":"54.29243000","longitude":"12.35799000"},{"id":"28171","name":"Ostseebad G\u00f6hren","state_id":3007,"state_code":"MV","country_id":82,"country_code":"DE","latitude":"54.34140000","longitude":"13.73823000"},{"id":"28172","name":"Ostseebad K\u00fchlungsborn","state_id":3007,"state_code":"MV","country_id":82,"country_code":"DE","latitude":"54.15035000","longitude":"11.75994000"},{"id":"28173","name":"Ostseebad Prerow","state_id":3007,"state_code":"MV","country_id":82,"country_code":"DE","latitude":"54.44469000","longitude":"12.57677000"},{"id":"28174","name":"Ostseebad Sellin","state_id":3007,"state_code":"MV","country_id":82,"country_code":"DE","latitude":"54.37846000","longitude":"13.69394000"},{"id":"28175","name":"Ostseebad Zinnowitz","state_id":3007,"state_code":"MV","country_id":82,"country_code":"DE","latitude":"54.07668000","longitude":"13.91127000"},{"id":"28214","name":"Pampow","state_id":3007,"state_code":"MV","country_id":82,"country_code":"DE","latitude":"53.75513000","longitude":"12.60815000"},{"id":"28219","name":"Papendorf","state_id":3007,"state_code":"MV","country_id":82,"country_code":"DE","latitude":"54.03523000","longitude":"12.13263000"},{"id":"28222","name":"Parchim","state_id":3007,"state_code":"MV","country_id":82,"country_code":"DE","latitude":"53.42631000","longitude":"11.84875000"},{"id":"28229","name":"Pasewalk","state_id":3007,"state_code":"MV","country_id":82,"country_code":"DE","latitude":"53.50627000","longitude":"13.98997000"},{"id":"28236","name":"Paulsstadt","state_id":3007,"state_code":"MV","country_id":82,"country_code":"DE","latitude":"53.63283000","longitude":"11.40372000"},{"id":"28252","name":"Penkun","state_id":3007,"state_code":"MV","country_id":82,"country_code":"DE","latitude":"53.29695000","longitude":"14.23616000"},{"id":"28257","name":"Penzlin","state_id":3007,"state_code":"MV","country_id":82,"country_code":"DE","latitude":"53.50400000","longitude":"13.08407000"},{"id":"28305","name":"Pinnow","state_id":3007,"state_code":"MV","country_id":82,"country_code":"DE","latitude":"53.60164000","longitude":"11.54577000"},{"id":"28314","name":"Plate","state_id":3007,"state_code":"MV","country_id":82,"country_code":"DE","latitude":"53.55145000","longitude":"11.50927000"},{"id":"28317","name":"Plau am See","state_id":3007,"state_code":"MV","country_id":82,"country_code":"DE","latitude":"53.45821000","longitude":"12.26246000"},{"id":"28358","name":"Poseritz","state_id":3007,"state_code":"MV","country_id":82,"country_code":"DE","latitude":"54.29811000","longitude":"13.27492000"},{"id":"28372","name":"Preetz","state_id":3007,"state_code":"MV","country_id":82,"country_code":"DE","latitude":"54.35017000","longitude":"12.98936000"},{"id":"28395","name":"Prohn","state_id":3007,"state_code":"MV","country_id":82,"country_code":"DE","latitude":"54.36901000","longitude":"13.02369000"},{"id":"28408","name":"Putbus","state_id":3007,"state_code":"MV","country_id":82,"country_code":"DE","latitude":"54.35511000","longitude":"13.47634000"},{"id":"28435","name":"Raben Steinfeld","state_id":3007,"state_code":"MV","country_id":82,"country_code":"DE","latitude":"53.60141000","longitude":"11.50487000"},{"id":"28459","name":"Rambin","state_id":3007,"state_code":"MV","country_id":82,"country_code":"DE","latitude":"54.35566000","longitude":"13.20445000"},{"id":"28482","name":"Rastow","state_id":3007,"state_code":"MV","country_id":82,"country_code":"DE","latitude":"53.45709000","longitude":"11.43145000"},{"id":"28773","name":"R\u00f6bel","state_id":3007,"state_code":"MV","country_id":82,"country_code":"DE","latitude":"53.37555000","longitude":"12.60372000"},{"id":"28796","name":"R\u00f6vershagen","state_id":3007,"state_code":"MV","country_id":82,"country_code":"DE","latitude":"54.17668000","longitude":"12.24276000"},{"id":"28502","name":"Rechlin","state_id":3007,"state_code":"MV","country_id":82,"country_code":"DE","latitude":"53.33549000","longitude":"12.72543000"},{"id":"28534","name":"Rehna","state_id":3007,"state_code":"MV","country_id":82,"country_code":"DE","latitude":"53.77877000","longitude":"11.04929000"},{"id":"28556","name":"Reinberg","state_id":3007,"state_code":"MV","country_id":82,"country_code":"DE","latitude":"53.67484000","longitude":"13.14417000"},{"id":"28586","name":"Retgendorf","state_id":3007,"state_code":"MV","country_id":82,"country_code":"DE","latitude":"53.72922000","longitude":"11.50359000"},{"id":"28589","name":"Retschow","state_id":3007,"state_code":"MV","country_id":82,"country_code":"DE","latitude":"54.04552000","longitude":"11.87780000"},{"id":"28621","name":"Ribnitz-Damgarten","state_id":3007,"state_code":"MV","country_id":82,"country_code":"DE","latitude":"54.24220000","longitude":"12.45666000"},{"id":"28622","name":"Richtenberg","state_id":3007,"state_code":"MV","country_id":82,"country_code":"DE","latitude":"54.20131000","longitude":"12.89409000"},{"id":"28684","name":"Roggendorf","state_id":3007,"state_code":"MV","country_id":82,"country_code":"DE","latitude":"53.69292000","longitude":"11.01440000"},{"id":"28685","name":"Roggentin","state_id":3007,"state_code":"MV","country_id":82,"country_code":"DE","latitude":"54.07070000","longitude":"12.20424000"},{"id":"28708","name":"Rosenow","state_id":3007,"state_code":"MV","country_id":82,"country_code":"DE","latitude":"53.62966000","longitude":"13.03849000"},{"id":"28715","name":"Rostock","state_id":3007,"state_code":"MV","country_id":82,"country_code":"DE","latitude":"54.08870000","longitude":"12.14049000"},{"id":"28811","name":"Saal","state_id":3007,"state_code":"MV","country_id":82,"country_code":"DE","latitude":"54.31051000","longitude":"12.49935000"},{"id":"28900","name":"Sa\u00dfnitz","state_id":3007,"state_code":"MV","country_id":82,"country_code":"DE","latitude":"54.51570000","longitude":"13.64451000"},{"id":"28828","name":"Sagard","state_id":3007,"state_code":"MV","country_id":82,"country_code":"DE","latitude":"54.52556000","longitude":"13.55387000"},{"id":"28848","name":"Samtens","state_id":3007,"state_code":"MV","country_id":82,"country_code":"DE","latitude":"54.35481000","longitude":"13.29311000"},{"id":"28891","name":"Satow-Oberhagen","state_id":3007,"state_code":"MV","country_id":82,"country_code":"DE","latitude":"53.99545000","longitude":"11.88466000"},{"id":"29503","name":"S\u00fclstorf","state_id":3007,"state_code":"MV","country_id":82,"country_code":"DE","latitude":"53.50931000","longitude":"11.37463000"},{"id":"28924","name":"Schelfstadt","state_id":3007,"state_code":"MV","country_id":82,"country_code":"DE","latitude":"53.63382000","longitude":"11.41711000"},{"id":"28959","name":"Schlagsdorf","state_id":3007,"state_code":"MV","country_id":82,"country_code":"DE","latitude":"53.73363000","longitude":"10.82556000"},{"id":"29038","name":"Schwaan","state_id":3007,"state_code":"MV","country_id":82,"country_code":"DE","latitude":"53.94047000","longitude":"12.10715000"},{"id":"29090","name":"Schwerin","state_id":3007,"state_code":"MV","country_id":82,"country_code":"DE","latitude":"53.62937000","longitude":"11.41316000"},{"id":"29144","name":"Seebad Bansin","state_id":3007,"state_code":"MV","country_id":82,"country_code":"DE","latitude":"53.97102000","longitude":"14.14147000"},{"id":"29145","name":"Seebad Heringsdorf","state_id":3007,"state_code":"MV","country_id":82,"country_code":"DE","latitude":"53.95379000","longitude":"14.16852000"},{"id":"29154","name":"Seeheilbad Graal-M\u00fcritz","state_id":3007,"state_code":"MV","country_id":82,"country_code":"DE","latitude":"54.25124000","longitude":"12.25139000"},{"id":"29156","name":"Seehof","state_id":3007,"state_code":"MV","country_id":82,"country_code":"DE","latitude":"53.69249000","longitude":"11.43256000"},{"id":"29169","name":"Sehlen","state_id":3007,"state_code":"MV","country_id":82,"country_code":"DE","latitude":"54.37971000","longitude":"13.38907000"},{"id":"29180","name":"Sellin","state_id":3007,"state_code":"MV","country_id":82,"country_code":"DE","latitude":"53.88495000","longitude":"11.60790000"},{"id":"29182","name":"Selmsdorf","state_id":3007,"state_code":"MV","country_id":82,"country_code":"DE","latitude":"53.88224000","longitude":"10.85997000"},{"id":"29225","name":"Siggelkow","state_id":3007,"state_code":"MV","country_id":82,"country_code":"DE","latitude":"53.38742000","longitude":"11.93802000"},{"id":"29304","name":"Spornitz","state_id":3007,"state_code":"MV","country_id":82,"country_code":"DE","latitude":"53.40749000","longitude":"11.71864000"},{"id":"29448","name":"St\u00e4below","state_id":3007,"state_code":"MV","country_id":82,"country_code":"DE","latitude":"54.04119000","longitude":"12.02336000"},{"id":"29377","name":"Steinhagen","state_id":3007,"state_code":"MV","country_id":82,"country_code":"DE","latitude":"54.22616000","longitude":"12.98867000"},{"id":"29401","name":"Sternberg","state_id":3007,"state_code":"MV","country_id":82,"country_code":"DE","latitude":"53.71236000","longitude":"11.82678000"},{"id":"29424","name":"Stralendorf","state_id":3007,"state_code":"MV","country_id":82,"country_code":"DE","latitude":"53.57498000","longitude":"11.30356000"},{"id":"29425","name":"Stralsund","state_id":3007,"state_code":"MV","country_id":82,"country_code":"DE","latitude":"54.30911000","longitude":"13.08180000"},{"id":"29427","name":"Strasburg","state_id":3007,"state_code":"MV","country_id":82,"country_code":"DE","latitude":"53.51030000","longitude":"13.74513000"},{"id":"29464","name":"Sukow","state_id":3007,"state_code":"MV","country_id":82,"country_code":"DE","latitude":"53.54428000","longitude":"11.56194000"},{"id":"29530","name":"Tarnow","state_id":3007,"state_code":"MV","country_id":82,"country_code":"DE","latitude":"53.77941000","longitude":"12.01785000"},{"id":"29561","name":"Tessin","state_id":3007,"state_code":"MV","country_id":82,"country_code":"DE","latitude":"54.02764000","longitude":"12.46519000"},{"id":"29562","name":"Teterow","state_id":3007,"state_code":"MV","country_id":82,"country_code":"DE","latitude":"53.77545000","longitude":"12.57487000"},{"id":"29633","name":"Torgelow","state_id":3007,"state_code":"MV","country_id":82,"country_code":"DE","latitude":"53.63415000","longitude":"14.01346000"},{"id":"29665","name":"Tribsees","state_id":3007,"state_code":"MV","country_id":82,"country_code":"DE","latitude":"54.09556000","longitude":"12.75683000"},{"id":"29671","name":"Trinwillershagen","state_id":3007,"state_code":"MV","country_id":82,"country_code":"DE","latitude":"54.25048000","longitude":"12.62312000"},{"id":"29679","name":"Trollenhagen","state_id":3007,"state_code":"MV","country_id":82,"country_code":"DE","latitude":"53.60706000","longitude":"13.29103000"},{"id":"29693","name":"Tutow","state_id":3007,"state_code":"MV","country_id":82,"country_code":"DE","latitude":"53.91566000","longitude":"13.24814000"},{"id":"29719","name":"Ueckerm\u00fcnde","state_id":3007,"state_code":"MV","country_id":82,"country_code":"DE","latitude":"53.73795000","longitude":"14.04473000"},{"id":"29797","name":"Usedom","state_id":3007,"state_code":"MV","country_id":82,"country_code":"DE","latitude":"53.87537000","longitude":"13.92394000"},{"id":"29827","name":"Velgast","state_id":3007,"state_code":"MV","country_id":82,"country_code":"DE","latitude":"54.27204000","longitude":"12.81075000"},{"id":"29844","name":"Viereck","state_id":3007,"state_code":"MV","country_id":82,"country_code":"DE","latitude":"53.54898000","longitude":"14.04001000"},{"id":"29907","name":"Wackerow","state_id":3007,"state_code":"MV","country_id":82,"country_code":"DE","latitude":"53.67683000","longitude":"12.98164000"},{"id":"30014","name":"Wardow","state_id":3007,"state_code":"MV","country_id":82,"country_code":"DE","latitude":"53.93054000","longitude":"12.40818000"},{"id":"30015","name":"Waren","state_id":3007,"state_code":"MV","country_id":82,"country_code":"DE","latitude":"53.52040000","longitude":"12.67985000"},{"id":"30017","name":"Warin","state_id":3007,"state_code":"MV","country_id":82,"country_code":"DE","latitude":"53.80026000","longitude":"11.70504000"},{"id":"30020","name":"Warnem\u00fcnde","state_id":3007,"state_code":"MV","country_id":82,"country_code":"DE","latitude":"54.17670000","longitude":"12.08402000"},{"id":"30022","name":"Warnow","state_id":3007,"state_code":"MV","country_id":82,"country_code":"DE","latitude":"53.78580000","longitude":"11.88106000"},{"id":"30042","name":"Wattmannshagen","state_id":3007,"state_code":"MV","country_id":82,"country_code":"DE","latitude":"53.77590000","longitude":"12.40701000"},{"id":"30116","name":"Weitenhagen","state_id":3007,"state_code":"MV","country_id":82,"country_code":"DE","latitude":"54.05372000","longitude":"13.40998000"},{"id":"30159","name":"Wendorf","state_id":3007,"state_code":"MV","country_id":82,"country_code":"DE","latitude":"54.25540000","longitude":"13.07682000"},{"id":"30171","name":"Werdervorstadt","state_id":3007,"state_code":"MV","country_id":82,"country_code":"DE","latitude":"53.63909000","longitude":"11.42767000"},{"id":"30193","name":"Wesenberg","state_id":3007,"state_code":"MV","country_id":82,"country_code":"DE","latitude":"53.28030000","longitude":"12.96936000"},{"id":"30222","name":"Weststadt","state_id":3007,"state_code":"MV","country_id":82,"country_code":"DE","latitude":"53.63472000","longitude":"11.39565000"},{"id":"30247","name":"Wiek","state_id":3007,"state_code":"MV","country_id":82,"country_code":"DE","latitude":"54.62000000","longitude":"13.28914000"},{"id":"30345","name":"Wismar","state_id":3007,"state_code":"MV","country_id":82,"country_code":"DE","latitude":"53.89314000","longitude":"11.45286000"},{"id":"30353","name":"Wittenburg","state_id":3007,"state_code":"MV","country_id":82,"country_code":"DE","latitude":"53.50599000","longitude":"11.08049000"},{"id":"30354","name":"Wittenf\u00f6rden","state_id":3007,"state_code":"MV","country_id":82,"country_code":"DE","latitude":"53.62917000","longitude":"11.32982000"},{"id":"30355","name":"Wittenhagen","state_id":3007,"state_code":"MV","country_id":82,"country_code":"DE","latitude":"54.18379000","longitude":"13.07133000"},{"id":"30373","name":"Woldegk","state_id":3007,"state_code":"MV","country_id":82,"country_code":"DE","latitude":"53.46058000","longitude":"13.58356000"},{"id":"30389","name":"Wolgast","state_id":3007,"state_code":"MV","country_id":82,"country_code":"DE","latitude":"54.05275000","longitude":"13.77201000"},{"id":"30416","name":"Wulkenzin","state_id":3007,"state_code":"MV","country_id":82,"country_code":"DE","latitude":"53.54445000","longitude":"13.16921000"},{"id":"30428","name":"Wusterhusen","state_id":3007,"state_code":"MV","country_id":82,"country_code":"DE","latitude":"54.11312000","longitude":"13.61608000"},{"id":"30431","name":"Wustrow","state_id":3007,"state_code":"MV","country_id":82,"country_code":"DE","latitude":"53.47765000","longitude":"13.15569000"},{"id":"30472","name":"Zarrendorf","state_id":3007,"state_code":"MV","country_id":82,"country_code":"DE","latitude":"54.23689000","longitude":"13.10094000"},{"id":"30473","name":"Zarrentin","state_id":3007,"state_code":"MV","country_id":82,"country_code":"DE","latitude":"53.55075000","longitude":"10.91550000"},{"id":"30544","name":"Z\u00fcssow","state_id":3007,"state_code":"MV","country_id":82,"country_code":"DE","latitude":"53.97709000","longitude":"13.54855000"},{"id":"30506","name":"Ziesendorf","state_id":3007,"state_code":"MV","country_id":82,"country_code":"DE","latitude":"53.99433000","longitude":"12.03933000"},{"id":"30509","name":"Zingst","state_id":3007,"state_code":"MV","country_id":82,"country_code":"DE","latitude":"54.43572000","longitude":"12.68880000"},{"id":"30527","name":"Zurow","state_id":3007,"state_code":"MV","country_id":82,"country_code":"DE","latitude":"53.86429000","longitude":"11.61434000"}]