[{"id":"23574","name":"Alsterdorf","state_id":3016,"state_code":"HH","country_id":82,"country_code":"DE","latitude":"53.61083000","longitude":"10.01306000"},{"id":"23631","name":"Altona","state_id":3016,"state_code":"HH","country_id":82,"country_code":"DE","latitude":"53.55000000","longitude":"9.93333000"},{"id":"23936","name":"Barmbek-Nord","state_id":3016,"state_code":"HH","country_id":82,"country_code":"DE","latitude":"53.60520000","longitude":"10.03988000"},{"id":"24032","name":"Bergedorf","state_id":3016,"state_code":"HH","country_id":82,"country_code":"DE","latitude":"53.48462000","longitude":"10.22904000"},{"id":"24047","name":"Bergstedt","state_id":3016,"state_code":"HH","country_id":82,"country_code":"DE","latitude":"53.67111000","longitude":"10.12694000"},{"id":"24241","name":"Borgfelde","state_id":3016,"state_code":"HH","country_id":82,"country_code":"DE","latitude":"53.55475000","longitude":"10.03447000"},{"id":"24788","name":"Duvenstedt","state_id":3016,"state_code":"HH","country_id":82,"country_code":"DE","latitude":"53.70806000","longitude":"10.10444000"},{"id":"24910","name":"Eidelstedt","state_id":3016,"state_code":"HH","country_id":82,"country_code":"DE","latitude":"53.60697000","longitude":"9.90538000"},{"id":"24919","name":"Eimsb\u00fcttel","state_id":3016,"state_code":"HH","country_id":82,"country_code":"DE","latitude":"53.57416000","longitude":"9.95679000"},{"id":"25143","name":"Farmsen-Berne","state_id":3016,"state_code":"HH","country_id":82,"country_code":"DE","latitude":"53.60639000","longitude":"10.11972000"},{"id":"25314","name":"Fuhlsb\u00fcttel","state_id":3016,"state_code":"HH","country_id":82,"country_code":"DE","latitude":"53.63459000","longitude":"10.01608000"},{"id":"25866","name":"Hamburg","state_id":3016,"state_code":"HH","country_id":82,"country_code":"DE","latitude":"53.57532000","longitude":"10.01534000"},{"id":"25867","name":"Hamburg-Altstadt","state_id":3016,"state_code":"HH","country_id":82,"country_code":"DE","latitude":"53.55000000","longitude":"10.00000000"},{"id":"25868","name":"Hamburg-Mitte","state_id":3016,"state_code":"HH","country_id":82,"country_code":"DE","latitude":"53.55000000","longitude":"10.01667000"},{"id":"25869","name":"Hamburg-Nord","state_id":3016,"state_code":"HH","country_id":82,"country_code":"DE","latitude":"53.58935000","longitude":"9.98400000"},{"id":"25877","name":"Hammerbrook","state_id":3016,"state_code":"HH","country_id":82,"country_code":"DE","latitude":"53.54527000","longitude":"10.03042000"},{"id":"25897","name":"Harburg","state_id":3016,"state_code":"HH","country_id":82,"country_code":"DE","latitude":"53.46057000","longitude":"9.98388000"},{"id":"26284","name":"Hummelsb\u00fcttel","state_id":3016,"state_code":"HH","country_id":82,"country_code":"DE","latitude":"53.64773000","longitude":"10.04149000"},{"id":"26670","name":"Kleiner Grasbrook","state_id":3016,"state_code":"HH","country_id":82,"country_code":"DE","latitude":"53.53111000","longitude":"9.99361000"},{"id":"26922","name":"Langenhorn","state_id":3016,"state_code":"HH","country_id":82,"country_code":"DE","latitude":"53.66667000","longitude":"10.01667000"},{"id":"27036","name":"Lemsahl-Mellingstedt","state_id":3016,"state_code":"HH","country_id":82,"country_code":"DE","latitude":"53.68998000","longitude":"10.09648000"},{"id":"27178","name":"Lurup","state_id":3016,"state_code":"HH","country_id":82,"country_code":"DE","latitude":"53.59266000","longitude":"9.87697000"},{"id":"27280","name":"Marienthal","state_id":3016,"state_code":"HH","country_id":82,"country_code":"DE","latitude":"53.56667000","longitude":"10.08333000"},{"id":"27793","name":"Neustadt","state_id":3016,"state_code":"HH","country_id":82,"country_code":"DE","latitude":"53.55196000","longitude":"9.98558000"},{"id":"28098","name":"Ohlsdorf","state_id":3016,"state_code":"HH","country_id":82,"country_code":"DE","latitude":"53.62594000","longitude":"10.03145000"},{"id":"28181","name":"Ottensen","state_id":3016,"state_code":"HH","country_id":82,"country_code":"DE","latitude":"53.55000000","longitude":"9.91667000"},{"id":"28351","name":"Poppenb\u00fcttel","state_id":3016,"state_code":"HH","country_id":82,"country_code":"DE","latitude":"53.65917000","longitude":"10.08472000"},{"id":"28726","name":"Rothenburgsort","state_id":3016,"state_code":"HH","country_id":82,"country_code":"DE","latitude":"53.53500000","longitude":"10.04082000"},{"id":"28888","name":"Sasel","state_id":3016,"state_code":"HH","country_id":82,"country_code":"DE","latitude":"53.65385000","longitude":"10.11184000"},{"id":"29311","name":"St. Georg","state_id":3016,"state_code":"HH","country_id":82,"country_code":"DE","latitude":"53.55513000","longitude":"10.01231000"},{"id":"29312","name":"St. Pauli","state_id":3016,"state_code":"HH","country_id":82,"country_code":"DE","latitude":"53.55700000","longitude":"9.96400000"},{"id":"29354","name":"Steilshoop","state_id":3016,"state_code":"HH","country_id":82,"country_code":"DE","latitude":"53.61028000","longitude":"10.05917000"},{"id":"29396","name":"Stellingen","state_id":3016,"state_code":"HH","country_id":82,"country_code":"DE","latitude":"53.59220000","longitude":"9.92870000"},{"id":"30000","name":"Wandsbek","state_id":3016,"state_code":"HH","country_id":82,"country_code":"DE","latitude":"53.58334000","longitude":"10.08305000"},{"id":"30145","name":"Wellingsb\u00fcttel","state_id":3016,"state_code":"HH","country_id":82,"country_code":"DE","latitude":"53.64104000","longitude":"10.07980000"},{"id":"30333","name":"Winterhude","state_id":3016,"state_code":"HH","country_id":82,"country_code":"DE","latitude":"53.60000000","longitude":"10.00000000"},{"id":"30370","name":"Wohldorf-Ohlstedt","state_id":3016,"state_code":"HH","country_id":82,"country_code":"DE","latitude":"53.69282000","longitude":"10.13117000"}]