[{"id":"23476","name":"Achtrup","state_id":3005,"state_code":"SH","country_id":82,"country_code":"DE","latitude":"54.79053000","longitude":"9.02848000"},{"id":"23514","name":"Ahrensb\u00f6k","state_id":3005,"state_code":"SH","country_id":82,"country_code":"DE","latitude":"54.00862000","longitude":"10.57434000"},{"id":"23513","name":"Ahrensburg","state_id":3005,"state_code":"SH","country_id":82,"country_code":"DE","latitude":"53.67515000","longitude":"10.22593000"},{"id":"23533","name":"Albersdorf","state_id":3005,"state_code":"SH","country_id":82,"country_code":"DE","latitude":"54.15000000","longitude":"9.28333000"},{"id":"23575","name":"Alt Duvenstedt","state_id":3005,"state_code":"SH","country_id":82,"country_code":"DE","latitude":"54.36667000","longitude":"9.65000000"},{"id":"23603","name":"Altenholz","state_id":3005,"state_code":"SH","country_id":82,"country_code":"DE","latitude":"54.40000000","longitude":"10.13333000"},{"id":"23606","name":"Altenkrempe","state_id":3005,"state_code":"SH","country_id":82,"country_code":"DE","latitude":"54.13333000","longitude":"10.83333000"},{"id":"23640","name":"Alveslohe","state_id":3005,"state_code":"SH","country_id":82,"country_code":"DE","latitude":"53.78333000","longitude":"9.91667000"},{"id":"23677","name":"Appen","state_id":3005,"state_code":"SH","country_id":82,"country_code":"DE","latitude":"53.65813000","longitude":"9.74582000"},{"id":"23706","name":"Ascheberg","state_id":3005,"state_code":"SH","country_id":82,"country_code":"DE","latitude":"54.15027000","longitude":"10.34552000"},{"id":"23736","name":"Aukrug","state_id":3005,"state_code":"SH","country_id":82,"country_code":"DE","latitude":"54.08333000","longitude":"9.78333000"},{"id":"23776","name":"Bad Bramstedt","state_id":3005,"state_code":"SH","country_id":82,"country_code":"DE","latitude":"53.91830000","longitude":"9.88424000"},{"id":"23845","name":"Bad Oldesloe","state_id":3005,"state_code":"SH","country_id":82,"country_code":"DE","latitude":"53.81167000","longitude":"10.37417000"},{"id":"23865","name":"Bad Schwartau","state_id":3005,"state_code":"SH","country_id":82,"country_code":"DE","latitude":"53.91887000","longitude":"10.69691000"},{"id":"23866","name":"Bad Segeberg","state_id":3005,"state_code":"SH","country_id":82,"country_code":"DE","latitude":"53.94313000","longitude":"10.30215000"},{"id":"23930","name":"Bargfeld-Stegen","state_id":3005,"state_code":"SH","country_id":82,"country_code":"DE","latitude":"53.76778000","longitude":"10.18750000"},{"id":"23932","name":"Bargteheide","state_id":3005,"state_code":"SH","country_id":82,"country_code":"DE","latitude":"53.72856000","longitude":"10.26695000"},{"id":"23933","name":"Bark","state_id":3005,"state_code":"SH","country_id":82,"country_code":"DE","latitude":"53.91146000","longitude":"10.17949000"},{"id":"23934","name":"Barkelsby","state_id":3005,"state_code":"SH","country_id":82,"country_code":"DE","latitude":"54.50000000","longitude":"9.83333000"},{"id":"23937","name":"Barmstedt","state_id":3005,"state_code":"SH","country_id":82,"country_code":"DE","latitude":"53.79209000","longitude":"9.76739000"},{"id":"23941","name":"Barsb\u00fcttel","state_id":3005,"state_code":"SH","country_id":82,"country_code":"DE","latitude":"53.56667000","longitude":"10.16667000"},{"id":"24468","name":"B\u00f6neb\u00fcttel","state_id":3005,"state_code":"SH","country_id":82,"country_code":"DE","latitude":"54.08333000","longitude":"10.06667000"},{"id":"24471","name":"B\u00f6nningstedt","state_id":3005,"state_code":"SH","country_id":82,"country_code":"DE","latitude":"53.66667000","longitude":"9.91667000"},{"id":"24475","name":"B\u00f6rnsen","state_id":3005,"state_code":"SH","country_id":82,"country_code":"DE","latitude":"53.47620000","longitude":"10.28160000"},{"id":"24478","name":"B\u00f6sdorf","state_id":3005,"state_code":"SH","country_id":82,"country_code":"DE","latitude":"54.15000000","longitude":"10.48333000"},{"id":"24486","name":"B\u00fcchen","state_id":3005,"state_code":"SH","country_id":82,"country_code":"DE","latitude":"53.48008000","longitude":"10.61760000"},{"id":"24493","name":"B\u00fcdelsdorf","state_id":3005,"state_code":"SH","country_id":82,"country_code":"DE","latitude":"54.31844000","longitude":"9.67295000"},{"id":"24506","name":"B\u00fcsum","state_id":3005,"state_code":"SH","country_id":82,"country_code":"DE","latitude":"54.13398000","longitude":"8.85756000"},{"id":"24051","name":"Berkenthin","state_id":3005,"state_code":"SH","country_id":82,"country_code":"DE","latitude":"53.73333000","longitude":"10.65000000"},{"id":"24178","name":"Blekendorf","state_id":3005,"state_code":"SH","country_id":82,"country_code":"DE","latitude":"54.28211000","longitude":"10.65820000"},{"id":"24220","name":"Bokholt-Hanredder","state_id":3005,"state_code":"SH","country_id":82,"country_code":"DE","latitude":"53.78808000","longitude":"9.73586000"},{"id":"24225","name":"Bollingstedt","state_id":3005,"state_code":"SH","country_id":82,"country_code":"DE","latitude":"54.59229000","longitude":"9.41738000"},{"id":"24235","name":"Boostedt","state_id":3005,"state_code":"SH","country_id":82,"country_code":"DE","latitude":"54.01667000","longitude":"10.03333000"},{"id":"24238","name":"Bordelum","state_id":3005,"state_code":"SH","country_id":82,"country_code":"DE","latitude":"54.63333000","longitude":"8.93333000"},{"id":"24239","name":"Bordesholm","state_id":3005,"state_code":"SH","country_id":82,"country_code":"DE","latitude":"54.17611000","longitude":"10.03146000"},{"id":"24243","name":"Borgstedt","state_id":3005,"state_code":"SH","country_id":82,"country_code":"DE","latitude":"54.33268000","longitude":"9.70954000"},{"id":"24254","name":"Bornh\u00f6ved","state_id":3005,"state_code":"SH","country_id":82,"country_code":"DE","latitude":"54.06667000","longitude":"10.23333000"},{"id":"24259","name":"Borstel-Hohenraden","state_id":3005,"state_code":"SH","country_id":82,"country_code":"DE","latitude":"53.68333000","longitude":"9.81667000"},{"id":"24261","name":"Bosau","state_id":3005,"state_code":"SH","country_id":82,"country_code":"DE","latitude":"54.09787000","longitude":"10.43570000"},{"id":"24265","name":"Bovenau","state_id":3005,"state_code":"SH","country_id":82,"country_code":"DE","latitude":"54.33333000","longitude":"9.83333000"},{"id":"24279","name":"Brande-H\u00f6rnerkirchen","state_id":3005,"state_code":"SH","country_id":82,"country_code":"DE","latitude":"53.85000000","longitude":"9.71667000"},{"id":"24368","name":"Br\u00fcgge","state_id":3005,"state_code":"SH","country_id":82,"country_code":"DE","latitude":"54.17578000","longitude":"10.06913000"},{"id":"24295","name":"Bredenbek","state_id":3005,"state_code":"SH","country_id":82,"country_code":"DE","latitude":"54.32247000","longitude":"9.87293000"},{"id":"24296","name":"Bredstedt","state_id":3005,"state_code":"SH","country_id":82,"country_code":"DE","latitude":"54.61868000","longitude":"8.96441000"},{"id":"24301","name":"Breiholz","state_id":3005,"state_code":"SH","country_id":82,"country_code":"DE","latitude":"54.20554000","longitude":"9.52371000"},{"id":"24309","name":"Breitenburg","state_id":3005,"state_code":"SH","country_id":82,"country_code":"DE","latitude":"53.90572000","longitude":"9.57041000"},{"id":"24310","name":"Breitenfelde","state_id":3005,"state_code":"SH","country_id":82,"country_code":"DE","latitude":"53.60592000","longitude":"10.63339000"},{"id":"24318","name":"Brekendorf","state_id":3005,"state_code":"SH","country_id":82,"country_code":"DE","latitude":"54.42120000","longitude":"9.63350000"},{"id":"24319","name":"Breklum","state_id":3005,"state_code":"SH","country_id":82,"country_code":"DE","latitude":"54.60000000","longitude":"8.98333000"},{"id":"24343","name":"Brokdorf","state_id":3005,"state_code":"SH","country_id":82,"country_code":"DE","latitude":"53.86380000","longitude":"9.32314000"},{"id":"24344","name":"Brokstedt","state_id":3005,"state_code":"SH","country_id":82,"country_code":"DE","latitude":"53.98333000","longitude":"9.81667000"},{"id":"24362","name":"Brunsb\u00fcttel","state_id":3005,"state_code":"SH","country_id":82,"country_code":"DE","latitude":"53.89504000","longitude":"9.10484000"},{"id":"24391","name":"Buchholz","state_id":3005,"state_code":"SH","country_id":82,"country_code":"DE","latitude":"53.98829000","longitude":"9.22362000"},{"id":"24407","name":"Burg","state_id":3005,"state_code":"SH","country_id":82,"country_code":"DE","latitude":"53.99708000","longitude":"9.25891000"},{"id":"24409","name":"Burg auf Fehmarn","state_id":3005,"state_code":"SH","country_id":82,"country_code":"DE","latitude":"54.43333000","longitude":"11.20000000"},{"id":"24447","name":"Busdorf","state_id":3005,"state_code":"SH","country_id":82,"country_code":"DE","latitude":"54.10345000","longitude":"10.08242000"},{"id":"24582","name":"Dahme","state_id":3005,"state_code":"SH","country_id":82,"country_code":"DE","latitude":"54.21667000","longitude":"11.08333000"},{"id":"24589","name":"Damp","state_id":3005,"state_code":"SH","country_id":82,"country_code":"DE","latitude":"54.58469000","longitude":"10.01785000"},{"id":"24593","name":"Dannewerk","state_id":3005,"state_code":"SH","country_id":82,"country_code":"DE","latitude":"54.48333000","longitude":"9.50000000"},{"id":"24600","name":"Dassendorf","state_id":3005,"state_code":"SH","country_id":82,"country_code":"DE","latitude":"53.49532000","longitude":"10.35987000"},{"id":"24790","name":"D\u00e4geling","state_id":3005,"state_code":"SH","country_id":82,"country_code":"DE","latitude":"53.88333000","longitude":"9.53333000"},{"id":"24791","name":"D\u00e4nischenhagen","state_id":3005,"state_code":"SH","country_id":82,"country_code":"DE","latitude":"54.42775000","longitude":"10.12596000"},{"id":"24622","name":"Delingsdorf","state_id":3005,"state_code":"SH","country_id":82,"country_code":"DE","latitude":"53.70000000","longitude":"10.25000000"},{"id":"24715","name":"Dobersdorf","state_id":3005,"state_code":"SH","country_id":82,"country_code":"DE","latitude":"54.31893000","longitude":"10.28011000"},{"id":"24723","name":"Dollerup","state_id":3005,"state_code":"SH","country_id":82,"country_code":"DE","latitude":"54.77798000","longitude":"9.67981000"},{"id":"24765","name":"Drelsdorf","state_id":3005,"state_code":"SH","country_id":82,"country_code":"DE","latitude":"54.60548000","longitude":"9.04449000"},{"id":"24849","name":"Eckernf\u00f6rde","state_id":3005,"state_code":"SH","country_id":82,"country_code":"DE","latitude":"54.46854000","longitude":"9.83824000"},{"id":"24851","name":"Eddelak","state_id":3005,"state_code":"SH","country_id":82,"country_code":"DE","latitude":"53.95000000","longitude":"9.15000000"},{"id":"24871","name":"Eggebek","state_id":3005,"state_code":"SH","country_id":82,"country_code":"DE","latitude":"54.61667000","longitude":"9.36667000"},{"id":"24948","name":"Ellerau","state_id":3005,"state_code":"SH","country_id":82,"country_code":"DE","latitude":"53.75000000","longitude":"9.91667000"},{"id":"24949","name":"Ellerbek","state_id":3005,"state_code":"SH","country_id":82,"country_code":"DE","latitude":"53.65817000","longitude":"9.86991000"},{"id":"24950","name":"Ellerhoop","state_id":3005,"state_code":"SH","country_id":82,"country_code":"DE","latitude":"53.72603000","longitude":"9.76933000"},{"id":"24958","name":"Elmenhorst","state_id":3005,"state_code":"SH","country_id":82,"country_code":"DE","latitude":"53.76667000","longitude":"10.26667000"},{"id":"24960","name":"Elmshorn","state_id":3005,"state_code":"SH","country_id":82,"country_code":"DE","latitude":"53.75396000","longitude":"9.65339000"},{"id":"24964","name":"Elsdorf-Westerm\u00fchlen","state_id":3005,"state_code":"SH","country_id":82,"country_code":"DE","latitude":"54.26667000","longitude":"9.51667000"},{"id":"24984","name":"Emkendorf","state_id":3005,"state_code":"SH","country_id":82,"country_code":"DE","latitude":"54.26667000","longitude":"9.85000000"},{"id":"24986","name":"Emmelsb\u00fcll-Horsb\u00fcll","state_id":3005,"state_code":"SH","country_id":82,"country_code":"DE","latitude":"54.81667000","longitude":"8.70000000"},{"id":"25036","name":"Erfde","state_id":3005,"state_code":"SH","country_id":82,"country_code":"DE","latitude":"54.30000000","longitude":"9.31667000"},{"id":"25077","name":"Escheburg","state_id":3005,"state_code":"SH","country_id":82,"country_code":"DE","latitude":"53.46667000","longitude":"10.31667000"},{"id":"25117","name":"Eutin","state_id":3005,"state_code":"SH","country_id":82,"country_code":"DE","latitude":"54.14054000","longitude":"10.60751000"},{"id":"25126","name":"Fahrdorf","state_id":3005,"state_code":"SH","country_id":82,"country_code":"DE","latitude":"54.50000000","longitude":"9.60000000"},{"id":"25128","name":"Fahrenkrug","state_id":3005,"state_code":"SH","country_id":82,"country_code":"DE","latitude":"53.95000000","longitude":"10.25000000"},{"id":"25148","name":"Fehmarn","state_id":3005,"state_code":"SH","country_id":82,"country_code":"DE","latitude":"54.43780000","longitude":"11.19352000"},{"id":"25154","name":"Felde","state_id":3005,"state_code":"SH","country_id":82,"country_code":"DE","latitude":"54.30000000","longitude":"9.93333000"},{"id":"25161","name":"Felm","state_id":3005,"state_code":"SH","country_id":82,"country_code":"DE","latitude":"54.41667000","longitude":"10.05000000"},{"id":"25187","name":"Fleckeby","state_id":3005,"state_code":"SH","country_id":82,"country_code":"DE","latitude":"54.48333000","longitude":"9.70000000"},{"id":"25189","name":"Flensburg","state_id":3005,"state_code":"SH","country_id":82,"country_code":"DE","latitude":"54.78431000","longitude":"9.43961000"},{"id":"25192","name":"Flintbek","state_id":3005,"state_code":"SH","country_id":82,"country_code":"DE","latitude":"54.25000000","longitude":"10.06667000"},{"id":"25202","name":"Fockbek","state_id":3005,"state_code":"SH","country_id":82,"country_code":"DE","latitude":"54.30000000","longitude":"9.60000000"},{"id":"25245","name":"Freienwill","state_id":3005,"state_code":"SH","country_id":82,"country_code":"DE","latitude":"54.72752000","longitude":"9.49414000"},{"id":"25291","name":"Friedrichskoog","state_id":3005,"state_code":"SH","country_id":82,"country_code":"DE","latitude":"54.01667000","longitude":"8.91667000"},{"id":"25293","name":"Friedrichstadt","state_id":3005,"state_code":"SH","country_id":82,"country_code":"DE","latitude":"54.37566000","longitude":"9.08672000"},{"id":"25365","name":"Garding","state_id":3005,"state_code":"SH","country_id":82,"country_code":"DE","latitude":"54.33056000","longitude":"8.78056000"},{"id":"25793","name":"G\u00fclzow","state_id":3005,"state_code":"SH","country_id":82,"country_code":"DE","latitude":"53.45000000","longitude":"10.50000000"},{"id":"25799","name":"G\u00fcster","state_id":3005,"state_code":"SH","country_id":82,"country_code":"DE","latitude":"53.53851000","longitude":"10.67607000"},{"id":"25390","name":"Geesthacht","state_id":3005,"state_code":"SH","country_id":82,"country_code":"DE","latitude":"53.43575000","longitude":"10.37790000"},{"id":"25418","name":"Gelting","state_id":3005,"state_code":"SH","country_id":82,"country_code":"DE","latitude":"54.75000000","longitude":"9.90000000"},{"id":"25476","name":"Gettorf","state_id":3005,"state_code":"SH","country_id":82,"country_code":"DE","latitude":"54.40000000","longitude":"9.98333000"},{"id":"25482","name":"Giekau","state_id":3005,"state_code":"SH","country_id":82,"country_code":"DE","latitude":"54.31667000","longitude":"10.51667000"},{"id":"25519","name":"Gl\u00fccksburg","state_id":3005,"state_code":"SH","country_id":82,"country_code":"DE","latitude":"54.83522000","longitude":"9.54853000"},{"id":"25520","name":"Gl\u00fcckstadt","state_id":3005,"state_code":"SH","country_id":82,"country_code":"DE","latitude":"53.78893000","longitude":"9.42576000"},{"id":"25513","name":"Glinde","state_id":3005,"state_code":"SH","country_id":82,"country_code":"DE","latitude":"53.54410000","longitude":"10.20048000"},{"id":"25524","name":"Gnutz","state_id":3005,"state_code":"SH","country_id":82,"country_code":"DE","latitude":"54.13333000","longitude":"9.81667000"},{"id":"25527","name":"Goel","state_id":3005,"state_code":"SH","country_id":82,"country_code":"DE","latitude":"54.28350000","longitude":"10.94036000"},{"id":"25731","name":"Gr\u00f6mitz","state_id":3005,"state_code":"SH","country_id":82,"country_code":"DE","latitude":"54.15000000","longitude":"10.96667000"},{"id":"25733","name":"Gr\u00f6nwohld","state_id":3005,"state_code":"SH","country_id":82,"country_code":"DE","latitude":"53.64162000","longitude":"10.40784000"},{"id":"25586","name":"Grebin","state_id":3005,"state_code":"SH","country_id":82,"country_code":"DE","latitude":"54.20000000","longitude":"10.50000000"},{"id":"25597","name":"Gremersdorf","state_id":3005,"state_code":"SH","country_id":82,"country_code":"DE","latitude":"54.33333000","longitude":"10.93333000"},{"id":"25622","name":"Gro\u00df Gr\u00f6nau","state_id":3005,"state_code":"SH","country_id":82,"country_code":"DE","latitude":"53.80000000","longitude":"10.75000000"},{"id":"25626","name":"Gro\u00df Kummerfeld","state_id":3005,"state_code":"SH","country_id":82,"country_code":"DE","latitude":"54.05000000","longitude":"10.08333000"},{"id":"25636","name":"Gro\u00df Rheide","state_id":3005,"state_code":"SH","country_id":82,"country_code":"DE","latitude":"54.44154000","longitude":"9.43508000"},{"id":"25641","name":"Gro\u00df Wittensee","state_id":3005,"state_code":"SH","country_id":82,"country_code":"DE","latitude":"54.40000000","longitude":"9.76667000"},{"id":"25661","name":"Gro\u00dfenaspe","state_id":3005,"state_code":"SH","country_id":82,"country_code":"DE","latitude":"53.98333000","longitude":"9.96667000"},{"id":"25667","name":"Gro\u00dfensee","state_id":3005,"state_code":"SH","country_id":82,"country_code":"DE","latitude":"53.61263000","longitude":"10.33961000"},{"id":"25670","name":"Gro\u00dfenwiehe","state_id":3005,"state_code":"SH","country_id":82,"country_code":"DE","latitude":"54.70000000","longitude":"9.25000000"},{"id":"25674","name":"Gro\u00dfhansdorf","state_id":3005,"state_code":"SH","country_id":82,"country_code":"DE","latitude":"53.66667000","longitude":"10.28333000"},{"id":"25709","name":"Gro\u00dfsolt","state_id":3005,"state_code":"SH","country_id":82,"country_code":"DE","latitude":"54.70000000","longitude":"9.51667000"},{"id":"25618","name":"Grossenbrode","state_id":3005,"state_code":"SH","country_id":82,"country_code":"DE","latitude":"54.38333000","longitude":"11.08333000"},{"id":"25717","name":"Grube","state_id":3005,"state_code":"SH","country_id":82,"country_code":"DE","latitude":"54.23333000","longitude":"11.03333000"},{"id":"25751","name":"Gudow","state_id":3005,"state_code":"SH","country_id":82,"country_code":"DE","latitude":"53.55556000","longitude":"10.77021000"},{"id":"25860","name":"Halstenbek","state_id":3005,"state_code":"SH","country_id":82,"country_code":"DE","latitude":"53.63333000","longitude":"9.85000000"},{"id":"25863","name":"Hamberge","state_id":3005,"state_code":"SH","country_id":82,"country_code":"DE","latitude":"53.83333000","longitude":"10.58333000"},{"id":"25871","name":"Hamdorf","state_id":3005,"state_code":"SH","country_id":82,"country_code":"DE","latitude":"54.22522000","longitude":"9.51866000"},{"id":"25881","name":"Hammoor","state_id":3005,"state_code":"SH","country_id":82,"country_code":"DE","latitude":"53.71378000","longitude":"10.32200000"},{"id":"25884","name":"Handewitt","state_id":3005,"state_code":"SH","country_id":82,"country_code":"DE","latitude":"54.76667000","longitude":"9.33333000"},{"id":"25886","name":"Hanerau-Hademarschen","state_id":3005,"state_code":"SH","country_id":82,"country_code":"DE","latitude":"54.13333000","longitude":"9.41667000"},{"id":"25905","name":"Harrislee","state_id":3005,"state_code":"SH","country_id":82,"country_code":"DE","latitude":"54.80000000","longitude":"9.38333000"},{"id":"25911","name":"Hartenholm","state_id":3005,"state_code":"SH","country_id":82,"country_code":"DE","latitude":"53.89856000","longitude":"10.05953000"},{"id":"25922","name":"Haselau","state_id":3005,"state_code":"SH","country_id":82,"country_code":"DE","latitude":"53.66181000","longitude":"9.62010000"},{"id":"25925","name":"Haseldorf","state_id":3005,"state_code":"SH","country_id":82,"country_code":"DE","latitude":"53.63780000","longitude":"9.59151000"},{"id":"25930","name":"Hasloh","state_id":3005,"state_code":"SH","country_id":82,"country_code":"DE","latitude":"53.69471000","longitude":"9.91682000"},{"id":"25942","name":"Hattstedt","state_id":3005,"state_code":"SH","country_id":82,"country_code":"DE","latitude":"54.53333000","longitude":"9.03333000"},{"id":"26341","name":"H\u00fcrup","state_id":3005,"state_code":"SH","country_id":82,"country_code":"DE","latitude":"54.75000000","longitude":"9.53333000"},{"id":"25980","name":"Heide","state_id":3005,"state_code":"SH","country_id":82,"country_code":"DE","latitude":"54.19579000","longitude":"9.09880000"},{"id":"25989","name":"Heidgraben","state_id":3005,"state_code":"SH","country_id":82,"country_code":"DE","latitude":"53.70787000","longitude":"9.68099000"},{"id":"25992","name":"Heikendorf","state_id":3005,"state_code":"SH","country_id":82,"country_code":"DE","latitude":"54.36667000","longitude":"10.20000000"},{"id":"25997","name":"Heiligenhafen","state_id":3005,"state_code":"SH","country_id":82,"country_code":"DE","latitude":"54.36964000","longitude":"10.98022000"},{"id":"26002","name":"Heiligenstedten","state_id":3005,"state_code":"SH","country_id":82,"country_code":"DE","latitude":"53.93264000","longitude":"9.47462000"},{"id":"26017","name":"Heist","state_id":3005,"state_code":"SH","country_id":82,"country_code":"DE","latitude":"53.65000000","longitude":"9.65000000"},{"id":"26023","name":"Helgoland","state_id":3005,"state_code":"SH","country_id":82,"country_code":"DE","latitude":"54.18143000","longitude":"7.88630000"},{"id":"26037","name":"Hemdingen","state_id":3005,"state_code":"SH","country_id":82,"country_code":"DE","latitude":"53.76667000","longitude":"9.83333000"},{"id":"26042","name":"Hemmingstedt","state_id":3005,"state_code":"SH","country_id":82,"country_code":"DE","latitude":"54.15000000","longitude":"9.06667000"},{"id":"26052","name":"Hennstedt","state_id":3005,"state_code":"SH","country_id":82,"country_code":"DE","latitude":"54.28333000","longitude":"9.16667000"},{"id":"26054","name":"Henstedt-Ulzburg","state_id":3005,"state_code":"SH","country_id":82,"country_code":"DE","latitude":"53.80500000","longitude":"9.97452000"},{"id":"26073","name":"Heringsdorf","state_id":3005,"state_code":"SH","country_id":82,"country_code":"DE","latitude":"54.30100000","longitude":"11.00658000"},{"id":"26100","name":"Herzhorn","state_id":3005,"state_code":"SH","country_id":82,"country_code":"DE","latitude":"53.78333000","longitude":"9.48333000"},{"id":"26109","name":"Hetlingen","state_id":3005,"state_code":"SH","country_id":82,"country_code":"DE","latitude":"53.60712000","longitude":"9.63718000"},{"id":"26171","name":"Hitzhusen","state_id":3005,"state_code":"SH","country_id":82,"country_code":"DE","latitude":"53.92397000","longitude":"9.85262000"},{"id":"26172","name":"Hochdonn","state_id":3005,"state_code":"SH","country_id":82,"country_code":"DE","latitude":"54.02663000","longitude":"9.27624000"},{"id":"26196","name":"Hohenaspe","state_id":3005,"state_code":"SH","country_id":82,"country_code":"DE","latitude":"53.98898000","longitude":"9.52774000"},{"id":"26203","name":"Hohenfelde","state_id":3005,"state_code":"SH","country_id":82,"country_code":"DE","latitude":"54.36667000","longitude":"10.50000000"},{"id":"26211","name":"Hohenlockstedt","state_id":3005,"state_code":"SH","country_id":82,"country_code":"DE","latitude":"53.96667000","longitude":"9.61667000"},{"id":"26222","name":"Hohenwestedt","state_id":3005,"state_code":"SH","country_id":82,"country_code":"DE","latitude":"54.08886000","longitude":"9.65359000"},{"id":"26223","name":"Hohn","state_id":3005,"state_code":"SH","country_id":82,"country_code":"DE","latitude":"54.30000000","longitude":"9.50000000"},{"id":"26227","name":"Hoisdorf","state_id":3005,"state_code":"SH","country_id":82,"country_code":"DE","latitude":"53.65000000","longitude":"10.31667000"},{"id":"26235","name":"Hollingstedt","state_id":3005,"state_code":"SH","country_id":82,"country_code":"DE","latitude":"54.45934000","longitude":"9.33695000"},{"id":"26237","name":"Holm","state_id":3005,"state_code":"SH","country_id":82,"country_code":"DE","latitude":"53.61667000","longitude":"9.66667000"},{"id":"26239","name":"Holtsee","state_id":3005,"state_code":"SH","country_id":82,"country_code":"DE","latitude":"54.40000000","longitude":"9.85000000"},{"id":"26272","name":"Horst","state_id":3005,"state_code":"SH","country_id":82,"country_code":"DE","latitude":"53.81195000","longitude":"9.62307000"},{"id":"26292","name":"Husum","state_id":3005,"state_code":"SH","country_id":82,"country_code":"DE","latitude":"54.48580000","longitude":"9.05239000"},{"id":"26422","name":"Itzehoe","state_id":3005,"state_code":"SH","country_id":82,"country_code":"DE","latitude":"53.92099000","longitude":"9.51529000"},{"id":"26423","name":"Itzstedt","state_id":3005,"state_code":"SH","country_id":82,"country_code":"DE","latitude":"53.80800000","longitude":"10.15797000"},{"id":"26431","name":"Jarplund-Weding","state_id":3005,"state_code":"SH","country_id":82,"country_code":"DE","latitude":"54.73714000","longitude":"9.41813000"},{"id":"26469","name":"J\u00fcbek","state_id":3005,"state_code":"SH","country_id":82,"country_code":"DE","latitude":"54.55709000","longitude":"9.39773000"},{"id":"26438","name":"Jerrishoe","state_id":3005,"state_code":"SH","country_id":82,"country_code":"DE","latitude":"54.65670000","longitude":"9.36918000"},{"id":"26439","name":"Jersbek","state_id":3005,"state_code":"SH","country_id":82,"country_code":"DE","latitude":"53.73333000","longitude":"10.21667000"},{"id":"26449","name":"Jevenstedt","state_id":3005,"state_code":"SH","country_id":82,"country_code":"DE","latitude":"54.23333000","longitude":"9.66667000"},{"id":"26496","name":"Kaltenkirchen","state_id":3005,"state_code":"SH","country_id":82,"country_code":"DE","latitude":"53.83292000","longitude":"9.95810000"},{"id":"26509","name":"Kappeln","state_id":3005,"state_code":"SH","country_id":82,"country_code":"DE","latitude":"54.66122000","longitude":"9.93130000"},{"id":"26530","name":"Kasseedorf","state_id":3005,"state_code":"SH","country_id":82,"country_code":"DE","latitude":"54.16667000","longitude":"10.71667000"},{"id":"26534","name":"Kastorf","state_id":3005,"state_code":"SH","country_id":82,"country_code":"DE","latitude":"53.74569000","longitude":"10.56723000"},{"id":"26548","name":"Kayhude","state_id":3005,"state_code":"SH","country_id":82,"country_code":"DE","latitude":"53.75629000","longitude":"10.13232000"},{"id":"26817","name":"K\u00f6lln-Reisiek","state_id":3005,"state_code":"SH","country_id":82,"country_code":"DE","latitude":"53.75748000","longitude":"9.69772000"},{"id":"26553","name":"Keitum","state_id":3005,"state_code":"SH","country_id":82,"country_code":"DE","latitude":"54.89333000","longitude":"8.37083000"},{"id":"26559","name":"Kellenhusen","state_id":3005,"state_code":"SH","country_id":82,"country_code":"DE","latitude":"54.19338000","longitude":"11.06165000"},{"id":"26560","name":"Kellinghusen","state_id":3005,"state_code":"SH","country_id":82,"country_code":"DE","latitude":"53.95202000","longitude":"9.71959000"},{"id":"26581","name":"Kiebitzreihe","state_id":3005,"state_code":"SH","country_id":82,"country_code":"DE","latitude":"53.78333000","longitude":"9.61667000"},{"id":"26584","name":"Kiel","state_id":3005,"state_code":"SH","country_id":82,"country_code":"DE","latitude":"54.32133000","longitude":"10.13489000"},{"id":"26647","name":"Kisdorf","state_id":3005,"state_code":"SH","country_id":82,"country_code":"DE","latitude":"53.81667000","longitude":"10.01667000"},{"id":"26656","name":"Klausdorf","state_id":3005,"state_code":"SH","country_id":82,"country_code":"DE","latitude":"54.30899000","longitude":"10.21372000"},{"id":"26660","name":"Klein Nordende","state_id":3005,"state_code":"SH","country_id":82,"country_code":"DE","latitude":"53.72219000","longitude":"9.65424000"},{"id":"26661","name":"Klein Offenseth-Sparrieshoop","state_id":3005,"state_code":"SH","country_id":82,"country_code":"DE","latitude":"53.79748000","longitude":"9.68653000"},{"id":"26664","name":"Klein R\u00f6nnau","state_id":3005,"state_code":"SH","country_id":82,"country_code":"DE","latitude":"53.96667000","longitude":"10.31667000"},{"id":"26714","name":"Kollmar","state_id":3005,"state_code":"SH","country_id":82,"country_code":"DE","latitude":"53.72936000","longitude":"9.47880000"},{"id":"26727","name":"Kosel","state_id":3005,"state_code":"SH","country_id":82,"country_code":"DE","latitude":"54.50580000","longitude":"9.75653000"},{"id":"26784","name":"Kr\u00f6ppelshagen-Fahrendorf","state_id":3005,"state_code":"SH","country_id":82,"country_code":"DE","latitude":"53.48979000","longitude":"10.31697000"},{"id":"26750","name":"Krempe","state_id":3005,"state_code":"SH","country_id":82,"country_code":"DE","latitude":"53.83694000","longitude":"9.48831000"},{"id":"26751","name":"Kremperheide","state_id":3005,"state_code":"SH","country_id":82,"country_code":"DE","latitude":"53.88721000","longitude":"9.47809000"},{"id":"26772","name":"Kronshagen","state_id":3005,"state_code":"SH","country_id":82,"country_code":"DE","latitude":"54.33333000","longitude":"10.08333000"},{"id":"26773","name":"Kropp","state_id":3005,"state_code":"SH","country_id":82,"country_code":"DE","latitude":"54.41667000","longitude":"9.51667000"},{"id":"26780","name":"Krummesse","state_id":3005,"state_code":"SH","country_id":82,"country_code":"DE","latitude":"53.78333000","longitude":"10.65000000"},{"id":"26790","name":"Kuddew\u00f6rde","state_id":3005,"state_code":"SH","country_id":82,"country_code":"DE","latitude":"53.58333000","longitude":"10.40000000"},{"id":"26796","name":"Kummerfeld","state_id":3005,"state_code":"SH","country_id":82,"country_code":"DE","latitude":"53.69262000","longitude":"9.79099000"},{"id":"26866","name":"Laboe","state_id":3005,"state_code":"SH","country_id":82,"country_code":"DE","latitude":"54.40000000","longitude":"10.21667000"},{"id":"26871","name":"Ladelund","state_id":3005,"state_code":"SH","country_id":82,"country_code":"DE","latitude":"54.84084000","longitude":"9.02135000"},{"id":"26899","name":"Langballig","state_id":3005,"state_code":"SH","country_id":82,"country_code":"DE","latitude":"54.80000000","longitude":"9.63333000"},{"id":"26921","name":"Langenhorn","state_id":3005,"state_code":"SH","country_id":82,"country_code":"DE","latitude":"54.66667000","longitude":"8.91667000"},{"id":"26941","name":"Langstedt","state_id":3005,"state_code":"SH","country_id":82,"country_code":"DE","latitude":"54.61667000","longitude":"9.38333000"},{"id":"26944","name":"Langwedel","state_id":3005,"state_code":"SH","country_id":82,"country_code":"DE","latitude":"54.21033000","longitude":"9.92761000"},{"id":"26951","name":"Lasbek","state_id":3005,"state_code":"SH","country_id":82,"country_code":"DE","latitude":"53.73333000","longitude":"10.36667000"},{"id":"26968","name":"Lauenburg","state_id":3005,"state_code":"SH","country_id":82,"country_code":"DE","latitude":"53.37199000","longitude":"10.55654000"},{"id":"27183","name":"L\u00e4gerdorf","state_id":3005,"state_code":"SH","country_id":82,"country_code":"DE","latitude":"53.88333000","longitude":"9.58333000"},{"id":"27205","name":"L\u00fcbeck","state_id":3005,"state_code":"SH","country_id":82,"country_code":"DE","latitude":"53.86893000","longitude":"10.68729000"},{"id":"27221","name":"L\u00fcrschau","state_id":3005,"state_code":"SH","country_id":82,"country_code":"DE","latitude":"54.55000000","longitude":"9.50000000"},{"id":"27222","name":"L\u00fctjenburg","state_id":3005,"state_code":"SH","country_id":82,"country_code":"DE","latitude":"54.29188000","longitude":"10.58945000"},{"id":"27223","name":"L\u00fctjensee","state_id":3005,"state_code":"SH","country_id":82,"country_code":"DE","latitude":"53.65000000","longitude":"10.36667000"},{"id":"26997","name":"Leck","state_id":3005,"state_code":"SH","country_id":82,"country_code":"DE","latitude":"54.76667000","longitude":"8.98333000"},{"id":"27002","name":"Leezen","state_id":3005,"state_code":"SH","country_id":82,"country_code":"DE","latitude":"53.86667000","longitude":"10.25000000"},{"id":"27006","name":"Lehe","state_id":3005,"state_code":"SH","country_id":82,"country_code":"DE","latitude":"54.34143000","longitude":"9.02374000"},{"id":"27009","name":"Lehmkuhlen","state_id":3005,"state_code":"SH","country_id":82,"country_code":"DE","latitude":"54.23333000","longitude":"10.36667000"},{"id":"27048","name":"Lensahn","state_id":3005,"state_code":"SH","country_id":82,"country_code":"DE","latitude":"54.21652000","longitude":"10.88326000"},{"id":"27049","name":"Lentf\u00f6hrden","state_id":3005,"state_code":"SH","country_id":82,"country_code":"DE","latitude":"53.86667000","longitude":"9.88333000"},{"id":"27101","name":"Linau","state_id":3005,"state_code":"SH","country_id":82,"country_code":"DE","latitude":"53.64446000","longitude":"10.46853000"},{"id":"27104","name":"Lindau","state_id":3005,"state_code":"SH","country_id":82,"country_code":"DE","latitude":"54.38333000","longitude":"9.90000000"},{"id":"27109","name":"Lindewitt","state_id":3005,"state_code":"SH","country_id":82,"country_code":"DE","latitude":"54.70000000","longitude":"9.20000000"},{"id":"27122","name":"List","state_id":3005,"state_code":"SH","country_id":82,"country_code":"DE","latitude":"55.01917000","longitude":"8.43132000"},{"id":"27131","name":"Lohe-Rickelshof","state_id":3005,"state_code":"SH","country_id":82,"country_code":"DE","latitude":"54.18803000","longitude":"9.07066000"},{"id":"27174","name":"Lunden","state_id":3005,"state_code":"SH","country_id":82,"country_code":"DE","latitude":"54.33131000","longitude":"9.02523000"},{"id":"27252","name":"Malente","state_id":3005,"state_code":"SH","country_id":82,"country_code":"DE","latitude":"54.17226000","longitude":"10.55968000"},{"id":"27327","name":"Martensrade","state_id":3005,"state_code":"SH","country_id":82,"country_code":"DE","latitude":"54.28333000","longitude":"10.40000000"},{"id":"27564","name":"M\u00f6lln","state_id":3005,"state_code":"SH","country_id":82,"country_code":"DE","latitude":"53.61702000","longitude":"10.68742000"},{"id":"27574","name":"M\u00f6nkeberg","state_id":3005,"state_code":"SH","country_id":82,"country_code":"DE","latitude":"54.35000000","longitude":"10.18333000"},{"id":"27624","name":"M\u00fcnsterdorf","state_id":3005,"state_code":"SH","country_id":82,"country_code":"DE","latitude":"53.90232000","longitude":"9.54123000"},{"id":"27392","name":"Meldorf","state_id":3005,"state_code":"SH","country_id":82,"country_code":"DE","latitude":"54.09182000","longitude":"9.06870000"},{"id":"27399","name":"Melsdorf","state_id":3005,"state_code":"SH","country_id":82,"country_code":"DE","latitude":"54.31667000","longitude":"10.03333000"},{"id":"27460","name":"Mielkendorf","state_id":3005,"state_code":"SH","country_id":82,"country_code":"DE","latitude":"54.28333000","longitude":"10.05000000"},{"id":"27466","name":"Mildstedt","state_id":3005,"state_code":"SH","country_id":82,"country_code":"DE","latitude":"54.46667000","longitude":"9.10000000"},{"id":"27502","name":"Mohrkirch","state_id":3005,"state_code":"SH","country_id":82,"country_code":"DE","latitude":"54.66667000","longitude":"9.71667000"},{"id":"27505","name":"Molfsee","state_id":3005,"state_code":"SH","country_id":82,"country_code":"DE","latitude":"54.26667000","longitude":"10.06667000"},{"id":"27516","name":"Moorrege","state_id":3005,"state_code":"SH","country_id":82,"country_code":"DE","latitude":"53.66667000","longitude":"9.66667000"},{"id":"27541","name":"Munkbrarup","state_id":3005,"state_code":"SH","country_id":82,"country_code":"DE","latitude":"54.80000000","longitude":"9.56667000"},{"id":"27636","name":"Nahe","state_id":3005,"state_code":"SH","country_id":82,"country_code":"DE","latitude":"53.80000000","longitude":"10.13333000"},{"id":"27950","name":"N\u00fcbbel","state_id":3005,"state_code":"SH","country_id":82,"country_code":"DE","latitude":"54.26667000","longitude":"9.61667000"},{"id":"27956","name":"N\u00fctzen","state_id":3005,"state_code":"SH","country_id":82,"country_code":"DE","latitude":"53.86667000","longitude":"9.91667000"},{"id":"27667","name":"Negernb\u00f6tel","state_id":3005,"state_code":"SH","country_id":82,"country_code":"DE","latitude":"53.98333000","longitude":"10.25000000"},{"id":"27697","name":"Neuberend","state_id":3005,"state_code":"SH","country_id":82,"country_code":"DE","latitude":"54.55000000","longitude":"9.53333000"},{"id":"27713","name":"Neudorf-Bornstein","state_id":3005,"state_code":"SH","country_id":82,"country_code":"DE","latitude":"54.43333000","longitude":"9.95000000"},{"id":"27760","name":"Neukirchen","state_id":3005,"state_code":"SH","country_id":82,"country_code":"DE","latitude":"54.21465000","longitude":"10.55381000"},{"id":"27774","name":"Neum\u00fcnster","state_id":3005,"state_code":"SH","country_id":82,"country_code":"DE","latitude":"54.07477000","longitude":"9.98195000"},{"id":"27805","name":"Neustadt in Holstein","state_id":3005,"state_code":"SH","country_id":82,"country_code":"DE","latitude":"54.10707000","longitude":"10.81450000"},{"id":"27815","name":"Neuwittenbek","state_id":3005,"state_code":"SH","country_id":82,"country_code":"DE","latitude":"54.36667000","longitude":"10.01667000"},{"id":"27824","name":"Nieb\u00fcll","state_id":3005,"state_code":"SH","country_id":82,"country_code":"DE","latitude":"54.78663000","longitude":"8.82854000"},{"id":"27900","name":"Nindorf","state_id":3005,"state_code":"SH","country_id":82,"country_code":"DE","latitude":"54.08333000","longitude":"9.11667000"},{"id":"27916","name":"Norderstedt","state_id":3005,"state_code":"SH","country_id":82,"country_code":"DE","latitude":"53.68590000","longitude":"9.98041000"},{"id":"27918","name":"Nordhastedt","state_id":3005,"state_code":"SH","country_id":82,"country_code":"DE","latitude":"54.16667000","longitude":"9.18333000"},{"id":"27932","name":"Nortorf","state_id":3005,"state_code":"SH","country_id":82,"country_code":"DE","latitude":"54.16738000","longitude":"9.85437000"},{"id":"27941","name":"Nusse","state_id":3005,"state_code":"SH","country_id":82,"country_code":"DE","latitude":"53.65654000","longitude":"10.58391000"},{"id":"28077","name":"Oelixdorf","state_id":3005,"state_code":"SH","country_id":82,"country_code":"DE","latitude":"53.92738000","longitude":"9.56383000"},{"id":"28084","name":"Oeversee","state_id":3005,"state_code":"SH","country_id":82,"country_code":"DE","latitude":"54.70000000","longitude":"9.43333000"},{"id":"28106","name":"Oldenburg in Holstein","state_id":3005,"state_code":"SH","country_id":82,"country_code":"DE","latitude":"54.29576000","longitude":"10.90156000"},{"id":"28107","name":"Oldendorf","state_id":3005,"state_code":"SH","country_id":82,"country_code":"DE","latitude":"53.95341000","longitude":"9.45858000"},{"id":"28109","name":"Oldenswort","state_id":3005,"state_code":"SH","country_id":82,"country_code":"DE","latitude":"54.37243000","longitude":"8.93996000"},{"id":"28138","name":"Osdorf","state_id":3005,"state_code":"SH","country_id":82,"country_code":"DE","latitude":"54.43333000","longitude":"10.01667000"},{"id":"28146","name":"Ostenfeld","state_id":3005,"state_code":"SH","country_id":82,"country_code":"DE","latitude":"54.46400000","longitude":"9.23430000"},{"id":"28157","name":"Osterr\u00f6nfeld","state_id":3005,"state_code":"SH","country_id":82,"country_code":"DE","latitude":"54.29013000","longitude":"9.69900000"},{"id":"28176","name":"Oststeinbek","state_id":3005,"state_code":"SH","country_id":82,"country_code":"DE","latitude":"53.54321000","longitude":"10.16939000"},{"id":"28203","name":"Owschlag","state_id":3005,"state_code":"SH","country_id":82,"country_code":"DE","latitude":"54.39336000","longitude":"9.59243000"},{"id":"28208","name":"Padenstedt","state_id":3005,"state_code":"SH","country_id":82,"country_code":"DE","latitude":"54.05000000","longitude":"9.91667000"},{"id":"28210","name":"Pahlen","state_id":3005,"state_code":"SH","country_id":82,"country_code":"DE","latitude":"54.26667000","longitude":"9.30000000"},{"id":"28215","name":"Panker","state_id":3005,"state_code":"SH","country_id":82,"country_code":"DE","latitude":"54.33333000","longitude":"10.56667000"},{"id":"28416","name":"P\u00f6litz","state_id":3005,"state_code":"SH","country_id":82,"country_code":"DE","latitude":"53.77303000","longitude":"10.38276000"},{"id":"28248","name":"Pellworm","state_id":3005,"state_code":"SH","country_id":82,"country_code":"DE","latitude":"54.51610000","longitude":"8.64512000"},{"id":"28304","name":"Pinneberg","state_id":3005,"state_code":"SH","country_id":82,"country_code":"DE","latitude":"53.66732000","longitude":"9.78936000"},{"id":"28331","name":"Pl\u00f6n","state_id":3005,"state_code":"SH","country_id":82,"country_code":"DE","latitude":"54.16241000","longitude":"10.42333000"},{"id":"28371","name":"Preetz","state_id":3005,"state_code":"SH","country_id":82,"country_code":"DE","latitude":"54.23540000","longitude":"10.27795000"},{"id":"28389","name":"Prisdorf","state_id":3005,"state_code":"SH","country_id":82,"country_code":"DE","latitude":"53.68333000","longitude":"9.75000000"},{"id":"28393","name":"Probsteierhagen","state_id":3005,"state_code":"SH","country_id":82,"country_code":"DE","latitude":"54.36153000","longitude":"10.28772000"},{"id":"28396","name":"Pronstorf","state_id":3005,"state_code":"SH","country_id":82,"country_code":"DE","latitude":"53.95000000","longitude":"10.46667000"},{"id":"28425","name":"Quarnbek","state_id":3005,"state_code":"SH","country_id":82,"country_code":"DE","latitude":"54.33333000","longitude":"9.98333000"},{"id":"28431","name":"Quern","state_id":3005,"state_code":"SH","country_id":82,"country_code":"DE","latitude":"54.75000000","longitude":"9.71667000"},{"id":"28432","name":"Quickborn","state_id":3005,"state_code":"SH","country_id":82,"country_code":"DE","latitude":"53.72831000","longitude":"9.90934000"},{"id":"28454","name":"Raisdorf","state_id":3005,"state_code":"SH","country_id":82,"country_code":"DE","latitude":"54.28127000","longitude":"10.24915000"},{"id":"28476","name":"Rantrum","state_id":3005,"state_code":"SH","country_id":82,"country_code":"DE","latitude":"54.44062000","longitude":"9.12872000"},{"id":"28483","name":"Ratekau","state_id":3005,"state_code":"SH","country_id":82,"country_code":"DE","latitude":"53.95000000","longitude":"10.73333000"},{"id":"28491","name":"Ratzeburg","state_id":3005,"state_code":"SH","country_id":82,"country_code":"DE","latitude":"53.69965000","longitude":"10.77256000"},{"id":"28808","name":"R\u00fcmpel","state_id":3005,"state_code":"SH","country_id":82,"country_code":"DE","latitude":"53.78333000","longitude":"10.35000000"},{"id":"28555","name":"Reinbek","state_id":3005,"state_code":"SH","country_id":82,"country_code":"DE","latitude":"53.51703000","longitude":"10.24880000"},{"id":"28557","name":"Reinfeld","state_id":3005,"state_code":"SH","country_id":82,"country_code":"DE","latitude":"53.83184000","longitude":"10.49126000"},{"id":"28571","name":"Rellingen","state_id":3005,"state_code":"SH","country_id":82,"country_code":"DE","latitude":"53.65000000","longitude":"9.81667000"},{"id":"28579","name":"Rendsburg","state_id":3005,"state_code":"SH","country_id":82,"country_code":"DE","latitude":"54.30663000","longitude":"9.66313000"},{"id":"28624","name":"Rickert","state_id":3005,"state_code":"SH","country_id":82,"country_code":"DE","latitude":"54.33333000","longitude":"9.66667000"},{"id":"28625","name":"Rickling","state_id":3005,"state_code":"SH","country_id":82,"country_code":"DE","latitude":"54.01667000","longitude":"10.16667000"},{"id":"28644","name":"Riepsdorf","state_id":3005,"state_code":"SH","country_id":82,"country_code":"DE","latitude":"54.22611000","longitude":"10.97242000"},{"id":"28647","name":"Rieseby","state_id":3005,"state_code":"SH","country_id":82,"country_code":"DE","latitude":"54.54140000","longitude":"9.81689000"},{"id":"28666","name":"Risum-Lindholm","state_id":3005,"state_code":"SH","country_id":82,"country_code":"DE","latitude":"54.75802000","longitude":"8.86906000"},{"id":"28760","name":"Ruhwinkel","state_id":3005,"state_code":"SH","country_id":82,"country_code":"DE","latitude":"54.10000000","longitude":"10.21667000"},{"id":"28855","name":"Sandesneben","state_id":3005,"state_code":"SH","country_id":82,"country_code":"DE","latitude":"53.68333000","longitude":"10.50000000"},{"id":"28859","name":"Sankelmark","state_id":3005,"state_code":"SH","country_id":82,"country_code":"DE","latitude":"54.71803000","longitude":"9.42344000"},{"id":"28876","name":"Sankt Margarethen","state_id":3005,"state_code":"SH","country_id":82,"country_code":"DE","latitude":"53.89199000","longitude":"9.25301000"},{"id":"28878","name":"Sankt Michaelisdonn","state_id":3005,"state_code":"SH","country_id":82,"country_code":"DE","latitude":"53.98333000","longitude":"9.11667000"},{"id":"28881","name":"Sankt Peter-Ording","state_id":3005,"state_code":"SH","country_id":82,"country_code":"DE","latitude":"54.30363000","longitude":"8.64138000"},{"id":"28892","name":"Satrup","state_id":3005,"state_code":"SH","country_id":82,"country_code":"DE","latitude":"54.69237000","longitude":"9.60549000"},{"id":"29496","name":"S\u00f6rup","state_id":3005,"state_code":"SH","country_id":82,"country_code":"DE","latitude":"54.71667000","longitude":"9.66667000"},{"id":"29497","name":"S\u00fcderbrarup","state_id":3005,"state_code":"SH","country_id":82,"country_code":"DE","latitude":"54.63333000","longitude":"9.78333000"},{"id":"29499","name":"S\u00fcderl\u00fcgum","state_id":3005,"state_code":"SH","country_id":82,"country_code":"DE","latitude":"54.87391000","longitude":"8.91111000"},{"id":"29500","name":"S\u00fcderstapel","state_id":3005,"state_code":"SH","country_id":82,"country_code":"DE","latitude":"54.34967000","longitude":"9.21907000"},{"id":"29502","name":"S\u00fclfeld","state_id":3005,"state_code":"SH","country_id":82,"country_code":"DE","latitude":"53.80000000","longitude":"10.23333000"},{"id":"29507","name":"S\u00fcsel","state_id":3005,"state_code":"SH","country_id":82,"country_code":"DE","latitude":"54.08135000","longitude":"10.70172000"},{"id":"28902","name":"Schaalby","state_id":3005,"state_code":"SH","country_id":82,"country_code":"DE","latitude":"54.55000000","longitude":"9.63333000"},{"id":"28903","name":"Schacht-Audorf","state_id":3005,"state_code":"SH","country_id":82,"country_code":"DE","latitude":"54.31282000","longitude":"9.71586000"},{"id":"28904","name":"Schafflund","state_id":3005,"state_code":"SH","country_id":82,"country_code":"DE","latitude":"54.75845000","longitude":"9.18329000"},{"id":"28910","name":"Scharbeutz","state_id":3005,"state_code":"SH","country_id":82,"country_code":"DE","latitude":"54.03333000","longitude":"10.75000000"},{"id":"28913","name":"Schashagen","state_id":3005,"state_code":"SH","country_id":82,"country_code":"DE","latitude":"54.13333000","longitude":"10.88333000"},{"id":"29111","name":"Sch\u00f6nberg","state_id":3005,"state_code":"SH","country_id":82,"country_code":"DE","latitude":"53.68319000","longitude":"10.42671000"},{"id":"29128","name":"Sch\u00f6nkirchen","state_id":3005,"state_code":"SH","country_id":82,"country_code":"DE","latitude":"54.33333000","longitude":"10.23333000"},{"id":"29134","name":"Sch\u00f6nwalde am Bungsberg","state_id":3005,"state_code":"SH","country_id":82,"country_code":"DE","latitude":"54.18333000","longitude":"10.75000000"},{"id":"29137","name":"Sch\u00fclp","state_id":3005,"state_code":"SH","country_id":82,"country_code":"DE","latitude":"54.25896000","longitude":"9.63034000"},{"id":"28927","name":"Schellhorn","state_id":3005,"state_code":"SH","country_id":82,"country_code":"DE","latitude":"54.22952000","longitude":"10.29402000"},{"id":"28928","name":"Schenefeld","state_id":3005,"state_code":"SH","country_id":82,"country_code":"DE","latitude":"54.05000000","longitude":"9.48333000"},{"id":"28972","name":"Schleswig","state_id":3005,"state_code":"SH","country_id":82,"country_code":"DE","latitude":"54.52156000","longitude":"9.55860000"},{"id":"28986","name":"Schmalfeld","state_id":3005,"state_code":"SH","country_id":82,"country_code":"DE","latitude":"53.88333000","longitude":"9.96667000"},{"id":"29011","name":"Schob\u00fcll","state_id":3005,"state_code":"SH","country_id":82,"country_code":"DE","latitude":"54.50920000","longitude":"9.00621000"},{"id":"29034","name":"Schuby","state_id":3005,"state_code":"SH","country_id":82,"country_code":"DE","latitude":"54.51667000","longitude":"9.48333000"},{"id":"29044","name":"Schwabstedt","state_id":3005,"state_code":"SH","country_id":82,"country_code":"DE","latitude":"54.39705000","longitude":"9.18646000"},{"id":"29069","name":"Schwarzenbek","state_id":3005,"state_code":"SH","country_id":82,"country_code":"DE","latitude":"53.50303000","longitude":"10.48055000"},{"id":"29149","name":"Seedorf","state_id":3005,"state_code":"SH","country_id":82,"country_code":"DE","latitude":"54.05000000","longitude":"10.41667000"},{"id":"29178","name":"Selent","state_id":3005,"state_code":"SH","country_id":82,"country_code":"DE","latitude":"54.28893000","longitude":"10.42702000"},{"id":"29197","name":"Seth","state_id":3005,"state_code":"SH","country_id":82,"country_code":"DE","latitude":"53.84718000","longitude":"10.17421000"},{"id":"29216","name":"Siek","state_id":3005,"state_code":"SH","country_id":82,"country_code":"DE","latitude":"53.63333000","longitude":"10.30000000"},{"id":"29219","name":"Sierksdorf","state_id":3005,"state_code":"SH","country_id":82,"country_code":"DE","latitude":"54.06667000","longitude":"10.76667000"},{"id":"29223","name":"Sieversh\u00fctten","state_id":3005,"state_code":"SH","country_id":82,"country_code":"DE","latitude":"53.84238000","longitude":"10.11216000"},{"id":"29224","name":"Sieverstedt","state_id":3005,"state_code":"SH","country_id":82,"country_code":"DE","latitude":"54.64145000","longitude":"9.46949000"},{"id":"29229","name":"Silberstedt","state_id":3005,"state_code":"SH","country_id":82,"country_code":"DE","latitude":"54.51667000","longitude":"9.38333000"},{"id":"29332","name":"Stadum","state_id":3005,"state_code":"SH","country_id":82,"country_code":"DE","latitude":"54.73333000","longitude":"9.05000000"},{"id":"29340","name":"Stapelfeld","state_id":3005,"state_code":"SH","country_id":82,"country_code":"DE","latitude":"53.60000000","longitude":"10.21667000"},{"id":"29367","name":"Steinberg","state_id":3005,"state_code":"SH","country_id":82,"country_code":"DE","latitude":"54.76667000","longitude":"9.78333000"},{"id":"29368","name":"Steinbergkirche","state_id":3005,"state_code":"SH","country_id":82,"country_code":"DE","latitude":"54.75463000","longitude":"9.76069000"},{"id":"29403","name":"Sterup","state_id":3005,"state_code":"SH","country_id":82,"country_code":"DE","latitude":"54.72650000","longitude":"9.73572000"},{"id":"29411","name":"Stockelsdorf","state_id":3005,"state_code":"SH","country_id":82,"country_code":"DE","latitude":"53.89220000","longitude":"10.64713000"},{"id":"29418","name":"Stolpe","state_id":3005,"state_code":"SH","country_id":82,"country_code":"DE","latitude":"54.13333000","longitude":"10.21667000"},{"id":"29426","name":"Strande","state_id":3005,"state_code":"SH","country_id":82,"country_code":"DE","latitude":"54.43333000","longitude":"10.16667000"},{"id":"29439","name":"Struvenh\u00fctten","state_id":3005,"state_code":"SH","country_id":82,"country_code":"DE","latitude":"53.86667000","longitude":"10.05000000"},{"id":"29487","name":"Sylt-Ost","state_id":3005,"state_code":"SH","country_id":82,"country_code":"DE","latitude":"54.86110000","longitude":"8.41141000"},{"id":"29519","name":"Tangstedt","state_id":3005,"state_code":"SH","country_id":82,"country_code":"DE","latitude":"53.73333000","longitude":"10.08333000"},{"id":"29531","name":"Tarp","state_id":3005,"state_code":"SH","country_id":82,"country_code":"DE","latitude":"54.66667000","longitude":"9.40000000"},{"id":"29532","name":"Tating","state_id":3005,"state_code":"SH","country_id":82,"country_code":"DE","latitude":"54.32607000","longitude":"8.70802000"},{"id":"29702","name":"T\u00f6nning","state_id":3005,"state_code":"SH","country_id":82,"country_code":"DE","latitude":"54.31879000","longitude":"8.94234000"},{"id":"29710","name":"T\u00fcttendorf","state_id":3005,"state_code":"SH","country_id":82,"country_code":"DE","latitude":"54.40000000","longitude":"10.00000000"},{"id":"29553","name":"Tellingstedt","state_id":3005,"state_code":"SH","country_id":82,"country_code":"DE","latitude":"54.21667000","longitude":"9.28333000"},{"id":"29613","name":"Timmaspe","state_id":3005,"state_code":"SH","country_id":82,"country_code":"DE","latitude":"54.13967000","longitude":"9.89430000"},{"id":"29614","name":"Timmendorfer Strand","state_id":3005,"state_code":"SH","country_id":82,"country_code":"DE","latitude":"53.99530000","longitude":"10.77676000"},{"id":"29616","name":"Tinnum","state_id":3005,"state_code":"SH","country_id":82,"country_code":"DE","latitude":"54.89932000","longitude":"8.33476000"},{"id":"29623","name":"Todenb\u00fcttel","state_id":3005,"state_code":"SH","country_id":82,"country_code":"DE","latitude":"54.13333000","longitude":"9.55000000"},{"id":"29624","name":"Todendorf","state_id":3005,"state_code":"SH","country_id":82,"country_code":"DE","latitude":"53.69461000","longitude":"10.34781000"},{"id":"29625","name":"Todesfelde","state_id":3005,"state_code":"SH","country_id":82,"country_code":"DE","latitude":"53.90000000","longitude":"10.18333000"},{"id":"29629","name":"Tolk","state_id":3005,"state_code":"SH","country_id":82,"country_code":"DE","latitude":"54.57987000","longitude":"9.63844000"},{"id":"29634","name":"Tornesch","state_id":3005,"state_code":"SH","country_id":82,"country_code":"DE","latitude":"53.70000000","longitude":"9.71667000"},{"id":"29640","name":"Trappenkamp","state_id":3005,"state_code":"SH","country_id":82,"country_code":"DE","latitude":"54.03988000","longitude":"10.21496000"},{"id":"29647","name":"Travem\u00fcnde","state_id":3005,"state_code":"SH","country_id":82,"country_code":"DE","latitude":"53.96304000","longitude":"10.87090000"},{"id":"29657","name":"Treia","state_id":3005,"state_code":"SH","country_id":82,"country_code":"DE","latitude":"54.50000000","longitude":"9.31667000"},{"id":"29659","name":"Tremsb\u00fcttel","state_id":3005,"state_code":"SH","country_id":82,"country_code":"DE","latitude":"53.74384000","longitude":"10.31024000"},{"id":"29674","name":"Trittau","state_id":3005,"state_code":"SH","country_id":82,"country_code":"DE","latitude":"53.61667000","longitude":"10.40000000"},{"id":"29727","name":"Uetersen","state_id":3005,"state_code":"SH","country_id":82,"country_code":"DE","latitude":"53.68769000","longitude":"9.66394000"},{"id":"29806","name":"Vaale","state_id":3005,"state_code":"SH","country_id":82,"country_code":"DE","latitude":"54.00000000","longitude":"9.38333000"},{"id":"29862","name":"Vi\u00f6l","state_id":3005,"state_code":"SH","country_id":82,"country_code":"DE","latitude":"54.56667000","longitude":"9.18333000"},{"id":"29895","name":"Waabs","state_id":3005,"state_code":"SH","country_id":82,"country_code":"DE","latitude":"54.53333000","longitude":"9.98333000"},{"id":"29905","name":"Wacken","state_id":3005,"state_code":"SH","country_id":82,"country_code":"DE","latitude":"54.02078000","longitude":"9.37597000"},{"id":"29919","name":"Wahlstedt","state_id":3005,"state_code":"SH","country_id":82,"country_code":"DE","latitude":"53.95161000","longitude":"10.20626000"},{"id":"29998","name":"Wanderup","state_id":3005,"state_code":"SH","country_id":82,"country_code":"DE","latitude":"54.68333000","longitude":"9.33333000"},{"id":"30003","name":"Wangels","state_id":3005,"state_code":"SH","country_id":82,"country_code":"DE","latitude":"54.26667000","longitude":"10.76667000"},{"id":"30006","name":"Wankendorf","state_id":3005,"state_code":"SH","country_id":82,"country_code":"DE","latitude":"54.11224000","longitude":"10.20546000"},{"id":"30028","name":"Wasbek","state_id":3005,"state_code":"SH","country_id":82,"country_code":"DE","latitude":"54.07427000","longitude":"9.89738000"},{"id":"30040","name":"Wattenbek","state_id":3005,"state_code":"SH","country_id":82,"country_code":"DE","latitude":"54.16667000","longitude":"10.05000000"},{"id":"30438","name":"W\u00f6hrden","state_id":3005,"state_code":"SH","country_id":82,"country_code":"DE","latitude":"54.16667000","longitude":"9.00000000"},{"id":"30046","name":"Weddelbrook","state_id":3005,"state_code":"SH","country_id":82,"country_code":"DE","latitude":"53.90000000","longitude":"9.83333000"},{"id":"30049","name":"Weddingstedt","state_id":3005,"state_code":"SH","country_id":82,"country_code":"DE","latitude":"54.23428000","longitude":"9.09103000"},{"id":"30050","name":"Wedel","state_id":3005,"state_code":"SH","country_id":82,"country_code":"DE","latitude":"53.58374000","longitude":"9.69835000"},{"id":"30052","name":"Wees","state_id":3005,"state_code":"SH","country_id":82,"country_code":"DE","latitude":"54.80621000","longitude":"9.51695000"},{"id":"30160","name":"Wendtorf","state_id":3005,"state_code":"SH","country_id":82,"country_code":"DE","latitude":"54.41212000","longitude":"10.28952000"},{"id":"30163","name":"Wentorf bei Hamburg","state_id":3005,"state_code":"SH","country_id":82,"country_code":"DE","latitude":"53.50000000","longitude":"10.25000000"},{"id":"30195","name":"Wesselburen","state_id":3005,"state_code":"SH","country_id":82,"country_code":"DE","latitude":"54.21217000","longitude":"8.92419000"},{"id":"30197","name":"Wesseln","state_id":3005,"state_code":"SH","country_id":82,"country_code":"DE","latitude":"54.20985000","longitude":"9.07644000"},{"id":"30202","name":"Westensee","state_id":3005,"state_code":"SH","country_id":82,"country_code":"DE","latitude":"54.27452000","longitude":"9.89584000"},{"id":"30203","name":"Wester-Ohrstedt","state_id":3005,"state_code":"SH","country_id":82,"country_code":"DE","latitude":"54.50796000","longitude":"9.18574000"},{"id":"30211","name":"Westerhorn","state_id":3005,"state_code":"SH","country_id":82,"country_code":"DE","latitude":"53.85711000","longitude":"9.67959000"},{"id":"30213","name":"Westerland","state_id":3005,"state_code":"SH","country_id":82,"country_code":"DE","latitude":"54.90790000","longitude":"8.30326000"},{"id":"30214","name":"Westerr\u00f6nfeld","state_id":3005,"state_code":"SH","country_id":82,"country_code":"DE","latitude":"54.28333000","longitude":"9.65000000"},{"id":"30231","name":"Wewelsfleth","state_id":3005,"state_code":"SH","country_id":82,"country_code":"DE","latitude":"53.85000000","longitude":"9.40000000"},{"id":"30248","name":"Wiemersdorf","state_id":3005,"state_code":"SH","country_id":82,"country_code":"DE","latitude":"53.95815000","longitude":"9.90297000"},{"id":"30303","name":"Wilster","state_id":3005,"state_code":"SH","country_id":82,"country_code":"DE","latitude":"53.92253000","longitude":"9.37465000"},{"id":"30312","name":"Windeby","state_id":3005,"state_code":"SH","country_id":82,"country_code":"DE","latitude":"54.46667000","longitude":"9.81667000"},{"id":"30368","name":"Witzhave","state_id":3005,"state_code":"SH","country_id":82,"country_code":"DE","latitude":"53.56667000","longitude":"10.33333000"},{"id":"30371","name":"Wohltorf","state_id":3005,"state_code":"SH","country_id":82,"country_code":"DE","latitude":"53.51667000","longitude":"10.28333000"},{"id":"30412","name":"Wrist","state_id":3005,"state_code":"SH","country_id":82,"country_code":"DE","latitude":"53.93333000","longitude":"9.76667000"},{"id":"30435","name":"Wyk auf F\u00f6hr","state_id":3005,"state_code":"SH","country_id":82,"country_code":"DE","latitude":"54.69140000","longitude":"8.56702000"},{"id":"30471","name":"Zarpen","state_id":3005,"state_code":"SH","country_id":82,"country_code":"DE","latitude":"53.86667000","longitude":"10.51667000"},{"id":"23461","name":"Aach","state_id":3006,"state_code":"BW","country_id":82,"country_code":"DE","latitude":"47.84240000","longitude":"8.85384000"},{"id":"23464","name":"Aalen","state_id":3006,"state_code":"BW","country_id":82,"country_code":"DE","latitude":"48.83777000","longitude":"10.09330000"},{"id":"23469","name":"Abstatt","state_id":3006,"state_code":"BW","country_id":82,"country_code":"DE","latitude":"49.06820000","longitude":"9.29070000"},{"id":"23471","name":"Abtsgm\u00fcnd","state_id":3006,"state_code":"BW","country_id":82,"country_code":"DE","latitude":"48.89503000","longitude":"10.00172000"},{"id":"23472","name":"Achern","state_id":3006,"state_code":"BW","country_id":82,"country_code":"DE","latitude":"48.63115000","longitude":"8.07607000"},{"id":"23475","name":"Achstetten","state_id":3006,"state_code":"BW","country_id":82,"country_code":"DE","latitude":"48.25886000","longitude":"9.89748000"},{"id":"23477","name":"Adelberg","state_id":3006,"state_code":"BW","country_id":82,"country_code":"DE","latitude":"48.76227000","longitude":"9.59991000"},{"id":"23480","name":"Adelmannsfelden","state_id":3006,"state_code":"BW","country_id":82,"country_code":"DE","latitude":"48.95476000","longitude":"10.00466000"},{"id":"23482","name":"Adelsheim","state_id":3006,"state_code":"BW","country_id":82,"country_code":"DE","latitude":"49.40150000","longitude":"9.39250000"},{"id":"23495","name":"Affalterbach","state_id":3006,"state_code":"BW","country_id":82,"country_code":"DE","latitude":"48.92267000","longitude":"9.32362000"},{"id":"23498","name":"Aglasterhausen","state_id":3006,"state_code":"BW","country_id":82,"country_code":"DE","latitude":"49.35694000","longitude":"8.98694000"},{"id":"23517","name":"Aichelberg","state_id":3006,"state_code":"BW","country_id":82,"country_code":"DE","latitude":"48.63557000","longitude":"9.56373000"},{"id":"23519","name":"Aichhalden","state_id":3006,"state_code":"BW","country_id":82,"country_code":"DE","latitude":"48.26719000","longitude":"8.40233000"},{"id":"23520","name":"Aichstetten","state_id":3006,"state_code":"BW","country_id":82,"country_code":"DE","latitude":"47.89295000","longitude":"10.07837000"},{"id":"23523","name":"Aidlingen","state_id":3006,"state_code":"BW","country_id":82,"country_code":"DE","latitude":"48.67849000","longitude":"8.89524000"},{"id":"23528","name":"Aitrach","state_id":3006,"state_code":"BW","country_id":82,"country_code":"DE","latitude":"47.93333000","longitude":"10.08333000"},{"id":"23532","name":"Albbruck","state_id":3006,"state_code":"BW","country_id":82,"country_code":"DE","latitude":"47.59077000","longitude":"8.12954000"},{"id":"23534","name":"Albershausen","state_id":3006,"state_code":"BW","country_id":82,"country_code":"DE","latitude":"48.69136000","longitude":"9.56493000"},{"id":"23541","name":"Albstadt","state_id":3006,"state_code":"BW","country_id":82,"country_code":"DE","latitude":"48.21644000","longitude":"9.02596000"},{"id":"23544","name":"Aldingen","state_id":3006,"state_code":"BW","country_id":82,"country_code":"DE","latitude":"48.10000000","longitude":"8.70000000"},{"id":"23548","name":"Alfdorf","state_id":3006,"state_code":"BW","country_id":82,"country_code":"DE","latitude":"48.84385000","longitude":"9.71857000"},{"id":"23557","name":"Allensbach","state_id":3006,"state_code":"BW","country_id":82,"country_code":"DE","latitude":"47.71536000","longitude":"9.07145000"},{"id":"23561","name":"Allmendingen","state_id":3006,"state_code":"BW","country_id":82,"country_code":"DE","latitude":"48.33052000","longitude":"9.72419000"},{"id":"23562","name":"Allmersbach im Tal","state_id":3006,"state_code":"BW","country_id":82,"country_code":"DE","latitude":"48.90659000","longitude":"9.46815000"},{"id":"23566","name":"Alpirsbach","state_id":3006,"state_code":"BW","country_id":82,"country_code":"DE","latitude":"48.34507000","longitude":"8.40197000"},{"id":"23582","name":"Altbach","state_id":3006,"state_code":"BW","country_id":82,"country_code":"DE","latitude":"48.72268000","longitude":"9.38078000"},{"id":"23584","name":"Altdorf","state_id":3006,"state_code":"BW","country_id":82,"country_code":"DE","latitude":"48.63112000","longitude":"8.99626000"},{"id":"23612","name":"Altenriet","state_id":3006,"state_code":"BW","country_id":82,"country_code":"DE","latitude":"48.59140000","longitude":"9.22186000"},{"id":"23615","name":"Altensteig","state_id":3006,"state_code":"BW","country_id":82,"country_code":"DE","latitude":"48.58649000","longitude":"8.60395000"},{"id":"23619","name":"Altes Lager","state_id":3006,"state_code":"BW","country_id":82,"country_code":"DE","latitude":"48.41755000","longitude":"9.53606000"},{"id":"23624","name":"Alth\u00fctte","state_id":3006,"state_code":"BW","country_id":82,"country_code":"DE","latitude":"48.91565000","longitude":"9.56984000"},{"id":"23623","name":"Althengstett","state_id":3006,"state_code":"BW","country_id":82,"country_code":"DE","latitude":"48.72325000","longitude":"8.79434000"},{"id":"23628","name":"Altlu\u00dfheim","state_id":3006,"state_code":"BW","country_id":82,"country_code":"DE","latitude":"49.30167000","longitude":"8.49917000"},{"id":"23634","name":"Altshausen","state_id":3006,"state_code":"BW","country_id":82,"country_code":"DE","latitude":"47.93333000","longitude":"9.53333000"},{"id":"23650","name":"Amstetten","state_id":3006,"state_code":"BW","country_id":82,"country_code":"DE","latitude":"48.57876000","longitude":"9.87388000"},{"id":"23651","name":"Amtzell","state_id":3006,"state_code":"BW","country_id":82,"country_code":"DE","latitude":"47.70000000","longitude":"9.75000000"},{"id":"23710","name":"Aspach","state_id":3006,"state_code":"BW","country_id":82,"country_code":"DE","latitude":"48.96667000","longitude":"9.40000000"},{"id":"23711","name":"Asperg","state_id":3006,"state_code":"BW","country_id":82,"country_code":"DE","latitude":"48.90525000","longitude":"9.13502000"},{"id":"23712","name":"Assamstadt","state_id":3006,"state_code":"BW","country_id":82,"country_code":"DE","latitude":"49.42806000","longitude":"9.68611000"},{"id":"23713","name":"Asselfingen","state_id":3006,"state_code":"BW","country_id":82,"country_code":"DE","latitude":"48.52959000","longitude":"10.19166000"},{"id":"23717","name":"Attenweiler","state_id":3006,"state_code":"BW","country_id":82,"country_code":"DE","latitude":"48.13333000","longitude":"9.70000000"},{"id":"23720","name":"Au","state_id":3006,"state_code":"BW","country_id":82,"country_code":"DE","latitude":"47.95000000","longitude":"7.83333000"},{"id":"23721","name":"Au am Rhein","state_id":3006,"state_code":"BW","country_id":82,"country_code":"DE","latitude":"48.95000000","longitude":"8.23333000"},{"id":"23730","name":"Auggen","state_id":3006,"state_code":"BW","country_id":82,"country_code":"DE","latitude":"47.78333000","longitude":"7.60000000"},{"id":"23738","name":"Aulendorf","state_id":3006,"state_code":"BW","country_id":82,"country_code":"DE","latitude":"47.95083000","longitude":"9.63745000"},{"id":"30555","name":"\u00dcberlingen","state_id":3006,"state_code":"BW","country_id":82,"country_code":"DE","latitude":"47.76977000","longitude":"9.17136000"},{"id":"30559","name":"\u00dchlingen-Birkendorf","state_id":3006,"state_code":"BW","country_id":82,"country_code":"DE","latitude":"47.71667000","longitude":"8.31667000"},{"id":"30545","name":"\u00d6hningen","state_id":3006,"state_code":"BW","country_id":82,"country_code":"DE","latitude":"47.66186000","longitude":"8.88674000"},{"id":"30546","name":"\u00d6hringen","state_id":3006,"state_code":"BW","country_id":82,"country_code":"DE","latitude":"49.19884000","longitude":"9.50720000"},{"id":"30547","name":"\u00d6lbronn-D\u00fcrrn","state_id":3006,"state_code":"BW","country_id":82,"country_code":"DE","latitude":"48.96667000","longitude":"8.75000000"},{"id":"30548","name":"\u00d6pfingen","state_id":3006,"state_code":"BW","country_id":82,"country_code":"DE","latitude":"48.28636000","longitude":"9.80259000"},{"id":"30549","name":"\u00d6stringen","state_id":3006,"state_code":"BW","country_id":82,"country_code":"DE","latitude":"49.21911000","longitude":"8.71192000"},{"id":"30550","name":"\u00d6tigheim","state_id":3006,"state_code":"BW","country_id":82,"country_code":"DE","latitude":"48.89085000","longitude":"8.23442000"},{"id":"30551","name":"\u00d6tisheim","state_id":3006,"state_code":"BW","country_id":82,"country_code":"DE","latitude":"48.96667000","longitude":"8.80000000"},{"id":"23758","name":"Backnang","state_id":3006,"state_code":"BW","country_id":82,"country_code":"DE","latitude":"48.94743000","longitude":"9.43718000"},{"id":"23891","name":"Bad \u00dcberkingen","state_id":3006,"state_code":"BW","country_id":82,"country_code":"DE","latitude":"48.59991000","longitude":"9.79586000"},{"id":"23763","name":"Bad Bellingen","state_id":3006,"state_code":"BW","country_id":82,"country_code":"DE","latitude":"47.73147000","longitude":"7.55756000"},{"id":"23779","name":"Bad Buchau","state_id":3006,"state_code":"BW","country_id":82,"country_code":"DE","latitude":"48.06231000","longitude":"9.61244000"},{"id":"23787","name":"Bad D\u00fcrrheim","state_id":3006,"state_code":"BW","country_id":82,"country_code":"DE","latitude":"48.02093000","longitude":"8.53056000"},{"id":"23781","name":"Bad Ditzenbach","state_id":3006,"state_code":"BW","country_id":82,"country_code":"DE","latitude":"48.58830000","longitude":"9.70393000"},{"id":"23805","name":"Bad Herrenalb","state_id":3006,"state_code":"BW","country_id":82,"country_code":"DE","latitude":"48.79787000","longitude":"8.43617000"},{"id":"23830","name":"Bad Liebenzell","state_id":3006,"state_code":"BW","country_id":82,"country_code":"DE","latitude":"48.77427000","longitude":"8.72971000"},{"id":"23835","name":"Bad Mergentheim","state_id":3006,"state_code":"BW","country_id":82,"country_code":"DE","latitude":"49.49250000","longitude":"9.77361000"},{"id":"23847","name":"Bad Peterstal-Griesbach","state_id":3006,"state_code":"BW","country_id":82,"country_code":"DE","latitude":"48.43333000","longitude":"8.21667000"},{"id":"23849","name":"Bad Rappenau","state_id":3006,"state_code":"BW","country_id":82,"country_code":"DE","latitude":"49.23848000","longitude":"9.10180000"},{"id":"23851","name":"Bad Rippoldsau-Schapbach","state_id":3006,"state_code":"BW","country_id":82,"country_code":"DE","latitude":"48.42883000","longitude":"8.32584000"},{"id":"23874","name":"Bad S\u00e4ckingen","state_id":3006,"state_code":"BW","country_id":82,"country_code":"DE","latitude":"47.55371000","longitude":"7.94612000"},{"id":"23863","name":"Bad Schussenried","state_id":3006,"state_code":"BW","country_id":82,"country_code":"DE","latitude":"48.00468000","longitude":"9.65741000"},{"id":"23876","name":"Bad Teinach-Zavelstein","state_id":3006,"state_code":"BW","country_id":82,"country_code":"DE","latitude":"48.69051000","longitude":"8.69285000"},{"id":"23879","name":"Bad Urach","state_id":3006,"state_code":"BW","country_id":82,"country_code":"DE","latitude":"48.49107000","longitude":"9.40009000"},{"id":"23881","name":"Bad Waldsee","state_id":3006,"state_code":"BW","country_id":82,"country_code":"DE","latitude":"47.92027000","longitude":"9.75490000"},{"id":"23883","name":"Bad Wildbad","state_id":3006,"state_code":"BW","country_id":82,"country_code":"DE","latitude":"48.75071000","longitude":"8.55040000"},{"id":"23886","name":"Bad Wimpfen","state_id":3006,"state_code":"BW","country_id":82,"country_code":"DE","latitude":"49.22971000","longitude":"9.15648000"},{"id":"23888","name":"Bad Wurzach","state_id":3006,"state_code":"BW","country_id":82,"country_code":"DE","latitude":"47.90799000","longitude":"9.89686000"},{"id":"23895","name":"Baden-Baden","state_id":3006,"state_code":"BW","country_id":82,"country_code":"DE","latitude":"48.76060000","longitude":"8.23975000"},{"id":"23897","name":"Badenweiler","state_id":3006,"state_code":"BW","country_id":82,"country_code":"DE","latitude":"47.80223000","longitude":"7.67236000"},{"id":"23899","name":"Bahlingen","state_id":3006,"state_code":"BW","country_id":82,"country_code":"DE","latitude":"48.12064000","longitude":"7.73982000"},{"id":"23902","name":"Baienfurt","state_id":3006,"state_code":"BW","country_id":82,"country_code":"DE","latitude":"47.82857000","longitude":"9.65157000"},{"id":"23904","name":"Baiersbronn","state_id":3006,"state_code":"BW","country_id":82,"country_code":"DE","latitude":"48.50318000","longitude":"8.37699000"},{"id":"23906","name":"Baindt","state_id":3006,"state_code":"BW","country_id":82,"country_code":"DE","latitude":"47.85000000","longitude":"9.66667000"},{"id":"23910","name":"Balingen","state_id":3006,"state_code":"BW","country_id":82,"country_code":"DE","latitude":"48.27525000","longitude":"8.85464000"},{"id":"23913","name":"Baltmannsweiler","state_id":3006,"state_code":"BW","country_id":82,"country_code":"DE","latitude":"48.74215000","longitude":"9.44940000"},{"id":"23915","name":"Balzfeld","state_id":3006,"state_code":"BW","country_id":82,"country_code":"DE","latitude":"49.26892000","longitude":"8.78919000"},{"id":"23919","name":"Bammental","state_id":3006,"state_code":"BW","country_id":82,"country_code":"DE","latitude":"49.35611000","longitude":"8.77944000"},{"id":"23945","name":"Bartholom\u00e4","state_id":3006,"state_code":"BW","country_id":82,"country_code":"DE","latitude":"48.75350000","longitude":"9.98752000"},{"id":"24462","name":"B\u00f6bingen an der Rems","state_id":3006,"state_code":"BW","country_id":82,"country_code":"DE","latitude":"48.81955000","longitude":"9.92130000"},{"id":"24463","name":"B\u00f6blingen","state_id":3006,"state_code":"BW","country_id":82,"country_code":"DE","latitude":"48.68212000","longitude":"9.01171000"},{"id":"24467","name":"B\u00f6hmenkirch","state_id":3006,"state_code":"BW","country_id":82,"country_code":"DE","latitude":"48.68333000","longitude":"9.93333000"},{"id":"24470","name":"B\u00f6nnigheim","state_id":3006,"state_code":"BW","country_id":82,"country_code":"DE","latitude":"49.04018000","longitude":"9.09386000"},{"id":"24476","name":"B\u00f6rtlingen","state_id":3006,"state_code":"BW","country_id":82,"country_code":"DE","latitude":"48.75376000","longitude":"9.63181000"},{"id":"24481","name":"B\u00f6singen","state_id":3006,"state_code":"BW","country_id":82,"country_code":"DE","latitude":"48.23333000","longitude":"8.55000000"},{"id":"24483","name":"B\u00f6ttingen","state_id":3006,"state_code":"BW","country_id":82,"country_code":"DE","latitude":"48.10000000","longitude":"8.80000000"},{"id":"24484","name":"B\u00f6tzingen","state_id":3006,"state_code":"BW","country_id":82,"country_code":"DE","latitude":"48.07642000","longitude":"7.72485000"},{"id":"24495","name":"B\u00fchl","state_id":3006,"state_code":"BW","country_id":82,"country_code":"DE","latitude":"48.69676000","longitude":"8.13523000"},{"id":"24496","name":"B\u00fchlertal","state_id":3006,"state_code":"BW","country_id":82,"country_code":"DE","latitude":"48.68569000","longitude":"8.18876000"},{"id":"24497","name":"B\u00fchlertann","state_id":3006,"state_code":"BW","country_id":82,"country_code":"DE","latitude":"49.04167000","longitude":"9.90861000"},{"id":"24498","name":"B\u00fchlerzell","state_id":3006,"state_code":"BW","country_id":82,"country_code":"DE","latitude":"49.00333000","longitude":"9.92056000"},{"id":"24505","name":"B\u00fcsingen","state_id":3006,"state_code":"BW","country_id":82,"country_code":"DE","latitude":"47.69638000","longitude":"8.68759000"},{"id":"23995","name":"Beilstein","state_id":3006,"state_code":"BW","country_id":82,"country_code":"DE","latitude":"49.04140000","longitude":"9.31370000"},{"id":"23996","name":"Beimerstetten","state_id":3006,"state_code":"BW","country_id":82,"country_code":"DE","latitude":"48.48333000","longitude":"9.98333000"},{"id":"24006","name":"Bempflingen","state_id":3006,"state_code":"BW","country_id":82,"country_code":"DE","latitude":"48.57178000","longitude":"9.26834000"},{"id":"24014","name":"Benningen am Neckar","state_id":3006,"state_code":"BW","country_id":82,"country_code":"DE","latitude":"48.94672000","longitude":"9.24212000"},{"id":"24030","name":"Bergatreute","state_id":3006,"state_code":"BW","country_id":82,"country_code":"DE","latitude":"47.85000000","longitude":"9.75000000"},{"id":"24038","name":"Berghaupten","state_id":3006,"state_code":"BW","country_id":82,"country_code":"DE","latitude":"48.40602000","longitude":"7.98672000"},{"id":"24040","name":"Bergh\u00fclen","state_id":3006,"state_code":"BW","country_id":82,"country_code":"DE","latitude":"48.46399000","longitude":"9.76110000"},{"id":"24052","name":"Berkheim","state_id":3006,"state_code":"BW","country_id":82,"country_code":"DE","latitude":"48.04263000","longitude":"10.08227000"},{"id":"24058","name":"Bermatingen","state_id":3006,"state_code":"BW","country_id":82,"country_code":"DE","latitude":"47.73333000","longitude":"9.35000000"},{"id":"24059","name":"Bernau","state_id":3006,"state_code":"BW","country_id":82,"country_code":"DE","latitude":"47.80018000","longitude":"8.03830000"},{"id":"24072","name":"Bernstadt","state_id":3006,"state_code":"BW","country_id":82,"country_code":"DE","latitude":"48.49957000","longitude":"10.02575000"},{"id":"24078","name":"Besigheim","state_id":3006,"state_code":"BW","country_id":82,"country_code":"DE","latitude":"48.99797000","longitude":"9.14268000"},{"id":"24088","name":"Beuren","state_id":3006,"state_code":"BW","country_id":82,"country_code":"DE","latitude":"48.56927000","longitude":"9.40406000"},{"id":"24095","name":"Biberach","state_id":3006,"state_code":"BW","country_id":82,"country_code":"DE","latitude":"48.61008000","longitude":"8.27704000"},{"id":"24096","name":"Biberach an der Ri\u00df","state_id":3006,"state_code":"BW","country_id":82,"country_code":"DE","latitude":"48.09345000","longitude":"9.79053000"},{"id":"24114","name":"Bietigheim","state_id":3006,"state_code":"BW","country_id":82,"country_code":"DE","latitude":"48.90919000","longitude":"8.25202000"},{"id":"24115","name":"Bietigheim-Bissingen","state_id":3006,"state_code":"BW","country_id":82,"country_code":"DE","latitude":"48.94407000","longitude":"9.11755000"},{"id":"24118","name":"Billigheim","state_id":3006,"state_code":"BW","country_id":82,"country_code":"DE","latitude":"49.34861000","longitude":"9.25389000"},{"id":"24121","name":"Binau","state_id":3006,"state_code":"BW","country_id":82,"country_code":"DE","latitude":"49.36833000","longitude":"9.05806000"},{"id":"24123","name":"Bingen","state_id":3006,"state_code":"BW","country_id":82,"country_code":"DE","latitude":"48.11127000","longitude":"9.27238000"},{"id":"24128","name":"Binzen","state_id":3006,"state_code":"BW","country_id":82,"country_code":"DE","latitude":"47.63333000","longitude":"7.61667000"},{"id":"24130","name":"Birenbach","state_id":3006,"state_code":"BW","country_id":82,"country_code":"DE","latitude":"48.74732000","longitude":"9.66115000"},{"id":"24134","name":"Birkenfeld","state_id":3006,"state_code":"BW","country_id":82,"country_code":"DE","latitude":"48.86667000","longitude":"8.63333000"},{"id":"24152","name":"Bischweier","state_id":3006,"state_code":"BW","country_id":82,"country_code":"DE","latitude":"48.83766000","longitude":"8.28412000"},{"id":"24153","name":"Bisingen","state_id":3006,"state_code":"BW","country_id":82,"country_code":"DE","latitude":"48.31012000","longitude":"8.91738000"},{"id":"24158","name":"Bissingen an der Teck","state_id":3006,"state_code":"BW","country_id":82,"country_code":"DE","latitude":"48.59915000","longitude":"9.49146000"},{"id":"24161","name":"Bitz","state_id":3006,"state_code":"BW","country_id":82,"country_code":"DE","latitude":"48.24400000","longitude":"9.09144000"},{"id":"24173","name":"Blaubeuren","state_id":3006,"state_code":"BW","country_id":82,"country_code":"DE","latitude":"48.41215000","longitude":"9.78427000"},{"id":"24174","name":"Blaufelden","state_id":3006,"state_code":"BW","country_id":82,"country_code":"DE","latitude":"49.29778000","longitude":"9.97389000"},{"id":"24187","name":"Blumberg","state_id":3006,"state_code":"BW","country_id":82,"country_code":"DE","latitude":"47.84058000","longitude":"8.53329000"},{"id":"24203","name":"Bodelshausen","state_id":3006,"state_code":"BW","country_id":82,"country_code":"DE","latitude":"48.38886000","longitude":"8.97703000"},{"id":"24210","name":"Bodman-Ludwigshafen","state_id":3006,"state_code":"BW","country_id":82,"country_code":"DE","latitude":"47.81817000","longitude":"9.05540000"},{"id":"24211","name":"Bodnegg","state_id":3006,"state_code":"BW","country_id":82,"country_code":"DE","latitude":"47.71014000","longitude":"9.68841000"},{"id":"24222","name":"Bolheim","state_id":3006,"state_code":"BW","country_id":82,"country_code":"DE","latitude":"48.63141000","longitude":"10.14995000"},{"id":"24223","name":"Boll","state_id":3006,"state_code":"BW","country_id":82,"country_code":"DE","latitude":"48.64357000","longitude":"9.61295000"},{"id":"24226","name":"Bollschweil","state_id":3006,"state_code":"BW","country_id":82,"country_code":"DE","latitude":"47.92143000","longitude":"7.78986000"},{"id":"24229","name":"Bondorf","state_id":3006,"state_code":"BW","country_id":82,"country_code":"DE","latitude":"48.52064000","longitude":"8.83704000"},{"id":"24232","name":"Bonndorf","state_id":3006,"state_code":"BW","country_id":82,"country_code":"DE","latitude":"47.81863000","longitude":"8.34139000"},{"id":"24236","name":"Bopfingen","state_id":3006,"state_code":"BW","country_id":82,"country_code":"DE","latitude":"48.85847000","longitude":"10.35417000"},{"id":"24268","name":"Boxberg","state_id":3006,"state_code":"BW","country_id":82,"country_code":"DE","latitude":"49.47965000","longitude":"9.64006000"},{"id":"24271","name":"Brackenheim","state_id":3006,"state_code":"BW","country_id":82,"country_code":"DE","latitude":"49.07787000","longitude":"9.06601000"},{"id":"24289","name":"Braunsbach","state_id":3006,"state_code":"BW","country_id":82,"country_code":"DE","latitude":"49.19917000","longitude":"9.79056000"},{"id":"24364","name":"Br\u00e4unlingen","state_id":3006,"state_code":"BW","country_id":82,"country_code":"DE","latitude":"47.92957000","longitude":"8.44806000"},{"id":"24371","name":"Br\u00fchl","state_id":3006,"state_code":"BW","country_id":82,"country_code":"DE","latitude":"49.39722000","longitude":"8.53361000"},{"id":"24302","name":"Breisach am Rhein","state_id":3006,"state_code":"BW","country_id":82,"country_code":"DE","latitude":"48.03279000","longitude":"7.58294000"},{"id":"24314","name":"Breitnau","state_id":3006,"state_code":"BW","country_id":82,"country_code":"DE","latitude":"47.93333000","longitude":"8.08333000"},{"id":"24325","name":"Bretten","state_id":3006,"state_code":"BW","country_id":82,"country_code":"DE","latitude":"49.03685000","longitude":"8.70745000"},{"id":"24327","name":"Bretzfeld","state_id":3006,"state_code":"BW","country_id":82,"country_code":"DE","latitude":"49.17944000","longitude":"9.43833000"},{"id":"24351","name":"Bruchsal","state_id":3006,"state_code":"BW","country_id":82,"country_code":"DE","latitude":"49.12426000","longitude":"8.59804000"},{"id":"24377","name":"Bubsheim","state_id":3006,"state_code":"BW","country_id":82,"country_code":"DE","latitude":"48.11667000","longitude":"8.83333000"},{"id":"24380","name":"Buch am Ahorn","state_id":3006,"state_code":"BW","country_id":82,"country_code":"DE","latitude":"49.53909000","longitude":"9.55560000"},{"id":"24386","name":"Buchen in Odenwald","state_id":3006,"state_code":"BW","country_id":82,"country_code":"DE","latitude":"49.52416000","longitude":"9.32293000"},{"id":"24387","name":"Buchenbach","state_id":3006,"state_code":"BW","country_id":82,"country_code":"DE","latitude":"47.96138000","longitude":"8.00909000"},{"id":"24400","name":"Buggingen","state_id":3006,"state_code":"BW","country_id":82,"country_code":"DE","latitude":"47.84750000","longitude":"7.63799000"},{"id":"24429","name":"Burgrieden","state_id":3006,"state_code":"BW","country_id":82,"country_code":"DE","latitude":"48.23333000","longitude":"9.93333000"},{"id":"24434","name":"Burgstetten","state_id":3006,"state_code":"BW","country_id":82,"country_code":"DE","latitude":"48.92805000","longitude":"9.37239000"},{"id":"24443","name":"Burladingen","state_id":3006,"state_code":"BW","country_id":82,"country_code":"DE","latitude":"48.29111000","longitude":"9.11286000"},{"id":"24519","name":"Calw","state_id":3006,"state_code":"BW","country_id":82,"country_code":"DE","latitude":"48.71419000","longitude":"8.74031000"},{"id":"24540","name":"Cleebronn","state_id":3006,"state_code":"BW","country_id":82,"country_code":"DE","latitude":"49.04500000","longitude":"9.03694000"},{"id":"24557","name":"Crailsheim","state_id":3006,"state_code":"BW","country_id":82,"country_code":"DE","latitude":"49.13444000","longitude":"10.07193000"},{"id":"24559","name":"Creglingen","state_id":3006,"state_code":"BW","country_id":82,"country_code":"DE","latitude":"49.46937000","longitude":"10.03119000"},{"id":"24585","name":"Daisendorf","state_id":3006,"state_code":"BW","country_id":82,"country_code":"DE","latitude":"47.71265000","longitude":"9.26783000"},{"id":"24604","name":"Dauchingen","state_id":3006,"state_code":"BW","country_id":82,"country_code":"DE","latitude":"48.08993000","longitude":"8.55011000"},{"id":"24803","name":"D\u00f6rzbach","state_id":3006,"state_code":"BW","country_id":82,"country_code":"DE","latitude":"49.38355000","longitude":"9.70732000"},{"id":"24809","name":"D\u00fcrbheim","state_id":3006,"state_code":"BW","country_id":82,"country_code":"DE","latitude":"48.05623000","longitude":"8.79344000"},{"id":"24811","name":"D\u00fcrmentingen","state_id":3006,"state_code":"BW","country_id":82,"country_code":"DE","latitude":"48.11667000","longitude":"9.53333000"},{"id":"24812","name":"D\u00fcrnau","state_id":3006,"state_code":"BW","country_id":82,"country_code":"DE","latitude":"48.64079000","longitude":"9.63544000"},{"id":"24607","name":"Deckenpfronn","state_id":3006,"state_code":"BW","country_id":82,"country_code":"DE","latitude":"48.65128000","longitude":"8.82417000"},{"id":"24611","name":"Deggingen","state_id":3006,"state_code":"BW","country_id":82,"country_code":"DE","latitude":"48.59710000","longitude":"9.71891000"},{"id":"24620","name":"Dei\u00dflingen","state_id":3006,"state_code":"BW","country_id":82,"country_code":"DE","latitude":"48.11230000","longitude":"8.60736000"},{"id":"24614","name":"Deilingen","state_id":3006,"state_code":"BW","country_id":82,"country_code":"DE","latitude":"48.17410000","longitude":"8.78533000"},{"id":"24619","name":"Deizisau","state_id":3006,"state_code":"BW","country_id":82,"country_code":"DE","latitude":"48.71220000","longitude":"9.38610000"},{"id":"24630","name":"Denkendorf","state_id":3006,"state_code":"BW","country_id":82,"country_code":"DE","latitude":"48.69555000","longitude":"9.31675000"},{"id":"24631","name":"Denkingen","state_id":3006,"state_code":"BW","country_id":82,"country_code":"DE","latitude":"48.11110000","longitude":"8.73820000"},{"id":"24635","name":"Denzlingen","state_id":3006,"state_code":"BW","country_id":82,"country_code":"DE","latitude":"48.06667000","longitude":"7.88333000"},{"id":"24649","name":"Dettenhausen","state_id":3006,"state_code":"BW","country_id":82,"country_code":"DE","latitude":"48.60758000","longitude":"9.10041000"},{"id":"24650","name":"Dettighofen","state_id":3006,"state_code":"BW","country_id":82,"country_code":"DE","latitude":"47.62333000","longitude":"8.48512000"},{"id":"24651","name":"Dettingen","state_id":3006,"state_code":"BW","country_id":82,"country_code":"DE","latitude":"48.26246000","longitude":"9.72161000"},{"id":"24652","name":"Dettingen an der Erms","state_id":3006,"state_code":"BW","country_id":82,"country_code":"DE","latitude":"48.53077000","longitude":"9.34458000"},{"id":"24653","name":"Dettingen unter Teck","state_id":3006,"state_code":"BW","country_id":82,"country_code":"DE","latitude":"48.61667000","longitude":"9.45000000"},{"id":"24668","name":"Dielheim","state_id":3006,"state_code":"BW","country_id":82,"country_code":"DE","latitude":"49.28417000","longitude":"8.73806000"},{"id":"24677","name":"Dietenheim","state_id":3006,"state_code":"BW","country_id":82,"country_code":"DE","latitude":"48.21072000","longitude":"10.07163000"},{"id":"24683","name":"Dietingen","state_id":3006,"state_code":"BW","country_id":82,"country_code":"DE","latitude":"48.20480000","longitude":"8.64864000"},{"id":"24704","name":"Dischingen","state_id":3006,"state_code":"BW","country_id":82,"country_code":"DE","latitude":"48.70000000","longitude":"10.36667000"},{"id":"24710","name":"Ditzingen","state_id":3006,"state_code":"BW","country_id":82,"country_code":"DE","latitude":"48.82672000","longitude":"9.06703000"},{"id":"24712","name":"Dobel","state_id":3006,"state_code":"BW","country_id":82,"country_code":"DE","latitude":"48.80000000","longitude":"8.50000000"},{"id":"24717","name":"Dogern","state_id":3006,"state_code":"BW","country_id":82,"country_code":"DE","latitude":"47.60952000","longitude":"8.16713000"},{"id":"24729","name":"Donaueschingen","state_id":3006,"state_code":"BW","country_id":82,"country_code":"DE","latitude":"47.95514000","longitude":"8.49707000"},{"id":"24733","name":"Donzdorf","state_id":3006,"state_code":"BW","country_id":82,"country_code":"DE","latitude":"48.68544000","longitude":"9.81053000"},{"id":"24739","name":"Dormettingen","state_id":3006,"state_code":"BW","country_id":82,"country_code":"DE","latitude":"48.23688000","longitude":"8.77327000"},{"id":"24742","name":"Dornhan","state_id":3006,"state_code":"BW","country_id":82,"country_code":"DE","latitude":"48.35008000","longitude":"8.50901000"},{"id":"24743","name":"Dornstadt","state_id":3006,"state_code":"BW","country_id":82,"country_code":"DE","latitude":"48.46697000","longitude":"9.94434000"},{"id":"24744","name":"Dornstetten","state_id":3006,"state_code":"BW","country_id":82,"country_code":"DE","latitude":"48.47198000","longitude":"8.49817000"},{"id":"24749","name":"Dossenheim","state_id":3006,"state_code":"BW","country_id":82,"country_code":"DE","latitude":"49.45028000","longitude":"8.67472000"},{"id":"24750","name":"Dotternhausen","state_id":3006,"state_code":"BW","country_id":82,"country_code":"DE","latitude":"48.22848000","longitude":"8.79228000"},{"id":"24789","name":"Du\u00dflingen","state_id":3006,"state_code":"BW","country_id":82,"country_code":"DE","latitude":"48.45357000","longitude":"9.05552000"},{"id":"24782","name":"Dunningen","state_id":3006,"state_code":"BW","country_id":82,"country_code":"DE","latitude":"48.21242000","longitude":"8.50619000"},{"id":"24785","name":"Durbach","state_id":3006,"state_code":"BW","country_id":82,"country_code":"DE","latitude":"48.49352000","longitude":"8.01736000"},{"id":"24786","name":"Durlangen","state_id":3006,"state_code":"BW","country_id":82,"country_code":"DE","latitude":"48.85632000","longitude":"9.79654000"},{"id":"24787","name":"Durmersheim","state_id":3006,"state_code":"BW","country_id":82,"country_code":"DE","latitude":"48.93333000","longitude":"8.26667000"},{"id":"24824","name":"Ebenweiler","state_id":3006,"state_code":"BW","country_id":82,"country_code":"DE","latitude":"47.90000000","longitude":"9.51667000"},{"id":"24825","name":"Eberbach","state_id":3006,"state_code":"BW","country_id":82,"country_code":"DE","latitude":"49.46680000","longitude":"8.99016000"},{"id":"24826","name":"Eberdingen","state_id":3006,"state_code":"BW","country_id":82,"country_code":"DE","latitude":"48.87942000","longitude":"8.96502000"},{"id":"24828","name":"Eberhardzell","state_id":3006,"state_code":"BW","country_id":82,"country_code":"DE","latitude":"48.00000000","longitude":"9.81667000"},{"id":"24833","name":"Ebersbach an der Fils","state_id":3006,"state_code":"BW","country_id":82,"country_code":"DE","latitude":"48.71600000","longitude":"9.52360000"},{"id":"24834","name":"Ebersbach-Musbach","state_id":3006,"state_code":"BW","country_id":82,"country_code":"DE","latitude":"47.96667000","longitude":"9.58333000"},{"id":"24838","name":"Eberstadt","state_id":3006,"state_code":"BW","country_id":82,"country_code":"DE","latitude":"49.18028000","longitude":"9.32111000"},{"id":"24841","name":"Ebhausen","state_id":3006,"state_code":"BW","country_id":82,"country_code":"DE","latitude":"48.58333000","longitude":"8.68333000"},{"id":"24843","name":"Ebringen","state_id":3006,"state_code":"BW","country_id":82,"country_code":"DE","latitude":"47.95780000","longitude":"7.77652000"},{"id":"24861","name":"Edingen-Neckarhausen","state_id":3006,"state_code":"BW","country_id":82,"country_code":"DE","latitude":"49.45722000","longitude":"8.60639000"},{"id":"24864","name":"Efringen-Kirchen","state_id":3006,"state_code":"BW","country_id":82,"country_code":"DE","latitude":"47.65000000","longitude":"7.56667000"},{"id":"24867","name":"Egenhausen","state_id":3006,"state_code":"BW","country_id":82,"country_code":"DE","latitude":"48.56667000","longitude":"8.61667000"},{"id":"24873","name":"Eggenstein-Leopoldshafen","state_id":3006,"state_code":"BW","country_id":82,"country_code":"DE","latitude":"49.09006000","longitude":"8.39879000"},{"id":"24878","name":"Eggingen","state_id":3006,"state_code":"BW","country_id":82,"country_code":"DE","latitude":"47.70000000","longitude":"8.40000000"},{"id":"24888","name":"Ehingen","state_id":3006,"state_code":"BW","country_id":82,"country_code":"DE","latitude":"48.28259000","longitude":"9.72749000"},{"id":"24891","name":"Ehningen","state_id":3006,"state_code":"BW","country_id":82,"country_code":"DE","latitude":"48.65882000","longitude":"8.94124000"},{"id":"24905","name":"Eichstetten","state_id":3006,"state_code":"BW","country_id":82,"country_code":"DE","latitude":"48.09427000","longitude":"7.74244000"},{"id":"24911","name":"Eigeltingen","state_id":3006,"state_code":"BW","country_id":82,"country_code":"DE","latitude":"47.85802000","longitude":"8.89784000"},{"id":"24916","name":"Eimeldingen","state_id":3006,"state_code":"BW","country_id":82,"country_code":"DE","latitude":"47.63333000","longitude":"7.60000000"},{"id":"24925","name":"Eisenbach","state_id":3006,"state_code":"BW","country_id":82,"country_code":"DE","latitude":"47.96117000","longitude":"8.26802000"},{"id":"24931","name":"Eisingen","state_id":3006,"state_code":"BW","country_id":82,"country_code":"DE","latitude":"48.95000000","longitude":"8.66667000"},{"id":"24934","name":"Eislingen","state_id":3006,"state_code":"BW","country_id":82,"country_code":"DE","latitude":"48.69515000","longitude":"9.70676000"},{"id":"24947","name":"Ellenberg","state_id":3006,"state_code":"BW","country_id":82,"country_code":"DE","latitude":"49.01667000","longitude":"10.21667000"},{"id":"24953","name":"Ellhofen","state_id":3006,"state_code":"BW","country_id":82,"country_code":"DE","latitude":"49.14667000","longitude":"9.32194000"},{"id":"24956","name":"Ellwangen","state_id":3006,"state_code":"BW","country_id":82,"country_code":"DE","latitude":"48.96164000","longitude":"10.13173000"},{"id":"24979","name":"Elzach","state_id":3006,"state_code":"BW","country_id":82,"country_code":"DE","latitude":"48.17247000","longitude":"8.06992000"},{"id":"24988","name":"Emmendingen","state_id":3006,"state_code":"BW","country_id":82,"country_code":"DE","latitude":"48.12096000","longitude":"7.85359000"},{"id":"24991","name":"Emmingen-Liptingen","state_id":3006,"state_code":"BW","country_id":82,"country_code":"DE","latitude":"47.93333000","longitude":"8.88333000"},{"id":"24992","name":"Empfingen","state_id":3006,"state_code":"BW","country_id":82,"country_code":"DE","latitude":"48.39258000","longitude":"8.71036000"},{"id":"24999","name":"Endingen","state_id":3006,"state_code":"BW","country_id":82,"country_code":"DE","latitude":"48.14221000","longitude":"7.70049000"},{"id":"25002","name":"Engelsbrand","state_id":3006,"state_code":"BW","country_id":82,"country_code":"DE","latitude":"48.83333000","longitude":"8.65000000"},{"id":"25005","name":"Engen","state_id":3006,"state_code":"BW","country_id":82,"country_code":"DE","latitude":"47.85534000","longitude":"8.77342000"},{"id":"25007","name":"Eningen unter Achalm","state_id":3006,"state_code":"BW","country_id":82,"country_code":"DE","latitude":"48.48686000","longitude":"9.25946000"},{"id":"25011","name":"Ennetach","state_id":3006,"state_code":"BW","country_id":82,"country_code":"DE","latitude":"48.05238000","longitude":"9.32010000"},{"id":"25015","name":"Enzkl\u00f6sterle","state_id":3006,"state_code":"BW","country_id":82,"country_code":"DE","latitude":"48.66638000","longitude":"8.47083000"},{"id":"25016","name":"Epfenbach","state_id":3006,"state_code":"BW","country_id":82,"country_code":"DE","latitude":"49.33917000","longitude":"8.90778000"},{"id":"25017","name":"Epfendorf","state_id":3006,"state_code":"BW","country_id":82,"country_code":"DE","latitude":"48.25000000","longitude":"8.60000000"},{"id":"25019","name":"Eppelheim","state_id":3006,"state_code":"BW","country_id":82,"country_code":"DE","latitude":"49.40190000","longitude":"8.63644000"},{"id":"25024","name":"Eppingen","state_id":3006,"state_code":"BW","country_id":82,"country_code":"DE","latitude":"49.13645000","longitude":"8.91229000"},{"id":"25028","name":"Erbach","state_id":3006,"state_code":"BW","country_id":82,"country_code":"DE","latitude":"48.32841000","longitude":"9.88752000"},{"id":"25033","name":"Erdmannhausen","state_id":3006,"state_code":"BW","country_id":82,"country_code":"DE","latitude":"48.94256000","longitude":"9.29615000"},{"id":"25044","name":"Eriskirch","state_id":3006,"state_code":"BW","country_id":82,"country_code":"DE","latitude":"47.62479000","longitude":"9.54197000"},{"id":"25046","name":"Erkenbrechtsweiler","state_id":3006,"state_code":"BW","country_id":82,"country_code":"DE","latitude":"48.55656000","longitude":"9.43211000"},{"id":"25057","name":"Erlenbach","state_id":3006,"state_code":"BW","country_id":82,"country_code":"DE","latitude":"49.17250000","longitude":"9.26833000"},{"id":"25059","name":"Erlenmoos","state_id":3006,"state_code":"BW","country_id":82,"country_code":"DE","latitude":"48.06530000","longitude":"9.97567000"},{"id":"25061","name":"Erligheim","state_id":3006,"state_code":"BW","country_id":82,"country_code":"DE","latitude":"49.02250000","longitude":"9.09722000"},{"id":"25066","name":"Erolzheim","state_id":3006,"state_code":"BW","country_id":82,"country_code":"DE","latitude":"48.09001000","longitude":"10.07300000"},{"id":"25069","name":"Ersingen","state_id":3006,"state_code":"BW","country_id":82,"country_code":"DE","latitude":"48.29260000","longitude":"9.85510000"},{"id":"25070","name":"Ertingen","state_id":3006,"state_code":"BW","country_id":82,"country_code":"DE","latitude":"48.10000000","longitude":"9.46667000"},{"id":"25074","name":"Eschach","state_id":3006,"state_code":"BW","country_id":82,"country_code":"DE","latitude":"48.88832000","longitude":"9.86999000"},{"id":"25079","name":"Eschelbronn","state_id":3006,"state_code":"BW","country_id":82,"country_code":"DE","latitude":"49.31944000","longitude":"8.86528000"},{"id":"25080","name":"Eschenbach","state_id":3006,"state_code":"BW","country_id":82,"country_code":"DE","latitude":"48.65264000","longitude":"9.67037000"},{"id":"25099","name":"Essingen","state_id":3006,"state_code":"BW","country_id":82,"country_code":"DE","latitude":"48.80859000","longitude":"10.02773000"},{"id":"25101","name":"Esslingen","state_id":3006,"state_code":"BW","country_id":82,"country_code":"DE","latitude":"48.73961000","longitude":"9.30473000"},{"id":"25106","name":"Ettenheim","state_id":3006,"state_code":"BW","country_id":82,"country_code":"DE","latitude":"48.25696000","longitude":"7.81247000"},{"id":"25107","name":"Ettlingen","state_id":3006,"state_code":"BW","country_id":82,"country_code":"DE","latitude":"48.94094000","longitude":"8.40763000"},{"id":"25118","name":"Eutingen an der Enz","state_id":3006,"state_code":"BW","country_id":82,"country_code":"DE","latitude":"48.91246000","longitude":"8.74898000"},