[{"id":"89749","name":"Colonia Mauricio Jos\u00e9 Troche","state_id":2772,"state_code":"4","country_id":172,"country_code":"PY","latitude":"-25.56667000","longitude":"-56.28333000"},{"id":"89756","name":"Coronel Mart\u00ednez","state_id":2772,"state_code":"4","country_id":172,"country_code":"PY","latitude":"-25.75862000","longitude":"-56.61677000"},{"id":"89778","name":"Independencia","state_id":2772,"state_code":"4","country_id":172,"country_code":"PY","latitude":"-25.69100000","longitude":"-56.26781000"},{"id":"89783","name":"Itap\u00e9","state_id":2772,"state_code":"4","country_id":172,"country_code":"PY","latitude":"-25.85172000","longitude":"-56.61385000"},{"id":"89785","name":"Iturbe","state_id":2772,"state_code":"4","country_id":172,"country_code":"PY","latitude":"-26.05508000","longitude":"-56.48463000"},{"id":"89795","name":"Mbocayaty","state_id":2772,"state_code":"4","country_id":172,"country_code":"PY","latitude":"-25.71938000","longitude":"-56.42179000"},{"id":"89800","name":"Natalicio Talavera","state_id":2772,"state_code":"4","country_id":172,"country_code":"PY","latitude":"-25.63333000","longitude":"-56.30000000"},{"id":"89846","name":"Villarrica","state_id":2772,"state_code":"4","country_id":172,"country_code":"PY","latitude":"-25.74946000","longitude":"-56.43518000"}]