[{"id":"304","name":"Arabkir","state_id":2030,"state_code":"ER","country_id":12,"country_code":"AM","latitude":"40.20549000","longitude":"44.50699000"},{"id":"321","name":"Argavand","state_id":2030,"state_code":"ER","country_id":12,"country_code":"AM","latitude":"40.15289000","longitude":"44.43890000"},{"id":"422","name":"Jrashen","state_id":2030,"state_code":"ER","country_id":12,"country_code":"AM","latitude":"40.05275000","longitude":"44.51259000"},{"id":"436","name":"K\u2019anak\u2019erravan","state_id":2030,"state_code":"ER","country_id":12,"country_code":"AM","latitude":"40.24739000","longitude":"44.53511000"},{"id":"555","name":"Vardadzor","state_id":2030,"state_code":"ER","country_id":12,"country_code":"AM","latitude":"40.18701000","longitude":"45.19212000"},{"id":"581","name":"Yerevan","state_id":2030,"state_code":"ER","country_id":12,"country_code":"AM","latitude":"40.18111000","longitude":"44.51361000"}]