[{"id":"88904","name":"A dos Cunhados","state_id":2228,"state_code":"11","country_id":177,"country_code":"PT","latitude":"39.15237000","longitude":"-9.29720000"},{"id":"88908","name":"Abrigada","state_id":2228,"state_code":"11","country_id":177,"country_code":"PT","latitude":"39.14416000","longitude":"-9.01853000"},{"id":"88915","name":"Alcabideche","state_id":2228,"state_code":"11","country_id":177,"country_code":"PT","latitude":"38.73366000","longitude":"-9.40928000"},{"id":"88922","name":"Alcoentre","state_id":2228,"state_code":"11","country_id":177,"country_code":"PT","latitude":"39.20857000","longitude":"-8.95953000"},{"id":"88928","name":"Alenquer","state_id":2228,"state_code":"11","country_id":177,"country_code":"PT","latitude":"39.05315000","longitude":"-9.00928000"},{"id":"88933","name":"Alfragide","state_id":2228,"state_code":"11","country_id":177,"country_code":"PT","latitude":"38.73203000","longitude":"-9.21920000"},{"id":"88937","name":"Alg\u00e9s","state_id":2228,"state_code":"11","country_id":177,"country_code":"PT","latitude":"38.70245000","longitude":"-9.22936000"},{"id":"88936","name":"Algueir\u00e3o","state_id":2228,"state_code":"11","country_id":177,"country_code":"PT","latitude":"38.79764000","longitude":"-9.34370000"},{"id":"88939","name":"Alhandra","state_id":2228,"state_code":"11","country_id":177,"country_code":"PT","latitude":"38.92732000","longitude":"-9.00864000"},{"id":"88947","name":"Almargem","state_id":2228,"state_code":"11","country_id":177,"country_code":"PT","latitude":"38.84485000","longitude":"-9.27315000"},{"id":"88956","name":"Alvalade","state_id":2228,"state_code":"11","country_id":177,"country_code":"PT","latitude":"38.75328000","longitude":"-9.14397000"},{"id":"88960","name":"Amadora","state_id":2228,"state_code":"11","country_id":177,"country_code":"PT","latitude":"38.75382000","longitude":"-9.23083000"},{"id":"88973","name":"Apela\u00e7\u00e3o","state_id":2228,"state_code":"11","country_id":177,"country_code":"PT","latitude":"38.81387000","longitude":"-9.13225000"},{"id":"88991","name":"Arranh\u00f3","state_id":2228,"state_code":"11","country_id":177,"country_code":"PT","latitude":"38.95378000","longitude":"-9.13465000"},{"id":"88996","name":"Arruda dos Vinhos","state_id":2228,"state_code":"11","country_id":177,"country_code":"PT","latitude":"38.97172000","longitude":"-9.08807000"},{"id":"89002","name":"Aveiras de Cima","state_id":2228,"state_code":"11","country_id":177,"country_code":"PT","latitude":"39.13796000","longitude":"-8.89932000"},{"id":"89009","name":"Azambuja","state_id":2228,"state_code":"11","country_id":177,"country_code":"PT","latitude":"39.07029000","longitude":"-8.86822000"},{"id":"89017","name":"Barcarena","state_id":2228,"state_code":"11","country_id":177,"country_code":"PT","latitude":"38.73245000","longitude":"-9.28000000"},{"id":"89024","name":"Beato Ant\u00f3nio","state_id":2228,"state_code":"11","country_id":177,"country_code":"PT","latitude":"38.73327000","longitude":"-9.10335000"},{"id":"89028","name":"Belas","state_id":2228,"state_code":"11","country_id":177,"country_code":"PT","latitude":"38.77670000","longitude":"-9.26353000"},{"id":"89034","name":"Benfica","state_id":2228,"state_code":"11","country_id":177,"country_code":"PT","latitude":"38.75087000","longitude":"-9.20282000"},{"id":"89040","name":"Bobadela","state_id":2228,"state_code":"11","country_id":177,"country_code":"PT","latitude":"38.80774000","longitude":"-9.09925000"},{"id":"89051","name":"Bucelas","state_id":2228,"state_code":"11","country_id":177,"country_code":"PT","latitude":"38.90193000","longitude":"-9.11885000"},{"id":"89053","name":"Cabanas de Torres","state_id":2228,"state_code":"11","country_id":177,"country_code":"PT","latitude":"39.15581000","longitude":"-9.06588000"},{"id":"89059","name":"Cac\u00e9m","state_id":2228,"state_code":"11","country_id":177,"country_code":"PT","latitude":"38.76698000","longitude":"-9.29793000"},{"id":"89060","name":"Cadafais","state_id":2228,"state_code":"11","country_id":177,"country_code":"PT","latitude":"39.00461000","longitude":"-9.00419000"},{"id":"89061","name":"Cadaval","state_id":2228,"state_code":"11","country_id":177,"country_code":"PT","latitude":"39.24621000","longitude":"-9.06738000"},{"id":"89072","name":"Camarate","state_id":2228,"state_code":"11","country_id":177,"country_code":"PT","latitude":"38.80358000","longitude":"-9.12809000"},{"id":"89075","name":"Campelos","state_id":2228,"state_code":"11","country_id":177,"country_code":"PT","latitude":"39.19678000","longitude":"-9.23519000"},{"id":"89083","name":"Cane\u00e7as","state_id":2228,"state_code":"11","country_id":177,"country_code":"PT","latitude":"38.81321000","longitude":"-9.22679000"},{"id":"89092","name":"Carcavelos","state_id":2228,"state_code":"11","country_id":177,"country_code":"PT","latitude":"38.69105000","longitude":"-9.32215000"},{"id":"89093","name":"Carnaxide","state_id":2228,"state_code":"11","country_id":177,"country_code":"PT","latitude":"38.72706000","longitude":"-9.24671000"},{"id":"89096","name":"Carregado","state_id":2228,"state_code":"11","country_id":177,"country_code":"PT","latitude":"39.02362000","longitude":"-8.97692000"},{"id":"89101","name":"Cascais","state_id":2228,"state_code":"11","country_id":177,"country_code":"PT","latitude":"38.69681000","longitude":"-9.42147000"},{"id":"89103","name":"Castanheira do Ribatejo","state_id":2228,"state_code":"11","country_id":177,"country_code":"PT","latitude":"38.99298000","longitude":"-8.97346000"},{"id":"89112","name":"Caxias","state_id":2228,"state_code":"11","country_id":177,"country_code":"PT","latitude":"38.70314000","longitude":"-9.27666000"},{"id":"89117","name":"Charneca","state_id":2228,"state_code":"11","country_id":177,"country_code":"PT","latitude":"38.78351000","longitude":"-9.14348000"},{"id":"89123","name":"Colares","state_id":2228,"state_code":"11","country_id":177,"country_code":"PT","latitude":"38.79921000","longitude":"-9.44691000"},{"id":"89144","name":"Ericeira","state_id":2228,"state_code":"11","country_id":177,"country_code":"PT","latitude":"38.96275000","longitude":"-9.41563000"},{"id":"89155","name":"Estoril","state_id":2228,"state_code":"11","country_id":177,"country_code":"PT","latitude":"38.70571000","longitude":"-9.39773000"},{"id":"89165","name":"Fam\u00f5es","state_id":2228,"state_code":"11","country_id":177,"country_code":"PT","latitude":"38.78804000","longitude":"-9.21033000"},{"id":"89186","name":"Fontanelas","state_id":2228,"state_code":"11","country_id":177,"country_code":"PT","latitude":"38.84806000","longitude":"-9.43942000"},{"id":"89244","name":"Linda-a-Velha","state_id":2228,"state_code":"11","country_id":177,"country_code":"PT","latitude":"38.71446000","longitude":"-9.24220000"},{"id":"89245","name":"Lisbon","state_id":2228,"state_code":"11","country_id":177,"country_code":"PT","latitude":"38.72635000","longitude":"-9.14843000"},{"id":"89251","name":"Loures","state_id":2228,"state_code":"11","country_id":177,"country_code":"PT","latitude":"38.83091000","longitude":"-9.16845000"},{"id":"89252","name":"Lourinh\u00e3","state_id":2228,"state_code":"11","country_id":177,"country_code":"PT","latitude":"39.24745000","longitude":"-9.31194000"},{"id":"89268","name":"Mafra","state_id":2228,"state_code":"11","country_id":177,"country_code":"PT","latitude":"38.94107000","longitude":"-9.32636000"},{"id":"89271","name":"Malveira","state_id":2228,"state_code":"11","country_id":177,"country_code":"PT","latitude":"38.93213000","longitude":"-9.25779000"},{"id":"89283","name":"Massam\u00e1","state_id":2228,"state_code":"11","country_id":177,"country_code":"PT","latitude":"38.75279000","longitude":"-9.28110000"},{"id":"89288","name":"Meca","state_id":2228,"state_code":"11","country_id":177,"country_code":"PT","latitude":"39.08178000","longitude":"-9.03459000"},{"id":"89292","name":"Mem Martins","state_id":2228,"state_code":"11","country_id":177,"country_code":"PT","latitude":"38.79443000","longitude":"-9.34284000"},{"id":"89296","name":"Milharado","state_id":2228,"state_code":"11","country_id":177,"country_code":"PT","latitude":"38.94732000","longitude":"-9.19914000"},{"id":"89310","name":"Moita dos Ferreiros","state_id":2228,"state_code":"11","country_id":177,"country_code":"PT","latitude":"39.24825000","longitude":"-9.22355000"},{"id":"89320","name":"Monte Estoril","state_id":2228,"state_code":"11","country_id":177,"country_code":"PT","latitude":"38.70636000","longitude":"-9.40595000"},{"id":"89332","name":"Moscavide e Portela","state_id":2228,"state_code":"11","country_id":177,"country_code":"PT","latitude":"38.77929000","longitude":"-9.10222000"},{"id":"89353","name":"Odivelas","state_id":2228,"state_code":"11","country_id":177,"country_code":"PT","latitude":"38.79269000","longitude":"-9.18380000"},{"id":"89354","name":"Oeiras","state_id":2228,"state_code":"11","country_id":177,"country_code":"PT","latitude":"38.71371000","longitude":"-9.26832000"},{"id":"89359","name":"Olivais","state_id":2228,"state_code":"11","country_id":177,"country_code":"PT","latitude":"38.76994000","longitude":"-9.10674000"},{"id":"89361","name":"Olival do Basto","state_id":2228,"state_code":"11","country_id":177,"country_code":"PT","latitude":"38.79079000","longitude":"-9.16621000"},{"id":"89371","name":"Ota","state_id":2228,"state_code":"11","country_id":177,"country_code":"PT","latitude":"39.11199000","longitude":"-8.99105000"},{"id":"89386","name":"Pa\u00e7o de Arcos","state_id":2228,"state_code":"11","country_id":177,"country_code":"PT","latitude":"38.69569000","longitude":"-9.29143000"},{"id":"89382","name":"Parede","state_id":2228,"state_code":"11","country_id":177,"country_code":"PT","latitude":"38.69282000","longitude":"-9.35412000"},{"id":"89443","name":"P\u00f3voa de Santa Iria","state_id":2228,"state_code":"11","country_id":177,"country_code":"PT","latitude":"38.86101000","longitude":"-9.06453000"},{"id":"89444","name":"P\u00f3voa de Santo Adri\u00e3o","state_id":2228,"state_code":"11","country_id":177,"country_code":"PT","latitude":"38.80000000","longitude":"-9.16667000"},{"id":"89403","name":"Pero Pinheiro","state_id":2228,"state_code":"11","country_id":177,"country_code":"PT","latitude":"38.85783000","longitude":"-9.32352000"},{"id":"89419","name":"Pontinha","state_id":2228,"state_code":"11","country_id":177,"country_code":"PT","latitude":"38.76771000","longitude":"-9.19935000"},{"id":"89430","name":"Porto Salvo","state_id":2228,"state_code":"11","country_id":177,"country_code":"PT","latitude":"38.72293000","longitude":"-9.30473000"},{"id":"89439","name":"Prior Velho","state_id":2228,"state_code":"11","country_id":177,"country_code":"PT","latitude":"38.79174000","longitude":"-9.12119000"},{"id":"89447","name":"Queijas","state_id":2228,"state_code":"11","country_id":177,"country_code":"PT","latitude":"38.71925000","longitude":"-9.26255000"},{"id":"89448","name":"Queluz","state_id":2228,"state_code":"11","country_id":177,"country_code":"PT","latitude":"38.75657000","longitude":"-9.25451000"},{"id":"89452","name":"Ramada","state_id":2228,"state_code":"11","country_id":177,"country_code":"PT","latitude":"38.80368000","longitude":"-9.18770000"},{"id":"89476","name":"Rio de Mouro","state_id":2228,"state_code":"11","country_id":177,"country_code":"PT","latitude":"38.76613000","longitude":"-9.32804000"},{"id":"89481","name":"Sacav\u00e9m","state_id":2228,"state_code":"11","country_id":177,"country_code":"PT","latitude":"38.79202000","longitude":"-9.10801000"},{"id":"89504","name":"Santa Iria da Az\u00f3ia","state_id":2228,"state_code":"11","country_id":177,"country_code":"PT","latitude":"38.84110000","longitude":"-9.09908000"},{"id":"89514","name":"Santo Ant\u00e3o do Tojal","state_id":2228,"state_code":"11","country_id":177,"country_code":"PT","latitude":"38.85151000","longitude":"-9.13975000"},{"id":"89517","name":"Santo Isidoro","state_id":2228,"state_code":"11","country_id":177,"country_code":"PT","latitude":"38.99593000","longitude":"-9.39940000"},{"id":"89520","name":"Santos-o-Velho","state_id":2228,"state_code":"11","country_id":177,"country_code":"PT","latitude":"38.70690000","longitude":"-9.15611000"},{"id":"89557","name":"S\u00e3o Bartolomeu","state_id":2228,"state_code":"11","country_id":177,"country_code":"PT","latitude":"39.27511000","longitude":"-9.27885000"},{"id":"89561","name":"S\u00e3o Domingos de Rana","state_id":2228,"state_code":"11","country_id":177,"country_code":"PT","latitude":"38.70194000","longitude":"-9.34083000"},{"id":"89567","name":"S\u00e3o Jo\u00e3o da Talha","state_id":2228,"state_code":"11","country_id":177,"country_code":"PT","latitude":"38.82378000","longitude":"-9.09719000"},{"id":"89568","name":"S\u00e3o Jo\u00e3o das Lampas","state_id":2228,"state_code":"11","country_id":177,"country_code":"PT","latitude":"38.87376000","longitude":"-9.39842000"},{"id":"89571","name":"S\u00e3o Jo\u00e3o dos Montes","state_id":2228,"state_code":"11","country_id":177,"country_code":"PT","latitude":"38.93944000","longitude":"-9.01892000"},{"id":"89580","name":"S\u00e3o Pedro da Cadeira","state_id":2228,"state_code":"11","country_id":177,"country_code":"PT","latitude":"39.06983000","longitude":"-9.37174000"},{"id":"89543","name":"Silveira","state_id":2228,"state_code":"11","country_id":177,"country_code":"PT","latitude":"39.11120000","longitude":"-9.36430000"},{"id":"89546","name":"Sintra","state_id":2228,"state_code":"11","country_id":177,"country_code":"PT","latitude":"38.81439000","longitude":"-9.38370000"},{"id":"89548","name":"Sobral de Monte Agra\u00e7o","state_id":2228,"state_code":"11","country_id":177,"country_code":"PT","latitude":"39.01958000","longitude":"-9.15081000"},{"id":"89549","name":"Sobralinho","state_id":2228,"state_code":"11","country_id":177,"country_code":"PT","latitude":"38.91703000","longitude":"-9.02656000"},{"id":"89602","name":"Terrugem","state_id":2228,"state_code":"11","country_id":177,"country_code":"PT","latitude":"38.70647000","longitude":"-9.28693000"},{"id":"89608","name":"Torres Vedras","state_id":2228,"state_code":"11","country_id":177,"country_code":"PT","latitude":"39.09109000","longitude":"-9.25860000"},{"id":"89617","name":"Unhos","state_id":2228,"state_code":"11","country_id":177,"country_code":"PT","latitude":"38.81958000","longitude":"-9.12007000"},{"id":"89634","name":"Venda do Pinheiro","state_id":2228,"state_code":"11","country_id":177,"country_code":"PT","latitude":"38.92365000","longitude":"-9.23178000"},{"id":"89636","name":"Ventosa","state_id":2228,"state_code":"11","country_id":177,"country_code":"PT","latitude":"39.12696000","longitude":"-9.08423000"},{"id":"89638","name":"Vialonga","state_id":2228,"state_code":"11","country_id":177,"country_code":"PT","latitude":"38.87206000","longitude":"-9.07805000"},{"id":"89649","name":"Vila Franca de Xira","state_id":2228,"state_code":"11","country_id":177,"country_code":"PT","latitude":"38.92137000","longitude":"-9.03220000"},{"id":"89667","name":"Vila Verde","state_id":2228,"state_code":"11","country_id":177,"country_code":"PT","latitude":"39.15489000","longitude":"-9.11512000"},{"id":"89681","name":"Vimeiro","state_id":2228,"state_code":"11","country_id":177,"country_code":"PT","latitude":"39.17768000","longitude":"-9.31702000"}]