[{"id":"88925","name":"Aldeia Nova de S\u00e3o Bento","state_id":2230,"state_code":"02","country_id":177,"country_code":"PT","latitude":"37.92603000","longitude":"-7.40804000"},{"id":"88944","name":"Aljustrel","state_id":2230,"state_code":"02","country_id":177,"country_code":"PT","latitude":"37.87759000","longitude":"-8.16516000"},{"id":"88949","name":"Almod\u00f4var","state_id":2230,"state_code":"02","country_id":177,"country_code":"PT","latitude":"37.49590000","longitude":"-8.09372000"},{"id":"88950","name":"Almograve","state_id":2230,"state_code":"02","country_id":177,"country_code":"PT","latitude":"37.65665000","longitude":"-8.79214000"},{"id":"88957","name":"Alvito","state_id":2230,"state_code":"02","country_id":177,"country_code":"PT","latitude":"38.24653000","longitude":"-8.05038000"},{"id":"89020","name":"Barrancos","state_id":2230,"state_code":"02","country_id":177,"country_code":"PT","latitude":"38.13446000","longitude":"-6.97604000"},{"id":"89027","name":"Beja","state_id":2230,"state_code":"02","country_id":177,"country_code":"PT","latitude":"38.01506000","longitude":"-7.86323000"},{"id":"89036","name":"Beringel","state_id":2230,"state_code":"02","country_id":177,"country_code":"PT","latitude":"38.05656000","longitude":"-7.98427000"},{"id":"89039","name":"Boavista dos Pinheiros","state_id":2230,"state_code":"02","country_id":177,"country_code":"PT","latitude":"37.58058000","longitude":"-8.66441000"},{"id":"89056","name":"Cabe\u00e7a Gorda","state_id":2230,"state_code":"02","country_id":177,"country_code":"PT","latitude":"37.92401000","longitude":"-7.79290000"},{"id":"89111","name":"Castro Verde","state_id":2230,"state_code":"02","country_id":177,"country_code":"PT","latitude":"37.69828000","longitude":"-8.08581000"},{"id":"89136","name":"Cuba","state_id":2230,"state_code":"02","country_id":177,"country_code":"PT","latitude":"38.21972000","longitude":"-7.92114000"},{"id":"89176","name":"Ferreira do Alentejo","state_id":2230,"state_code":"02","country_id":177,"country_code":"PT","latitude":"38.05000000","longitude":"-8.03333000"},{"id":"89340","name":"M\u00e9rtola","state_id":2230,"state_code":"02","country_id":177,"country_code":"PT","latitude":"37.65918000","longitude":"-7.66434000"},{"id":"89299","name":"Minas de S\u00e3o Domingos","state_id":2230,"state_code":"02","country_id":177,"country_code":"PT","latitude":"37.67322000","longitude":"-7.49765000"},{"id":"89335","name":"Moura","state_id":2230,"state_code":"02","country_id":177,"country_code":"PT","latitude":"38.14010000","longitude":"-7.44856000"},{"id":"89346","name":"Neves","state_id":2230,"state_code":"02","country_id":177,"country_code":"PT","latitude":"38.02270000","longitude":"-7.81344000"},{"id":"89352","name":"Odemira","state_id":2230,"state_code":"02","country_id":177,"country_code":"PT","latitude":"37.59798000","longitude":"-8.63972000"},{"id":"89372","name":"Ourique","state_id":2230,"state_code":"02","country_id":177,"country_code":"PT","latitude":"37.69156000","longitude":"-8.31031000"},{"id":"89397","name":"Penedo Gordo","state_id":2230,"state_code":"02","country_id":177,"country_code":"PT","latitude":"37.98477000","longitude":"-7.91651000"},{"id":"89485","name":"Salvada","state_id":2230,"state_code":"02","country_id":177,"country_code":"PT","latitude":"37.93771000","longitude":"-7.77448000"},{"id":"89572","name":"S\u00e3o Luis","state_id":2230,"state_code":"02","country_id":177,"country_code":"PT","latitude":"37.71556000","longitude":"-8.66472000"},{"id":"89590","name":"S\u00e3o Teot\u00f3nio","state_id":2230,"state_code":"02","country_id":177,"country_code":"PT","latitude":"37.51282000","longitude":"-8.70708000"},{"id":"89533","name":"Serpa","state_id":2230,"state_code":"02","country_id":177,"country_code":"PT","latitude":"37.95201000","longitude":"-7.47534000"},{"id":"89642","name":"Vidigueira","state_id":2230,"state_code":"02","country_id":177,"country_code":"PT","latitude":"38.18448000","longitude":"-7.74469000"},{"id":"89658","name":"Vila Nova de Milfontes","state_id":2230,"state_code":"02","country_id":177,"country_code":"PT","latitude":"37.72377000","longitude":"-8.78278000"},{"id":"89690","name":"Zambujeira do Mar","state_id":2230,"state_code":"02","country_id":177,"country_code":"PT","latitude":"37.52799000","longitude":"-8.78483000"}]