[{"id":"88981","name":"Arcos de Valdevez","state_id":2245,"state_code":"16","country_id":177,"country_code":"PT","latitude":"41.84668000","longitude":"-8.41905000"},{"id":"88983","name":"Areosa","state_id":2245,"state_code":"16","country_id":177,"country_code":"PT","latitude":"41.71779000","longitude":"-8.85707000"},{"id":"89073","name":"Caminha","state_id":2245,"state_code":"16","country_id":177,"country_code":"PT","latitude":"41.84647000","longitude":"-8.80133000"},{"id":"89140","name":"Darque","state_id":2245,"state_code":"16","country_id":177,"country_code":"PT","latitude":"41.68333000","longitude":"-8.76667000"},{"id":"89286","name":"Meadela","state_id":2245,"state_code":"16","country_id":177,"country_code":"PT","latitude":"41.70654000","longitude":"-8.79628000"},{"id":"89290","name":"Melga\u00e7o","state_id":2245,"state_code":"16","country_id":177,"country_code":"PT","latitude":"42.08067000","longitude":"-8.24844000"},{"id":"89327","name":"Mon\u00e7\u00e3o","state_id":2245,"state_code":"16","country_id":177,"country_code":"PT","latitude":"42.07892000","longitude":"-8.48076000"},{"id":"89337","name":"Mozelos","state_id":2245,"state_code":"16","country_id":177,"country_code":"PT","latitude":"41.86774000","longitude":"-8.39776000"},{"id":"89384","name":"Paredes de Coura","state_id":2245,"state_code":"16","country_id":177,"country_code":"PT","latitude":"41.90995000","longitude":"-8.57034000"},{"id":"89416","name":"Ponte da Barca","state_id":2245,"state_code":"16","country_id":177,"country_code":"PT","latitude":"41.80669000","longitude":"-8.31014000"},{"id":"89417","name":"Ponte de Lima","state_id":2245,"state_code":"16","country_id":177,"country_code":"PT","latitude":"41.74682000","longitude":"-8.57637000"},{"id":"89629","name":"Valen\u00e7a","state_id":2245,"state_code":"16","country_id":177,"country_code":"PT","latitude":"42.02821000","longitude":"-8.63388000"},{"id":"89628","name":"Valenza","state_id":2245,"state_code":"16","country_id":177,"country_code":"PT","latitude":"42.02418000","longitude":"-8.63474000"},{"id":"89640","name":"Viana do Castelo","state_id":2245,"state_code":"16","country_id":177,"country_code":"PT","latitude":"41.69371000","longitude":"-8.83456000"},{"id":"89662","name":"Vila Praia de \u00c2ncora","state_id":2245,"state_code":"16","country_id":177,"country_code":"PT","latitude":"41.81098000","longitude":"-8.85255000"}]