[{"id":"88929","name":"Alfarelos","state_id":2246,"state_code":"06","country_id":177,"country_code":"PT","latitude":"40.15057000","longitude":"-8.65326000"},{"id":"88938","name":"Alhadas","state_id":2246,"state_code":"06","country_id":177,"country_code":"PT","latitude":"40.18607000","longitude":"-8.79057000"},{"id":"88972","name":"An\u00e7\u00e3","state_id":2246,"state_code":"06","country_id":177,"country_code":"PT","latitude":"40.27161000","longitude":"-8.52090000"},{"id":"88977","name":"Arazede","state_id":2246,"state_code":"06","country_id":177,"country_code":"PT","latitude":"40.28627000","longitude":"-8.64999000"},{"id":"88984","name":"Arganil","state_id":2246,"state_code":"06","country_id":177,"country_code":"PT","latitude":"40.21826000","longitude":"-8.05403000"},{"id":"88998","name":"Assafarge","state_id":2246,"state_code":"06","country_id":177,"country_code":"PT","latitude":"40.15895000","longitude":"-8.43167000"},{"id":"89050","name":"Buarcos","state_id":2246,"state_code":"06","country_id":177,"country_code":"PT","latitude":"40.16604000","longitude":"-8.87680000"},{"id":"89088","name":"Cantanhede","state_id":2246,"state_code":"06","country_id":177,"country_code":"PT","latitude":"40.36354000","longitude":"-8.60549000"},{"id":"89091","name":"Carapinheira","state_id":2246,"state_code":"06","country_id":177,"country_code":"PT","latitude":"40.20620000","longitude":"-8.64810000"},{"id":"89122","name":"Coimbra","state_id":2246,"state_code":"06","country_id":177,"country_code":"PT","latitude":"40.20564000","longitude":"-8.41955000"},{"id":"89126","name":"Condeixa-a-Nova","state_id":2246,"state_code":"06","country_id":177,"country_code":"PT","latitude":"40.10639000","longitude":"-8.49632000"},{"id":"89182","name":"Figueira da Foz","state_id":2246,"state_code":"06","country_id":177,"country_code":"PT","latitude":"40.15085000","longitude":"-8.86179000"},{"id":"89222","name":"G\u00f3is","state_id":2246,"state_code":"06","country_id":177,"country_code":"PT","latitude":"40.12535000","longitude":"-8.08340000"},{"id":"89238","name":"Lavos","state_id":2246,"state_code":"06","country_id":177,"country_code":"PT","latitude":"40.09363000","longitude":"-8.82826000"},{"id":"89249","name":"Lorv\u00e3o","state_id":2246,"state_code":"06","country_id":177,"country_code":"PT","latitude":"40.25938000","longitude":"-8.31683000"},{"id":"89256","name":"Lous\u00e3","state_id":2246,"state_code":"06","country_id":177,"country_code":"PT","latitude":"40.11673000","longitude":"-8.24921000"},{"id":"89303","name":"Mira","state_id":2246,"state_code":"06","country_id":177,"country_code":"PT","latitude":"40.44559000","longitude":"-8.73849000"},{"id":"89304","name":"Miranda do Corvo","state_id":2246,"state_code":"06","country_id":177,"country_code":"PT","latitude":"40.09318000","longitude":"-8.33261000"},{"id":"89325","name":"Montemor-o-Velho","state_id":2246,"state_code":"06","country_id":177,"country_code":"PT","latitude":"40.19385000","longitude":"-8.66696000"},{"id":"89368","name":"Oliveira do Hospital","state_id":2246,"state_code":"06","country_id":177,"country_code":"PT","latitude":"40.35522000","longitude":"-7.86481000"},{"id":"89369","name":"Oliveira do Mondego","state_id":2246,"state_code":"06","country_id":177,"country_code":"PT","latitude":"40.32305000","longitude":"-8.22367000"},{"id":"89378","name":"Pampilhosa da Serra","state_id":2246,"state_code":"06","country_id":177,"country_code":"PT","latitude":"40.04620000","longitude":"-7.95182000"},{"id":"89393","name":"Penacova","state_id":2246,"state_code":"06","country_id":177,"country_code":"PT","latitude":"40.26884000","longitude":"-8.28237000"},{"id":"89399","name":"Penela","state_id":2246,"state_code":"06","country_id":177,"country_code":"PT","latitude":"40.03333000","longitude":"-8.38333000"},{"id":"89410","name":"Poiares","state_id":2246,"state_code":"06","country_id":177,"country_code":"PT","latitude":"40.21026000","longitude":"-8.25746000"},{"id":"89497","name":"Santa Clara","state_id":2246,"state_code":"06","country_id":177,"country_code":"PT","latitude":"40.19985000","longitude":"-8.44018000"},{"id":"89516","name":"Santo Ant\u00f3nio dos Olivais","state_id":2246,"state_code":"06","country_id":177,"country_code":"PT","latitude":"40.21805000","longitude":"-8.40523000"},{"id":"89582","name":"S\u00e3o Pedro de Alva","state_id":2246,"state_code":"06","country_id":177,"country_code":"PT","latitude":"40.30044000","longitude":"-8.16623000"},{"id":"89552","name":"Soure","state_id":2246,"state_code":"06","country_id":177,"country_code":"PT","latitude":"40.05989000","longitude":"-8.62605000"},{"id":"89596","name":"Tavarede","state_id":2246,"state_code":"06","country_id":177,"country_code":"PT","latitude":"40.16692000","longitude":"-8.84568000"},{"id":"89616","name":"T\u00e1bua","state_id":2246,"state_code":"06","country_id":177,"country_code":"PT","latitude":"40.36207000","longitude":"-8.02936000"},{"id":"89603","name":"Tocha","state_id":2246,"state_code":"06","country_id":177,"country_code":"PT","latitude":"40.31308000","longitude":"-8.75339000"},{"id":"89611","name":"Travanca","state_id":2246,"state_code":"06","country_id":177,"country_code":"PT","latitude":"40.32357000","longitude":"-8.18687000"},{"id":"89660","name":"Vila Nova de Poiares","state_id":2246,"state_code":"06","country_id":177,"country_code":"PT","latitude":"40.22129000","longitude":"-8.24105000"}]