[{"id":"22103","name":"\u00c1gios Tom\u00e1s","state_id":748,"state_code":"02","country_id":57,"country_code":"CY","latitude":"34.71158000","longitude":"32.73129000"},{"id":"22105","name":"\u00ddpsonas","state_id":748,"state_code":"02","country_id":57,"country_code":"CY","latitude":"34.68797000","longitude":"32.96191000"},{"id":"22028","name":"Er\u00edmi","state_id":748,"state_code":"02","country_id":57,"country_code":"CY","latitude":"34.67766000","longitude":"32.91815000"},{"id":"22031","name":"Germas\u00f3geia","state_id":748,"state_code":"02","country_id":57,"country_code":"CY","latitude":"34.72207000","longitude":"33.08254000"},{"id":"22044","name":"Kypero\u00fanta","state_id":748,"state_code":"02","country_id":57,"country_code":"CY","latitude":"34.93815000","longitude":"32.97551000"},{"id":"22053","name":"Lemes\u00f3s","state_id":748,"state_code":"02","country_id":57,"country_code":"CY","latitude":"34.69218000","longitude":"33.02854000"},{"id":"22055","name":"Limassol","state_id":748,"state_code":"02","country_id":57,"country_code":"CY","latitude":"34.68406000","longitude":"33.03794000"},{"id":"22065","name":"Mouttagi\u00e1ka","state_id":748,"state_code":"02","country_id":57,"country_code":"CY","latitude":"34.72022000","longitude":"33.10066000"},{"id":"22073","name":"Parekklisha","state_id":748,"state_code":"02","country_id":57,"country_code":"CY","latitude":"34.74583000","longitude":"33.15833000"},{"id":"22082","name":"P\u00e1chna","state_id":748,"state_code":"02","country_id":57,"country_code":"CY","latitude":"34.77874000","longitude":"32.79355000"},{"id":"22084","name":"P\u00e1no Polem\u00eddia","state_id":748,"state_code":"02","country_id":57,"country_code":"CY","latitude":"34.70559000","longitude":"32.99269000"},{"id":"22074","name":"Pel\u00e9ndri","state_id":748,"state_code":"02","country_id":57,"country_code":"CY","latitude":"34.89597000","longitude":"32.96817000"},{"id":"22077","name":"Pisso\u00fari","state_id":748,"state_code":"02","country_id":57,"country_code":"CY","latitude":"34.66942000","longitude":"32.70132000"},{"id":"22081","name":"Pyrgos","state_id":748,"state_code":"02","country_id":57,"country_code":"CY","latitude":"34.74167000","longitude":"33.18333000"},{"id":"22092","name":"So\u00fani-Zanaki\u00e1","state_id":748,"state_code":"02","country_id":57,"country_code":"CY","latitude":"34.73570000","longitude":"32.88437000"},{"id":"22091","name":"Sot\u00edra","state_id":748,"state_code":"02","country_id":57,"country_code":"CY","latitude":"34.71189000","longitude":"32.86340000"}]