[{"id":"10257","name":"Angra dos Reis","state_id":1997,"state_code":"RJ","country_id":31,"country_code":"BR","latitude":"-23.00667000","longitude":"-44.31806000"},{"id":"10291","name":"Aperib\u00e9","state_id":1997,"state_code":"RJ","country_id":31,"country_code":"BR","latitude":"-21.64148000","longitude":"-42.12753000"},{"id":"10356","name":"Araruama","state_id":1997,"state_code":"RJ","country_id":31,"country_code":"BR","latitude":"-22.87278000","longitude":"-42.34306000"},{"id":"10381","name":"Areal","state_id":1997,"state_code":"RJ","country_id":31,"country_code":"BR","latitude":"-22.23056000","longitude":"-43.10556000"},{"id":"10401","name":"Arma\u00e7\u00e3o de B\u00fazios","state_id":1997,"state_code":"RJ","country_id":31,"country_code":"BR","latitude":"-22.74694000","longitude":"-41.88167000"},{"id":"10402","name":"Arma\u00e7\u00e3o dos B\u00fazios","state_id":1997,"state_code":"RJ","country_id":31,"country_code":"BR","latitude":"-22.76948000","longitude":"-41.90965000"},{"id":"10408","name":"Arraial do Cabo","state_id":1997,"state_code":"RJ","country_id":31,"country_code":"BR","latitude":"-22.95505000","longitude":"-42.06098000"},{"id":"10540","name":"Barra do Pira\u00ed","state_id":1997,"state_code":"RJ","country_id":31,"country_code":"BR","latitude":"-22.47000000","longitude":"-43.82556000"},{"id":"10520","name":"Barra Mansa","state_id":1997,"state_code":"RJ","country_id":31,"country_code":"BR","latitude":"-22.54417000","longitude":"-44.17139000"},{"id":"10602","name":"Belford Roxo","state_id":1997,"state_code":"RJ","country_id":31,"country_code":"BR","latitude":"-22.76417000","longitude":"-43.39944000"},{"id":"10694","name":"Bom Jardim","state_id":1997,"state_code":"RJ","country_id":31,"country_code":"BR","latitude":"-22.17871000","longitude":"-42.33515000"},{"id":"10711","name":"Bom Jesus do Itabapoana","state_id":1997,"state_code":"RJ","country_id":31,"country_code":"BR","latitude":"-21.13389000","longitude":"-41.67972000"},{"id":"10853","name":"Cabo Frio","state_id":1997,"state_code":"RJ","country_id":31,"country_code":"BR","latitude":"-22.88717000","longitude":"-42.02622000"},{"id":"10875","name":"Cachoeiras de Macacu","state_id":1997,"state_code":"RJ","country_id":31,"country_code":"BR","latitude":"-22.46250000","longitude":"-42.65306000"},{"id":"10948","name":"Cambuci","state_id":1997,"state_code":"RJ","country_id":31,"country_code":"BR","latitude":"-21.57528000","longitude":"-41.91111000"},{"id":"11019","name":"Campos dos Goytacazes","state_id":1997,"state_code":"RJ","country_id":31,"country_code":"BR","latitude":"-21.75227000","longitude":"-41.33044000"},{"id":"11052","name":"Cantagalo","state_id":1997,"state_code":"RJ","country_id":31,"country_code":"BR","latitude":"-21.98111000","longitude":"-42.36806000"},{"id":"11108","name":"Carapebus","state_id":1997,"state_code":"RJ","country_id":31,"country_code":"BR","latitude":"-22.22429000","longitude":"-41.61306000"},{"id":"11123","name":"Cardoso Moreira","state_id":1997,"state_code":"RJ","country_id":31,"country_code":"BR","latitude":"-21.51166000","longitude":"-41.46121000"},{"id":"11142","name":"Carmo","state_id":1997,"state_code":"RJ","country_id":31,"country_code":"BR","latitude":"-21.89966000","longitude":"-42.53760000"},{"id":"11180","name":"Casimiro de Abreu","state_id":1997,"state_code":"RJ","country_id":31,"country_code":"BR","latitude":"-22.48056000","longitude":"-42.20417000"},{"id":"11341","name":"Comendador Levy Gasparian","state_id":1997,"state_code":"RJ","country_id":31,"country_code":"BR","latitude":"-22.03655000","longitude":"-43.25312000"},{"id":"11352","name":"Concei\u00e7\u00e3o de Macabu","state_id":1997,"state_code":"RJ","country_id":31,"country_code":"BR","latitude":"-22.12612000","longitude":"-41.85341000"},{"id":"11399","name":"Cordeiro","state_id":1997,"state_code":"RJ","country_id":31,"country_code":"BR","latitude":"-22.02861000","longitude":"-42.36083000"},{"id":"11664","name":"Duas Barras","state_id":1997,"state_code":"RJ","country_id":31,"country_code":"BR","latitude":"-22.07281000","longitude":"-42.52467000"},{"id":"11669","name":"Duque de Caxias","state_id":1997,"state_code":"RJ","country_id":31,"country_code":"BR","latitude":"-22.78556000","longitude":"-43.31167000"},{"id":"11702","name":"Engenheiro Paulo de Frontin","state_id":1997,"state_code":"RJ","country_id":31,"country_code":"BR","latitude":"-22.54807000","longitude":"-43.67270000"},{"id":"12028","name":"Guapimirim","state_id":1997,"state_code":"RJ","country_id":31,"country_code":"BR","latitude":"-22.58914000","longitude":"-42.97530000"},{"id":"12195","name":"Iguaba Grande","state_id":1997,"state_code":"RJ","country_id":31,"country_code":"BR","latitude":"-22.83917000","longitude":"-42.22889000"},{"id":"12207","name":"Ilha Grande","state_id":1997,"state_code":"RJ","country_id":31,"country_code":"BR","latitude":"-23.15236000","longitude":"-44.23164000"},{"id":"12336","name":"Itabora\u00ed","state_id":1997,"state_code":"RJ","country_id":31,"country_code":"BR","latitude":"-22.74444000","longitude":"-42.85944000"},{"id":"12357","name":"Itagua\u00ed","state_id":1997,"state_code":"RJ","country_id":31,"country_code":"BR","latitude":"-22.85222000","longitude":"-43.77528000"},{"id":"12374","name":"Italva","state_id":1997,"state_code":"RJ","country_id":31,"country_code":"BR","latitude":"-21.38401000","longitude":"-41.66728000"},{"id":"12397","name":"Itaocara","state_id":1997,"state_code":"RJ","country_id":31,"country_code":"BR","latitude":"-21.77006000","longitude":"-42.07488000"},{"id":"12410","name":"Itaperuna","state_id":1997,"state_code":"RJ","country_id":31,"country_code":"BR","latitude":"-21.20500000","longitude":"-41.88778000"},{"id":"12454","name":"Itatiaia","state_id":1997,"state_code":"RJ","country_id":31,"country_code":"BR","latitude":"-22.41099000","longitude":"-44.57621000"},{"id":"12569","name":"Japeri","state_id":1997,"state_code":"RJ","country_id":31,"country_code":"BR","latitude":"-22.64306000","longitude":"-43.65333000"},{"id":"12774","name":"Laje do Muria\u00e9","state_id":1997,"state_code":"RJ","country_id":31,"country_code":"BR","latitude":"-21.23762000","longitude":"-42.13269000"},{"id":"12892","name":"Maca\u00e9","state_id":1997,"state_code":"RJ","country_id":31,"country_code":"BR","latitude":"-22.38484000","longitude":"-41.78324000"},{"id":"12903","name":"Macuco","state_id":1997,"state_code":"RJ","country_id":31,"country_code":"BR","latitude":"-22.02427000","longitude":"-42.27369000"},{"id":"12914","name":"Mag\u00e9","state_id":1997,"state_code":"RJ","country_id":31,"country_code":"BR","latitude":"-22.63490000","longitude":"-43.12056000"},{"id":"12947","name":"Mangaratiba","state_id":1997,"state_code":"RJ","country_id":31,"country_code":"BR","latitude":"-22.95972000","longitude":"-44.04056000"},{"id":"13012","name":"Maric\u00e1","state_id":1997,"state_code":"RJ","country_id":31,"country_code":"BR","latitude":"-22.91630000","longitude":"-42.82203000"},{"id":"13097","name":"Mendes","state_id":1997,"state_code":"RJ","country_id":31,"country_code":"BR","latitude":"-22.54316000","longitude":"-43.74899000"},{"id":"13104","name":"Mesquita","state_id":1997,"state_code":"RJ","country_id":31,"country_code":"BR","latitude":"-22.78993000","longitude":"-43.45966000"},{"id":"13112","name":"Miguel Pereira","state_id":1997,"state_code":"RJ","country_id":31,"country_code":"BR","latitude":"-22.45389000","longitude":"-43.46889000"},{"id":"13132","name":"Miracema","state_id":1997,"state_code":"RJ","country_id":31,"country_code":"BR","latitude":"-21.37442000","longitude":"-42.15048000"},{"id":"13301","name":"Natividade","state_id":1997,"state_code":"RJ","country_id":31,"country_code":"BR","latitude":"-21.04222000","longitude":"-41.97333000"},{"id":"13325","name":"Nil\u00f3polis","state_id":1997,"state_code":"RJ","country_id":31,"country_code":"BR","latitude":"-22.82106000","longitude":"-43.42703000"},{"id":"13331","name":"Niter\u00f3i","state_id":1997,"state_code":"RJ","country_id":31,"country_code":"BR","latitude":"-22.91715000","longitude":"-43.08391000"},{"id":"13380","name":"Nova Friburgo","state_id":1997,"state_code":"RJ","country_id":31,"country_code":"BR","latitude":"-22.28194000","longitude":"-42.53111000"},{"id":"13389","name":"Nova Igua\u00e7u","state_id":1997,"state_code":"RJ","country_id":31,"country_code":"BR","latitude":"-22.75917000","longitude":"-43.45111000"},{"id":"13658","name":"Para\u00edba do Sul","state_id":1997,"state_code":"RJ","country_id":31,"country_code":"BR","latitude":"-22.15847000","longitude":"-43.29321000"},{"id":"13623","name":"Paracambi","state_id":1997,"state_code":"RJ","country_id":31,"country_code":"BR","latitude":"-22.60829000","longitude":"-43.70840000"},{"id":"13654","name":"Paraty","state_id":1997,"state_code":"RJ","country_id":31,"country_code":"BR","latitude":"-23.21778000","longitude":"-44.71306000"},{"id":"13713","name":"Paty do Alferes","state_id":1997,"state_code":"RJ","country_id":31,"country_code":"BR","latitude":"-22.42861000","longitude":"-43.41861000"},{"id":"13821","name":"Petr\u00f3polis","state_id":1997,"state_code":"RJ","country_id":31,"country_code":"BR","latitude":"-22.38219000","longitude":"-43.15909000"},{"id":"13866","name":"Pinheiral","state_id":1997,"state_code":"RJ","country_id":31,"country_code":"BR","latitude":"-22.51278000","longitude":"-44.00056000"},{"id":"13910","name":"Pira\u00ed","state_id":1997,"state_code":"RJ","country_id":31,"country_code":"BR","latitude":"-22.62917000","longitude":"-43.89806000"},{"id":"13984","name":"Porci\u00fancula","state_id":1997,"state_code":"RJ","country_id":31,"country_code":"BR","latitude":"-20.96278000","longitude":"-42.04083000"},{"id":"14013","name":"Porto Real","state_id":1997,"state_code":"RJ","country_id":31,"country_code":"BR","latitude":"-22.41972000","longitude":"-44.29028000"},{"id":"14131","name":"Quatis","state_id":1997,"state_code":"RJ","country_id":31,"country_code":"BR","latitude":"-22.40722000","longitude":"-44.25806000"},{"id":"14141","name":"Queimados","state_id":1997,"state_code":"RJ","country_id":31,"country_code":"BR","latitude":"-22.71611000","longitude":"-43.55528000"},{"id":"14155","name":"Quissam\u00e3","state_id":1997,"state_code":"RJ","country_id":31,"country_code":"BR","latitude":"-22.09574000","longitude":"-41.39137000"},{"id":"14197","name":"Resende","state_id":1997,"state_code":"RJ","country_id":31,"country_code":"BR","latitude":"-22.46889000","longitude":"-44.44667000"},{"id":"14261","name":"Rio Bonito","state_id":1997,"state_code":"RJ","country_id":31,"country_code":"BR","latitude":"-22.74390000","longitude":"-42.61916000"},{"id":"14270","name":"Rio Claro","state_id":1997,"state_code":"RJ","country_id":31,"country_code":"BR","latitude":"-22.77976000","longitude":"-44.07721000"},{"id":"14305","name":"Rio das Flores","state_id":1997,"state_code":"RJ","country_id":31,"country_code":"BR","latitude":"-22.16104000","longitude":"-43.57579000"},{"id":"14306","name":"Rio das Ostras","state_id":1997,"state_code":"RJ","country_id":31,"country_code":"BR","latitude":"-22.52694000","longitude":"-41.94500000"},{"id":"14309","name":"Rio de Janeiro","state_id":1997,"state_code":"RJ","country_id":31,"country_code":"BR","latitude":"-22.92008000","longitude":"-43.33069000"},{"id":"14504","name":"Santa Maria Madalena","state_id":1997,"state_code":"RJ","country_id":31,"country_code":"BR","latitude":"-21.95791000","longitude":"-41.90903000"},{"id":"14620","name":"Santo Ant\u00f4nio de P\u00e1dua","state_id":1997,"state_code":"RJ","country_id":31,"country_code":"BR","latitude":"-21.57245000","longitude":"-42.21090000"},{"id":"14662","name":"Sapucaia","state_id":1997,"state_code":"RJ","country_id":31,"country_code":"BR","latitude":"-22.04085000","longitude":"-42.81392000"},{"id":"14666","name":"Saquarema","state_id":1997,"state_code":"RJ","country_id":31,"country_code":"BR","latitude":"-22.92000000","longitude":"-42.51028000"},{"id":"14878","name":"S\u00e3o Fid\u00e9lis","state_id":1997,"state_code":"RJ","country_id":31,"country_code":"BR","latitude":"-21.64611000","longitude":"-41.74694000"},{"id":"14886","name":"S\u00e3o Francisco de Itabapoana","state_id":1997,"state_code":"RJ","country_id":31,"country_code":"BR","latitude":"-21.38002000","longitude":"-41.14905000"},{"id":"14916","name":"S\u00e3o Gon\u00e7alo","state_id":1997,"state_code":"RJ","country_id":31,"country_code":"BR","latitude":"-22.82694000","longitude":"-43.05389000"},{"id":"15006","name":"S\u00e3o Jo\u00e3o da Barra","state_id":1997,"state_code":"RJ","country_id":31,"country_code":"BR","latitude":"-21.64028000","longitude":"-41.05111000"},{"id":"15021","name":"S\u00e3o Jo\u00e3o de Meriti","state_id":1997,"state_code":"RJ","country_id":31,"country_code":"BR","latitude":"-22.80389000","longitude":"-43.37222000"},{"id":"14958","name":"S\u00e3o Jos\u00e9 de Ub\u00e1","state_id":1997,"state_code":"RJ","country_id":31,"country_code":"BR","latitude":"-21.37831000","longitude":"-41.95256000"},{"id":"14989","name":"S\u00e3o Jos\u00e9 do Vale do Rio Preto","state_id":1997,"state_code":"RJ","country_id":31,"country_code":"BR","latitude":"-22.17062000","longitude":"-42.91651000"},{"id":"15105","name":"S\u00e3o Pedro","state_id":1997,"state_code":"RJ","country_id":31,"country_code":"BR","latitude":"-22.42313000","longitude":"-42.96612000"},{"id":"15108","name":"S\u00e3o Pedro da Aldeia","state_id":1997,"state_code":"RJ","country_id":31,"country_code":"BR","latitude":"-22.83917000","longitude":"-42.10278000"},{"id":"15143","name":"S\u00e3o Sebasti\u00e3o do Alto","state_id":1997,"state_code":"RJ","country_id":31,"country_code":"BR","latitude":"-21.86591000","longitude":"-42.09585000"},{"id":"14720","name":"Serop\u00e9dica","state_id":1997,"state_code":"RJ","country_id":31,"country_code":"BR","latitude":"-22.73876000","longitude":"-43.70855000"},{"id":"14775","name":"Silva Jardim","state_id":1997,"state_code":"RJ","country_id":31,"country_code":"BR","latitude":"-22.65083000","longitude":"-42.39167000"},{"id":"14824","name":"Sumidouro","state_id":1997,"state_code":"RJ","country_id":31,"country_code":"BR","latitude":"-22.13179000","longitude":"-42.66127000"},{"id":"15218","name":"Tangu\u00e1","state_id":1997,"state_code":"RJ","country_id":31,"country_code":"BR","latitude":"-22.79184000","longitude":"-42.71941000"},{"id":"15286","name":"Teres\u00f3polis","state_id":1997,"state_code":"RJ","country_id":31,"country_code":"BR","latitude":"-22.31349000","longitude":"-42.87414000"},{"id":"15350","name":"Trajano de Moraes","state_id":1997,"state_code":"RJ","country_id":31,"country_code":"BR","latitude":"-22.15204000","longitude":"-42.18834000"},{"id":"15383","name":"Tr\u00eas Rios","state_id":1997,"state_code":"RJ","country_id":31,"country_code":"BR","latitude":"-22.12121000","longitude":"-43.06617000"},{"id":"15500","name":"Valen\u00e7a","state_id":1997,"state_code":"RJ","country_id":31,"country_code":"BR","latitude":"-22.24020000","longitude":"-43.87843000"},{"id":"15521","name":"Varre-Sai","state_id":1997,"state_code":"RJ","country_id":31,"country_code":"BR","latitude":"-20.89839000","longitude":"-41.81982000"},{"id":"15524","name":"Vassouras","state_id":1997,"state_code":"RJ","country_id":31,"country_code":"BR","latitude":"-22.35995000","longitude":"-43.59809000"},{"id":"15610","name":"Volta Redonda","state_id":1997,"state_code":"RJ","country_id":31,"country_code":"BR","latitude":"-22.52306000","longitude":"-44.10417000"}]