[{"id":"10060","name":"Abati\u00e1","state_id":2022,"state_code":"PR","country_id":31,"country_code":"BR","latitude":"-23.29903000","longitude":"-50.32176000"},{"id":"10083","name":"Adrian\u00f3polis","state_id":2022,"state_code":"PR","country_id":31,"country_code":"BR","latitude":"-24.76632000","longitude":"-48.79998000"},{"id":"10099","name":"Agudos do Sul","state_id":2022,"state_code":"PR","country_id":31,"country_code":"BR","latitude":"-26.04616000","longitude":"-49.31186000"},{"id":"10144","name":"Almirante Tamandar\u00e9","state_id":2022,"state_code":"PR","country_id":31,"country_code":"BR","latitude":"-25.32472000","longitude":"-49.31000000"},{"id":"10155","name":"Altamira do Paran\u00e1","state_id":2022,"state_code":"PR","country_id":31,"country_code":"BR","latitude":"-24.81257000","longitude":"-52.70740000"},{"id":"10187","name":"Alt\u00e3nia","state_id":2022,"state_code":"PR","country_id":31,"country_code":"BR","latitude":"-23.87444000","longitude":"-53.90167000"},{"id":"10188","name":"Alt\u00f4nia","state_id":2022,"state_code":"PR","country_id":31,"country_code":"BR","latitude":"-23.88648000","longitude":"-53.96852000"},{"id":"10177","name":"Alto Para\u00edso","state_id":2022,"state_code":"PR","country_id":31,"country_code":"BR","latitude":"-23.55498000","longitude":"-53.80770000"},{"id":"10175","name":"Alto Paran\u00e1","state_id":2022,"state_code":"PR","country_id":31,"country_code":"BR","latitude":"-23.06783000","longitude":"-52.31196000"},{"id":"10180","name":"Alto Piquiri","state_id":2022,"state_code":"PR","country_id":31,"country_code":"BR","latitude":"-24.12973000","longitude":"-53.34661000"},{"id":"10200","name":"Alvorada do Sul","state_id":2022,"state_code":"PR","country_id":31,"country_code":"BR","latitude":"-22.80928000","longitude":"-51.27421000"},{"id":"10203","name":"Amapor\u00e3","state_id":2022,"state_code":"PR","country_id":31,"country_code":"BR","latitude":"-23.13633000","longitude":"-52.83810000"},{"id":"10222","name":"Amp\u00e9re","state_id":2022,"state_code":"PR","country_id":31,"country_code":"BR","latitude":"-25.91242000","longitude":"-53.49366000"},{"id":"10229","name":"Anahy","state_id":2022,"state_code":"PR","country_id":31,"country_code":"BR","latitude":"-24.66517000","longitude":"-53.13229000"},{"id":"10243","name":"Andir\u00e1","state_id":2022,"state_code":"PR","country_id":31,"country_code":"BR","latitude":"-23.03931000","longitude":"-50.27404000"},{"id":"10279","name":"Ant\u00f4nio Olinto","state_id":2022,"state_code":"PR","country_id":31,"country_code":"BR","latitude":"-25.96435000","longitude":"-50.12992000"},{"id":"10269","name":"Antonina","state_id":2022,"state_code":"PR","country_id":31,"country_code":"BR","latitude":"-25.28425000","longitude":"-48.72037000"},{"id":"10301","name":"Apucarana","state_id":2022,"state_code":"PR","country_id":31,"country_code":"BR","latitude":"-23.56159000","longitude":"-51.45358000"},{"id":"10340","name":"Arapongas","state_id":2022,"state_code":"PR","country_id":31,"country_code":"BR","latitude":"-23.41944000","longitude":"-51.42444000"},{"id":"10342","name":"Arapoti","state_id":2022,"state_code":"PR","country_id":31,"country_code":"BR","latitude":"-24.06902000","longitude":"-50.03733000"},{"id":"10345","name":"Arapu\u00e3","state_id":2022,"state_code":"PR","country_id":31,"country_code":"BR","latitude":"-24.31991000","longitude":"-51.81138000"},{"id":"10358","name":"Araruna","state_id":2022,"state_code":"PR","country_id":31,"country_code":"BR","latitude":"-23.97219000","longitude":"-52.59131000"},{"id":"10363","name":"Arauc\u00e1ria","state_id":2022,"state_code":"PR","country_id":31,"country_code":"BR","latitude":"-25.59306000","longitude":"-49.41028000"},{"id":"10398","name":"Ariranha do Iva\u00ed","state_id":2022,"state_code":"PR","country_id":31,"country_code":"BR","latitude":"-24.35185000","longitude":"-51.53194000"},{"id":"10426","name":"Assa\u00ed","state_id":2022,"state_code":"PR","country_id":31,"country_code":"BR","latitude":"-23.37333000","longitude":"-50.84139000"},{"id":"10429","name":"Assis Chateaubriand","state_id":2022,"state_code":"PR","country_id":31,"country_code":"BR","latitude":"-24.40824000","longitude":"-53.53328000"},{"id":"10433","name":"Astorga","state_id":2022,"state_code":"PR","country_id":31,"country_code":"BR","latitude":"-23.24011000","longitude":"-51.69541000"},{"id":"10435","name":"Atalaia","state_id":2022,"state_code":"PR","country_id":31,"country_code":"BR","latitude":"-23.12728000","longitude":"-52.04286000"},{"id":"15681","name":"\u00c2ngulo","state_id":2022,"state_code":"PR","country_id":31,"country_code":"BR","latitude":"-23.21625000","longitude":"-51.93851000"},{"id":"10491","name":"Balsa Nova","state_id":2022,"state_code":"PR","country_id":31,"country_code":"BR","latitude":"-25.52151000","longitude":"-49.67738000"},{"id":"10500","name":"Bandeirantes","state_id":2022,"state_code":"PR","country_id":31,"country_code":"BR","latitude":"-23.15516000","longitude":"-50.33873000"},{"id":"10510","name":"Barbosa Ferraz","state_id":2022,"state_code":"PR","country_id":31,"country_code":"BR","latitude":"-24.06134000","longitude":"-52.05494000"},{"id":"10537","name":"Barra do Jacar\u00e9","state_id":2022,"state_code":"PR","country_id":31,"country_code":"BR","latitude":"-23.11066000","longitude":"-50.15719000"},{"id":"10547","name":"Barrac\u00e3o","state_id":2022,"state_code":"PR","country_id":31,"country_code":"BR","latitude":"-26.24009000","longitude":"-53.52586000"},{"id":"10595","name":"Bela Vista da Caroba","state_id":2022,"state_code":"PR","country_id":31,"country_code":"BR","latitude":"-25.87398000","longitude":"-53.62755000"},{"id":"10599","name":"Bela Vista do Para\u00edso","state_id":2022,"state_code":"PR","country_id":31,"country_code":"BR","latitude":"-22.99667000","longitude":"-51.19056000"},{"id":"10655","name":"Bituruna","state_id":2022,"state_code":"PR","country_id":31,"country_code":"BR","latitude":"-26.18538000","longitude":"-51.54497000"},{"id":"10659","name":"Boa Esperan\u00e7a","state_id":2022,"state_code":"PR","country_id":31,"country_code":"BR","latitude":"-24.24372000","longitude":"-52.73574000"},{"id":"10660","name":"Boa Esperan\u00e7a do Igua\u00e7u","state_id":2022,"state_code":"PR","country_id":31,"country_code":"BR","latitude":"-25.63520000","longitude":"-53.22621000"},{"id":"10665","name":"Boa Ventura de S\u00e3o Roque","state_id":2022,"state_code":"PR","country_id":31,"country_code":"BR","latitude":"-24.84082000","longitude":"-51.55638000"},{"id":"10668","name":"Boa Vista da Aparecida","state_id":2022,"state_code":"PR","country_id":31,"country_code":"BR","latitude":"-25.43709000","longitude":"-53.41293000"},{"id":"10684","name":"Bocai\u00fava do Sul","state_id":2022,"state_code":"PR","country_id":31,"country_code":"BR","latitude":"-25.10040000","longitude":"-48.87116000"},{"id":"10714","name":"Bom Jesus do Sul","state_id":2022,"state_code":"PR","country_id":31,"country_code":"BR","latitude":"-26.15280000","longitude":"-53.54963000"},{"id":"10727","name":"Bom Sucesso","state_id":2022,"state_code":"PR","country_id":31,"country_code":"BR","latitude":"-23.69506000","longitude":"-51.81945000"},{"id":"10729","name":"Bom Sucesso do Sul","state_id":2022,"state_code":"PR","country_id":31,"country_code":"BR","latitude":"-26.08239000","longitude":"-52.85103000"},{"id":"10754","name":"Borraz\u00f3polis","state_id":2022,"state_code":"PR","country_id":31,"country_code":"BR","latitude":"-23.93931000","longitude":"-51.60141000"},{"id":"10764","name":"Braganey","state_id":2022,"state_code":"PR","country_id":31,"country_code":"BR","latitude":"-24.79019000","longitude":"-53.08864000"},{"id":"10772","name":"Brasil\u00e2ndia do Sul","state_id":2022,"state_code":"PR","country_id":31,"country_code":"BR","latitude":"-24.21682000","longitude":"-53.57250000"},{"id":"10894","name":"Cafeara","state_id":2022,"state_code":"PR","country_id":31,"country_code":"BR","latitude":"-22.79980000","longitude":"-51.71428000"},{"id":"10896","name":"Cafel\u00e2ndia","state_id":2022,"state_code":"PR","country_id":31,"country_code":"BR","latitude":"-24.69297000","longitude":"-53.35090000"},{"id":"10897","name":"Cafezal do Sul","state_id":2022,"state_code":"PR","country_id":31,"country_code":"BR","latitude":"-23.95645000","longitude":"-53.60910000"},{"id":"10929","name":"Calif\u00f3rnia","state_id":2022,"state_code":"PR","country_id":31,"country_code":"BR","latitude":"-23.66340000","longitude":"-51.32824000"},{"id":"10944","name":"Cambar\u00e1","state_id":2022,"state_code":"PR","country_id":31,"country_code":"BR","latitude":"-23.00420000","longitude":"-50.08819000"},{"id":"10951","name":"Camb\u00e9","state_id":2022,"state_code":"PR","country_id":31,"country_code":"BR","latitude":"-23.27583000","longitude":"-51.27833000"},{"id":"10946","name":"Cambira","state_id":2022,"state_code":"PR","country_id":31,"country_code":"BR","latitude":"-23.63164000","longitude":"-51.56671000"},{"id":"10965","name":"Campina da Lagoa","state_id":2022,"state_code":"PR","country_id":31,"country_code":"BR","latitude":"-24.60154000","longitude":"-52.78545000"},{"id":"10968","name":"Campina do Sim\u00e3o","state_id":2022,"state_code":"PR","country_id":31,"country_code":"BR","latitude":"-25.08478000","longitude":"-51.78423000"},{"id":"10963","name":"Campina Grande do Sul","state_id":2022,"state_code":"PR","country_id":31,"country_code":"BR","latitude":"-25.30556000","longitude":"-49.05528000"},{"id":"10985","name":"Campo Bonito","state_id":2022,"state_code":"PR","country_id":31,"country_code":"BR","latitude":"-24.88808000","longitude":"-53.01009000"},{"id":"11007","name":"Campo do Tenente","state_id":2022,"state_code":"PR","country_id":31,"country_code":"BR","latitude":"-25.95791000","longitude":"-49.65936000"},{"id":"10992","name":"Campo Largo","state_id":2022,"state_code":"PR","country_id":31,"country_code":"BR","latitude":"-25.45955000","longitude":"-49.53014000"},{"id":"10996","name":"Campo Magro","state_id":2022,"state_code":"PR","country_id":31,"country_code":"BR","latitude":"-25.26822000","longitude":"-49.47580000"},{"id":"10998","name":"Campo Mour\u00e3o","state_id":2022,"state_code":"PR","country_id":31,"country_code":"BR","latitude":"-24.04309000","longitude":"-52.37929000"},{"id":"11039","name":"Cand\u00f3i","state_id":2022,"state_code":"PR","country_id":31,"country_code":"BR","latitude":"-25.51315000","longitude":"-52.02243000"},{"id":"11054","name":"Cantagalo","state_id":2022,"state_code":"PR","country_id":31,"country_code":"BR","latitude":"-25.29530000","longitude":"-52.15269000"},{"id":"11063","name":"Capanema","state_id":2022,"state_code":"PR","country_id":31,"country_code":"BR","latitude":"-25.61839000","longitude":"-53.79262000"},{"id":"11084","name":"Capit\u00e3o Le\u00f4nidas Marques","state_id":2022,"state_code":"PR","country_id":31,"country_code":"BR","latitude":"-25.47998000","longitude":"-53.58797000"},{"id":"11104","name":"Carambe\u00ed","state_id":2022,"state_code":"PR","country_id":31,"country_code":"BR","latitude":"-24.95260000","longitude":"-50.11590000"},{"id":"11141","name":"Carl\u00f3polis","state_id":2022,"state_code":"PR","country_id":31,"country_code":"BR","latitude":"-23.44971000","longitude":"-49.70142000"},{"id":"11176","name":"Cascavel","state_id":2022,"state_code":"PR","country_id":31,"country_code":"BR","latitude":"-24.95583000","longitude":"-53.45528000"},{"id":"11191","name":"Castro","state_id":2022,"state_code":"PR","country_id":31,"country_code":"BR","latitude":"-24.83040000","longitude":"-49.85535000"},{"id":"11196","name":"Catanduvas","state_id":2022,"state_code":"PR","country_id":31,"country_code":"BR","latitude":"-25.26047000","longitude":"-53.17016000"},{"id":"11550","name":"C\u00e2ndido de Abreu","state_id":2022,"state_code":"PR","country_id":31,"country_code":"BR","latitude":"-24.56694000","longitude":"-51.33333000"},{"id":"11551","name":"C\u00e9u Azul","state_id":2022,"state_code":"PR","country_id":31,"country_code":"BR","latitude":"-25.29831000","longitude":"-53.74848000"},{"id":"11237","name":"Centen\u00e1rio do Sul","state_id":2022,"state_code":"PR","country_id":31,"country_code":"BR","latitude":"-22.82111000","longitude":"-51.59528000"},{"id":"11249","name":"Cerro Azul","state_id":2022,"state_code":"PR","country_id":31,"country_code":"BR","latitude":"-24.85878000","longitude":"-49.29561000"},{"id":"11278","name":"Chopinzinho","state_id":2022,"state_code":"PR","country_id":31,"country_code":"BR","latitude":"-25.81428000","longitude":"-52.45682000"},{"id":"11289","name":"Cianorte","state_id":2022,"state_code":"PR","country_id":31,"country_code":"BR","latitude":"-23.66333000","longitude":"-52.60500000"},{"id":"11290","name":"Cidade Ga\u00facha","state_id":2022,"state_code":"PR","country_id":31,"country_code":"BR","latitude":"-23.36535000","longitude":"-52.97466000"},{"id":"11300","name":"Clevel\u00e2ndia","state_id":2022,"state_code":"PR","country_id":31,"country_code":"BR","latitude":"-26.39583000","longitude":"-52.47083000"},{"id":"11328","name":"Colombo","state_id":2022,"state_code":"PR","country_id":31,"country_code":"BR","latitude":"-25.30126000","longitude":"-49.16965000"},{"id":"11329","name":"Colorado","state_id":2022,"state_code":"PR","country_id":31,"country_code":"BR","latitude":"-22.83750000","longitude":"-51.97306000"},{"id":"11381","name":"Congonhinhas","state_id":2022,"state_code":"PR","country_id":31,"country_code":"BR","latitude":"-23.62943000","longitude":"-50.49858000"},{"id":"11385","name":"Conselheiro Mairinck","state_id":2022,"state_code":"PR","country_id":31,"country_code":"BR","latitude":"-23.58771000","longitude":"-50.11629000"},{"id":"11390","name":"Contenda","state_id":2022,"state_code":"PR","country_id":31,"country_code":"BR","latitude":"-25.71409000","longitude":"-49.50798000"},{"id":"11398","name":"Corb\u00e9lia","state_id":2022,"state_code":"PR","country_id":31,"country_code":"BR","latitude":"-24.79889000","longitude":"-53.30667000"},{"id":"11410","name":"Corn\u00e9lio Proc\u00f3pio","state_id":2022,"state_code":"PR","country_id":31,"country_code":"BR","latitude":"-23.18111000","longitude":"-50.64667000"},{"id":"11417","name":"Coronel Domingos Soares","state_id":2022,"state_code":"PR","country_id":31,"country_code":"BR","latitude":"-26.18290000","longitude":"-51.97777000"},{"id":"11430","name":"Coronel Vivida","state_id":2022,"state_code":"PR","country_id":31,"country_code":"BR","latitude":"-25.97972000","longitude":"-52.56778000"},{"id":"11439","name":"Corumbata\u00ed do Sul","state_id":2022,"state_code":"PR","country_id":31,"country_code":"BR","latitude":"-24.12007000","longitude":"-52.14622000"},{"id":"11490","name":"Cruz Machado","state_id":2022,"state_code":"PR","country_id":31,"country_code":"BR","latitude":"-25.91086000","longitude":"-51.22563000"},{"id":"11496","name":"Cruzeiro do Igua\u00e7u","state_id":2022,"state_code":"PR","country_id":31,"country_code":"BR","latitude":"-25.60303000","longitude":"-53.12736000"},{"id":"11497","name":"Cruzeiro do Oeste","state_id":2022,"state_code":"PR","country_id":31,"country_code":"BR","latitude":"-23.78500000","longitude":"-53.07333000"},{"id":"11499","name":"Cruzeiro do Sul","state_id":2022,"state_code":"PR","country_id":31,"country_code":"BR","latitude":"-22.97418000","longitude":"-52.15969000"},{"id":"11502","name":"Cruzmaltina","state_id":2022,"state_code":"PR","country_id":31,"country_code":"BR","latitude":"-24.02357000","longitude":"-51.48481000"},{"id":"11526","name":"Curi\u00fava","state_id":2022,"state_code":"PR","country_id":31,"country_code":"BR","latitude":"-24.00386000","longitude":"-50.46541000"},{"id":"11524","name":"Curitiba","state_id":2022,"state_code":"PR","country_id":31,"country_code":"BR","latitude":"-25.42778000","longitude":"-49.27306000"},{"id":"11585","name":"Diamante d'Oeste","state_id":2022,"state_code":"PR","country_id":31,"country_code":"BR","latitude":"-24.94559000","longitude":"-54.10349000"},{"id":"11586","name":"Diamante do Norte","state_id":2022,"state_code":"PR","country_id":31,"country_code":"BR","latitude":"-22.63752000","longitude":"-52.87280000"},{"id":"11587","name":"Diamante do Sul","state_id":2022,"state_code":"PR","country_id":31,"country_code":"BR","latitude":"-24.98680000","longitude":"-52.70134000"},{"id":"11620","name":"Dois Vizinhos","state_id":2022,"state_code":"PR","country_id":31,"country_code":"BR","latitude":"-25.73361000","longitude":"-53.05722000"},{"id":"11650","name":"Douradina","state_id":2022,"state_code":"PR","country_id":31,"country_code":"BR","latitude":"-23.34040000","longitude":"-53.27489000"},{"id":"11655","name":"Doutor Camargo","state_id":2022,"state_code":"PR","country_id":31,"country_code":"BR","latitude":"-23.56158000","longitude":"-52.22341000"},{"id":"11660","name":"Doutor Ulysses","state_id":2022,"state_code":"PR","country_id":31,"country_code":"BR","latitude":"-24.63500000","longitude":"-49.40020000"},{"id":"11712","name":"En\u00e9as Marques","state_id":2022,"state_code":"PR","country_id":31,"country_code":"BR","latitude":"-25.86454000","longitude":"-53.15902000"},{"id":"11698","name":"Engenheiro Beltr\u00e3o","state_id":2022,"state_code":"PR","country_id":31,"country_code":"BR","latitude":"-23.79722000","longitude":"-52.26917000"},{"id":"11708","name":"Entre Rios do Oeste","state_id":2022,"state_code":"PR","country_id":31,"country_code":"BR","latitude":"-24.70408000","longitude":"-54.21562000"},{"id":"11732","name":"Esperan\u00e7a Nova","state_id":2022,"state_code":"PR","country_id":31,"country_code":"BR","latitude":"-23.71008000","longitude":"-53.79362000"},{"id":"11734","name":"Espig\u00e3o Alto do Igua\u00e7u","state_id":2022,"state_code":"PR","country_id":31,"country_code":"BR","latitude":"-25.35011000","longitude":"-52.77923000"},{"id":"11777","name":"Farol","state_id":2022,"state_code":"PR","country_id":31,"country_code":"BR","latitude":"-24.10348000","longitude":"-52.66314000"},{"id":"11781","name":"Faxinal","state_id":2022,"state_code":"PR","country_id":31,"country_code":"BR","latitude":"-24.00028000","longitude":"-51.31944000"},{"id":"11786","name":"Fazenda Rio Grande","state_id":2022,"state_code":"PR","country_id":31,"country_code":"BR","latitude":"-25.66466000","longitude":"-49.30426000"},{"id":"11909","name":"F\u00eanix","state_id":2022,"state_code":"PR","country_id":31,"country_code":"BR","latitude":"-23.90551000","longitude":"-52.03998000"},{"id":"11802","name":"Fernandes Pinheiro","state_id":2022,"state_code":"PR","country_id":31,"country_code":"BR","latitude":"-25.44403000","longitude":"-50.51811000"},{"id":"11816","name":"Figueira","state_id":2022,"state_code":"PR","country_id":31,"country_code":"BR","latitude":"-23.86125000","longitude":"-50.42076000"},{"id":"11846","name":"Fl\u00f3rida","state_id":2022,"state_code":"PR","country_id":31,"country_code":"BR","latitude":"-23.11265000","longitude":"-51.97861000"},{"id":"11825","name":"Flor da Serra do Sul","state_id":2022,"state_code":"PR","country_id":31,"country_code":"BR","latitude":"-26.23081000","longitude":"-53.30368000"},{"id":"11828","name":"Flora\u00ed","state_id":2022,"state_code":"PR","country_id":31,"country_code":"BR","latitude":"-23.32830000","longitude":"-52.32422000"},{"id":"11835","name":"Floresta","state_id":2022,"state_code":"PR","country_id":31,"country_code":"BR","latitude":"-23.63014000","longitude":"-52.07630000"},{"id":"11840","name":"Florest\u00f3polis","state_id":2022,"state_code":"PR","country_id":31,"country_code":"BR","latitude":"-22.86333000","longitude":"-51.38722000"},{"id":"11854","name":"Formosa do Oeste","state_id":2022,"state_code":"PR","country_id":31,"country_code":"BR","latitude":"-24.30836000","longitude":"-53.32776000"},{"id":"11871","name":"Foz do Igua\u00e7u","state_id":2022,"state_code":"PR","country_id":31,"country_code":"BR","latitude":"-25.54778000","longitude":"-54.58806000"},{"id":"11872","name":"Foz do Jord\u00e3o","state_id":2022,"state_code":"PR","country_id":31,"country_code":"BR","latitude":"-25.69523000","longitude":"-52.06075000"},{"id":"11876","name":"Francisco Alves","state_id":2022,"state_code":"PR","country_id":31,"country_code":"BR","latitude":"-24.06510000","longitude":"-53.88444000"},{"id":"11879","name":"Francisco Beltr\u00e3o","state_id":2022,"state_code":"PR","country_id":31,"country_code":"BR","latitude":"-26.08111000","longitude":"-53.05500000"},{"id":"11934","name":"General Carneiro","state_id":2022,"state_code":"PR","country_id":31,"country_code":"BR","latitude":"-26.43749000","longitude":"-51.40075000"},{"id":"11955","name":"Godoy Moreira","state_id":2022,"state_code":"PR","country_id":31,"country_code":"BR","latitude":"-24.14813000","longitude":"-51.91555000"},{"id":"11968","name":"Goioer\u00ea","state_id":2022,"state_code":"PR","country_id":31,"country_code":"BR","latitude":"-24.18868000","longitude":"-53.09916000"},{"id":"11969","name":"Goioxim","state_id":2022,"state_code":"PR","country_id":31,"country_code":"BR","latitude":"-25.09533000","longitude":"-52.00812000"},{"id":"11996","name":"Grandes Rios","state_id":2022,"state_code":"PR","country_id":31,"country_code":"BR","latitude":"-24.18645000","longitude":"-51.43460000"},{"id":"12078","name":"Gua\u00edra","state_id":2022,"state_code":"PR","country_id":31,"country_code":"BR","latitude":"-24.26175000","longitude":"-54.23821000"},{"id":"12015","name":"Guaira\u00e7\u00e1","state_id":2022,"state_code":"PR","country_id":31,"country_code":"BR","latitude":"-22.90548000","longitude":"-52.74878000"},{"id":"12023","name":"Guamiranga","state_id":2022,"state_code":"PR","country_id":31,"country_code":"BR","latitude":"-25.15028000","longitude":"-50.86182000"},{"id":"12029","name":"Guapirama","state_id":2022,"state_code":"PR","country_id":31,"country_code":"BR","latitude":"-23.46840000","longitude":"-50.09128000"},{"id":"12030","name":"Guaporema","state_id":2022,"state_code":"PR","country_id":31,"country_code":"BR","latitude":"-23.31022000","longitude":"-52.82479000"},{"id":"12036","name":"Guaraci","state_id":2022,"state_code":"PR","country_id":31,"country_code":"BR","latitude":"-22.97343000","longitude":"-51.69739000"},{"id":"12047","name":"Guarania\u00e7u","state_id":2022,"state_code":"PR","country_id":31,"country_code":"BR","latitude":"-25.10083000","longitude":"-52.87806000"},{"id":"12052","name":"Guarapuava","state_id":2022,"state_code":"PR","country_id":31,"country_code":"BR","latitude":"-25.39048000","longitude":"-51.46541000"},{"id":"12053","name":"Guaraque\u00e7aba","state_id":2022,"state_code":"PR","country_id":31,"country_code":"BR","latitude":"-25.15156000","longitude":"-48.35949000"},{"id":"12059","name":"Guaratuba","state_id":2022,"state_code":"PR","country_id":31,"country_code":"BR","latitude":"-25.88278000","longitude":"-48.57472000"},{"id":"12104","name":"Hon\u00f3rio Serpa","state_id":2022,"state_code":"PR","country_id":31,"country_code":"BR","latitude":"-26.13779000","longitude":"-52.39614000"},{"id":"12120","name":"Ibaiti","state_id":2022,"state_code":"PR","country_id":31,"country_code":"BR","latitude":"-23.84861000","longitude":"-50.18778000"},{"id":"12126","name":"Ibema","state_id":2022,"state_code":"PR","country_id":31,"country_code":"BR","latitude":"-25.16493000","longitude":"-53.01268000"},{"id":"12142","name":"Ibipor\u00e3","state_id":2022,"state_code":"PR","country_id":31,"country_code":"BR","latitude":"-23.26917000","longitude":"-51.04806000"},{"id":"12169","name":"Icara\u00edma","state_id":2022,"state_code":"PR","country_id":31,"country_code":"BR","latitude":"-23.37235000","longitude":"-53.59492000"},{"id":"12198","name":"Iguara\u00e7u","state_id":2022,"state_code":"PR","country_id":31,"country_code":"BR","latitude":"-23.23375000","longitude":"-51.85341000"},{"id":"12202","name":"Iguatu","state_id":2022,"state_code":"PR","country_id":31,"country_code":"BR","latitude":"-24.68784000","longitude":"-53.08691000"},{"id":"12219","name":"Imba\u00fa","state_id":2022,"state_code":"PR","country_id":31,"country_code":"BR","latitude":"-24.44336000","longitude":"-50.73882000"},{"id":"12221","name":"Imbituva","state_id":2022,"state_code":"PR","country_id":31,"country_code":"BR","latitude":"-25.23000000","longitude":"-50.60444000"},{"id":"12229","name":"Inaj\u00e1","state_id":2022,"state_code":"PR","country_id":31,"country_code":"BR","latitude":"-22.71509000","longitude":"-52.24126000"},{"id":"12256","name":"In\u00e1cio Martins","state_id":2022,"state_code":"PR","country_id":31,"country_code":"BR","latitude":"-25.64000000","longitude":"-51.22000000"},{"id":"12238","name":"Indian\u00f3polis","state_id":2022,"state_code":"PR","country_id":31,"country_code":"BR","latitude":"-23.47975000","longitude":"-52.64153000"},{"id":"12275","name":"Ipiranga","state_id":2022,"state_code":"PR","country_id":31,"country_code":"BR","latitude":"-25.01590000","longitude":"-50.55475000"},{"id":"12286","name":"Ipor\u00e3","state_id":2022,"state_code":"PR","country_id":31,"country_code":"BR","latitude":"-24.04512000","longitude":"-53.71983000"},{"id":"12301","name":"Iracema do Oeste","state_id":2022,"state_code":"PR","country_id":31,"country_code":"BR","latitude":"-24.43665000","longitude":"-53.33842000"},{"id":"12312","name":"Irati","state_id":2022,"state_code":"PR","country_id":31,"country_code":"BR","latitude":"-25.46722000","longitude":"-50.65111000"},{"id":"12318","name":"Iretama","state_id":2022,"state_code":"PR","country_id":31,"country_code":"BR","latitude":"-24.34412000","longitude":"-52.10655000"},{"id":"12472","name":"Ita\u00fana do Sul","state_id":2022,"state_code":"PR","country_id":31,"country_code":"BR","latitude":"-22.73684000","longitude":"-52.89236000"},{"id":"12350","name":"Itaguaj\u00e9","state_id":2022,"state_code":"PR","country_id":31,"country_code":"BR","latitude":"-22.66099000","longitude":"-51.98288000"},{"id":"12360","name":"Itaipul\u00e2ndia","state_id":2022,"state_code":"PR","country_id":31,"country_code":"BR","latitude":"-25.16335000","longitude":"-54.34354000"},{"id":"12382","name":"Itambarac\u00e1","state_id":2022,"state_code":"PR","country_id":31,"country_code":"BR","latitude":"-22.98385000","longitude":"-50.42715000"},{"id":"12384","name":"Itamb\u00e9","state_id":2022,"state_code":"PR","country_id":31,"country_code":"BR","latitude":"-23.68805000","longitude":"-52.01227000"},{"id":"12407","name":"Itapejara d'Oeste","state_id":2022,"state_code":"PR","country_id":31,"country_code":"BR","latitude":"-25.97797000","longitude":"-52.82583000"},{"id":"12411","name":"Itaperu\u00e7u","state_id":2022,"state_code":"PR","country_id":31,"country_code":"BR","latitude":"-25.22000000","longitude":"-49.34778000"},{"id":"12501","name":"Iva\u00ed","state_id":2022,"state_code":"PR","country_id":31,"country_code":"BR","latitude":"-24.99384000","longitude":"-50.86192000"},{"id":"12498","name":"Ivaipor\u00e3","state_id":2022,"state_code":"PR","country_id":31,"country_code":"BR","latitude":"-24.28230000","longitude":"-51.63284000"},{"id":"12500","name":"Ivat\u00e9","state_id":2022,"state_code":"PR","country_id":31,"country_code":"BR","latitude":"-23.33716000","longitude":"-53.42407000"},{"id":"12499","name":"Ivatuba","state_id":2022,"state_code":"PR","country_id":31,"country_code":"BR","latitude":"-23.59716000","longitude":"-52.19434000"},{"id":"12513","name":"Jaboti","state_id":2022,"state_code":"PR","country_id":31,"country_code":"BR","latitude":"-23.69532000","longitude":"-50.07376000"},{"id":"12520","name":"Jacarezinho","state_id":2022,"state_code":"PR","country_id":31,"country_code":"BR","latitude":"-23.19072000","longitude":"-49.95410000"},{"id":"12536","name":"Jaguapit\u00e3","state_id":2022,"state_code":"PR","country_id":31,"country_code":"BR","latitude":"-23.07631000","longitude":"-51.58296000"},{"id":"12542","name":"Jaguaria\u00edva","state_id":2022,"state_code":"PR","country_id":31,"country_code":"BR","latitude":"-24.24423000","longitude":"-49.70932000"},{"id":"12557","name":"Jandaia do Sul","state_id":2022,"state_code":"PR","country_id":31,"country_code":"BR","latitude":"-23.60306000","longitude":"-51.64333000"},{"id":"12563","name":"Jani\u00f3polis","state_id":2022,"state_code":"PR","country_id":31,"country_code":"BR","latitude":"-24.08843000","longitude":"-52.80294000"},{"id":"12571","name":"Japira","state_id":2022,"state_code":"PR","country_id":31,"country_code":"BR","latitude":"-23.69047000","longitude":"-50.18011000"},{"id":"12576","name":"Japur\u00e1","state_id":2022,"state_code":"PR","country_id":31,"country_code":"BR","latitude":"-23.41860000","longitude":"-52.56220000"},{"id":"12585","name":"Jardim Alegre","state_id":2022,"state_code":"PR","country_id":31,"country_code":"BR","latitude":"-24.21451000","longitude":"-51.72270000"},{"id":"12586","name":"Jardim Olinda","state_id":2022,"state_code":"PR","country_id":31,"country_code":"BR","latitude":"-22.56938000","longitude":"-52.06520000"},{"id":"12597","name":"Jataizinho","state_id":2022,"state_code":"PR","country_id":31,"country_code":"BR","latitude":"-23.25417000","longitude":"-50.98000000"},{"id":"12626","name":"Jesu\u00edtas","state_id":2022,"state_code":"PR","country_id":31,"country_code":"BR","latitude":"-24.41301000","longitude":"-53.41344000"},{"id":"12640","name":"Joaquim T\u00e1vora","state_id":2022,"state_code":"PR","country_id":31,"country_code":"BR","latitude":"-23.42218000","longitude":"-49.90251000"},{"id":"12685","name":"Jundia\u00ed do Sul","state_id":2022,"state_code":"PR","country_id":31,"country_code":"BR","latitude":"-23.47919000","longitude":"-50.18065000"},{"id":"12695","name":"Juranda","state_id":2022,"state_code":"PR","country_id":31,"country_code":"BR","latitude":"-24.41323000","longitude":"-52.82730000"},{"id":"12706","name":"Jussara","state_id":2022,"state_code":"PR","country_id":31,"country_code":"BR","latitude":"-23.62121000","longitude":"-52.47084000"},{"id":"12720","name":"Kalor\u00e9","state_id":2022,"state_code":"PR","country_id":31,"country_code":"BR","latitude":"-23.86713000","longitude":"-51.68029000"},{"id":"12792","name":"Lapa","state_id":2022,"state_code":"PR","country_id":31,"country_code":"BR","latitude":"-25.76972000","longitude":"-49.71583000"},{"id":"12796","name":"Laranjal","state_id":2022,"state_code":"PR","country_id":31,"country_code":"BR","latitude":"-24.92573000","longitude":"-52.45952000"},{"id":"12800","name":"Laranjeiras do Sul","state_id":2022,"state_code":"PR","country_id":31,"country_code":"BR","latitude":"-25.40778000","longitude":"-52.41611000"},{"id":"12822","name":"Le\u00f3polis","state_id":2022,"state_code":"PR","country_id":31,"country_code":"BR","latitude":"-23.02502000","longitude":"-50.72558000"},{"id":"12826","name":"Lidian\u00f3polis","state_id":2022,"state_code":"PR","country_id":31,"country_code":"BR","latitude":"-24.08135000","longitude":"-51.64406000"},{"id":"12835","name":"Lindoeste","state_id":2022,"state_code":"PR","country_id":31,"country_code":"BR","latitude":"-25.26796000","longitude":"-53.56870000"},{"id":"12846","name":"Loanda","state_id":2022,"state_code":"PR","country_id":31,"country_code":"BR","latitude":"-22.92306000","longitude":"-53.13722000"},{"id":"12847","name":"Lobato","state_id":2022,"state_code":"PR","country_id":31,"country_code":"BR","latitude":"-22.96387000","longitude":"-52.00714000"},{"id":"12849","name":"Londrina","state_id":2022,"state_code":"PR","country_id":31,"country_code":"BR","latitude":"-23.31028000","longitude":"-51.16278000"},{"id":"12866","name":"Luiziana","state_id":2022,"state_code":"PR","country_id":31,"country_code":"BR","latitude":"-24.34081000","longitude":"-52.27043000"},{"id":"12869","name":"Lunardelli","state_id":2022,"state_code":"PR","country_id":31,"country_code":"BR","latitude":"-24.07214000","longitude":"-51.76003000"},{"id":"12870","name":"Lupion\u00f3polis","state_id":2022,"state_code":"PR","country_id":31,"country_code":"BR","latitude":"-22.73847000","longitude":"-51.68386000"},{"id":"12929","name":"Mallet","state_id":2022,"state_code":"PR","country_id":31,"country_code":"BR","latitude":"-25.90209000","longitude":"-50.83050000"},{"id":"12933","name":"Mambor\u00ea","state_id":2022,"state_code":"PR","country_id":31,"country_code":"BR","latitude":"-24.40607000","longitude":"-52.61692000"},{"id":"12942","name":"Mandagua\u00e7u","state_id":2022,"state_code":"PR","country_id":31,"country_code":"BR","latitude":"-23.34722000","longitude":"-52.09528000"},{"id":"12941","name":"Mandaguari","state_id":2022,"state_code":"PR","country_id":31,"country_code":"BR","latitude":"-23.54750000","longitude":"-51.67083000"},{"id":"12943","name":"Mandirituba","state_id":2022,"state_code":"PR","country_id":31,"country_code":"BR","latitude":"-25.84677000","longitude":"-49.32704000"},{"id":"12945","name":"Manfrin\u00f3polis","state_id":2022,"state_code":"PR","country_id":31,"country_code":"BR","latitude":"-26.10011000","longitude":"-53.35828000"},{"id":"12948","name":"Mangueirinha","state_id":2022,"state_code":"PR","country_id":31,"country_code":"BR","latitude":"-26.03649000","longitude":"-52.22257000"},{"id":"12953","name":"Manoel Ribas","state_id":2022,"state_code":"PR","country_id":31,"country_code":"BR","latitude":"-24.52402000","longitude":"-51.63111000"},{"id":"12998","name":"Marechal C\u00e2ndido Rondon","state_id":2022,"state_code":"PR","country_id":31,"country_code":"BR","latitude":"-24.55611000","longitude":"-54.05667000"},{"id":"13004","name":"Maria Helena","state_id":2022,"state_code":"PR","country_id":31,"country_code":"BR","latitude":"-23.55348000","longitude":"-53.23153000"},{"id":"13006","name":"Marialva","state_id":2022,"state_code":"PR","country_id":31,"country_code":"BR","latitude":"-23.48500000","longitude":"-51.79167000"},{"id":"13025","name":"Mari\u00f3polis","state_id":2022,"state_code":"PR","country_id":31,"country_code":"BR","latitude":"-26.31630000","longitude":"-52.57421000"},{"id":"13017","name":"Maril\u00e2ndia do Sul","state_id":2022,"state_code":"PR","country_id":31,"country_code":"BR","latitude":"-23.74380000","longitude":"-51.29410000"},{"id":"13014","name":"Marilena","state_id":2022,"state_code":"PR","country_id":31,"country_code":"BR","latitude":"-22.72742000","longitude":"-53.08170000"},{"id":"13015","name":"Mariluz","state_id":2022,"state_code":"PR","country_id":31,"country_code":"BR","latitude":"-24.06183000","longitude":"-53.22984000"},{"id":"13018","name":"Maring\u00e1","state_id":2022,"state_code":"PR","country_id":31,"country_code":"BR","latitude":"-23.42528000","longitude":"-51.93861000"},{"id":"13020","name":"Marip\u00e1","state_id":2022,"state_code":"PR","country_id":31,"country_code":"BR","latitude":"-24.46267000","longitude":"-53.80179000"},{"id":"13027","name":"Marmeleiro","state_id":2022,"state_code":"PR","country_id":31,"country_code":"BR","latitude":"-26.23791000","longitude":"-53.09751000"},{"id":"13030","name":"Marquinho","state_id":2022,"state_code":"PR","country_id":31,"country_code":"BR","latitude":"-25.10570000","longitude":"-52.25677000"},{"id":"13037","name":"Marumbi","state_id":2022,"state_code":"PR","country_id":31,"country_code":"BR","latitude":"-23.76658000","longitude":"-51.66062000"},{"id":"13052","name":"Matel\u00e2ndia","state_id":2022,"state_code":"PR","country_id":31,"country_code":"BR","latitude":"-25.24083000","longitude":"-53.99639000"},{"id":"13062","name":"Matinhos","state_id":2022,"state_code":"PR","country_id":31,"country_code":"BR","latitude":"-25.76114000","longitude":"-48.57290000"},{"id":"13068","name":"Mato Rico","state_id":2022,"state_code":"PR","country_id":31,"country_code":"BR","latitude":"-24.70689000","longitude":"-52.24085000"},{"id":"13084","name":"Mau\u00e1 da Serra","state_id":2022,"state_code":"PR","country_id":31,"country_code":"BR","latitude":"-23.91107000","longitude":"-51.18026000"},{"id":"13092","name":"Medianeira","state_id":2022,"state_code":"PR","country_id":31,"country_code":"BR","latitude":"-25.29528000","longitude":"-54.09389000"},{"id":"13100","name":"Mercedes","state_id":2022,"state_code":"PR","country_id":31,"country_code":"BR","latitude":"-24.42600000","longitude":"-54.17683000"},{"id":"13135","name":"Mirador","state_id":2022,"state_code":"PR","country_id":31,"country_code":"BR","latitude":"-23.21282000","longitude":"-52.75351000"},{"id":"13148","name":"Miraselva","state_id":2022,"state_code":"PR","country_id":31,"country_code":"BR","latitude":"-22.97660000","longitude":"-51.47042000"},{"id":"13157","name":"Missal","state_id":2022,"state_code":"PR","country_id":31,"country_code":"BR","latitude":"-25.11125000","longitude":"-54.25786000"},{"id":"13231","name":"Moreira Sales","state_id":2022,"state_code":"PR","country_id":31,"country_code":"BR","latitude":"-24.06222000","longitude":"-53.00694000"},{"id":"13235","name":"Morretes","state_id":2022,"state_code":"PR","country_id":31,"country_code":"BR","latitude":"-25.53075000","longitude":"-48.87427000"},{"id":"13273","name":"Munhoz de Melo","state_id":2022,"state_code":"PR","country_id":31,"country_code":"BR","latitude":"-23.11288000","longitude":"-51.73192000"},{"id":"13339","name":"Nossa Senhora das Gra\u00e7as","state_id":2022,"state_code":"PR","country_id":31,"country_code":"BR","latitude":"-22.93036000","longitude":"-51.80240000"},{"id":"13346","name":"Nova Alian\u00e7a do Iva\u00ed","state_id":2022,"state_code":"PR","country_id":31,"country_code":"BR","latitude":"-23.18670000","longitude":"-52.62571000"},{"id":"13350","name":"Nova Am\u00e9rica da Colina","state_id":2022,"state_code":"PR","country_id":31,"country_code":"BR","latitude":"-23.33377000","longitude":"-50.69624000"},{"id":"13353","name":"Nova Aurora","state_id":2022,"state_code":"PR","country_id":31,"country_code":"BR","latitude":"-22.86667000","longitude":"-52.56667000"},{"id":"13367","name":"Nova Cantu","state_id":2022,"state_code":"PR","country_id":31,"country_code":"BR","latitude":"-24.65652000","longitude":"-52.56315000"},{"id":"13374","name":"Nova Esperan\u00e7a","state_id":2022,"state_code":"PR","country_id":31,"country_code":"BR","latitude":"-23.18311000","longitude":"-52.25446000"},{"id":"13376","name":"Nova Esperan\u00e7a do Sudoeste","state_id":2022,"state_code":"PR","country_id":31,"country_code":"BR","latitude":"-25.88851000","longitude":"-53.26030000"},{"id":"13382","name":"Nova F\u00e1tima","state_id":2022,"state_code":"PR","country_id":31,"country_code":"BR","latitude":"-23.39579000","longitude":"-50.53565000"},{"id":"13397","name":"Nova Laranjeiras","state_id":2022,"state_code":"PR","country_id":31,"country_code":"BR","latitude":"-25.21942000","longitude":"-52.57752000"},{"id":"13399","name":"Nova Londrina","state_id":2022,"state_code":"PR","country_id":31,"country_code":"BR","latitude":"-22.76583000","longitude":"-52.98500000"},{"id":"13415","name":"Nova Ol\u00edmpia","state_id":2022,"state_code":"PR","country_id":31,"country_code":"BR","latitude":"-23.43206000","longitude":"-53.03895000"},{"id":"13422","name":"Nova Prata do Igua\u00e7u","state_id":2022,"state_code":"PR","country_id":31,"country_code":"BR","latitude":"-25.60849000","longitude":"-53.38052000"},{"id":"13431","name":"Nova Santa B\u00e1rbara","state_id":2022,"state_code":"PR","country_id":31,"country_code":"BR","latitude":"-23.60238000","longitude":"-50.75450000"},{"id":"13435","name":"Nova Santa Rosa","state_id":2022,"state_code":"PR","country_id":31,"country_code":"BR","latitude":"-24.44687000","longitude":"-53.99553000"},{"id":"13438","name":"Nova Tebas","state_id":2022,"state_code":"PR","country_id":31,"country_code":"BR","latitude":"-24.43082000","longitude":"-51.94584000"},{"id":"13466","name":"Novo Itacolomi","state_id":2022,"state_code":"PR","country_id":31,"country_code":"BR","latitude":"-23.77560000","longitude":"-51.53874000"},{"id":"13525","name":"Ortigueira","state_id":2022,"state_code":"PR","country_id":31,"country_code":"BR","latitude":"-24.20833000","longitude":"-50.94944000"},{"id":"13535","name":"Ourizona","state_id":2022,"state_code":"PR","country_id":31,"country_code":"BR","latitude":"-23.48358000","longitude":"-52.24274000"},{"id":"13549","name":"Ouro Verde do Oeste","state_id":2022,"state_code":"PR","country_id":31,"country_code":"BR","latitude":"-24.79690000","longitude":"-53.93681000"},{"id":"13573","name":"Pai\u00e7andu","state_id":2022,"state_code":"PR","country_id":31,"country_code":"BR","latitude":"-23.45750000","longitude":"-52.04861000"},{"id":"13586","name":"Palmas","state_id":2022,"state_code":"PR","country_id":31,"country_code":"BR","latitude":"-26.48417000","longitude":"-51.99056000"},{"id":"13589","name":"Palmeira","state_id":2022,"state_code":"PR","country_id":31,"country_code":"BR","latitude":"-25.42944000","longitude":"-50.00639000"},{"id":"13606","name":"Palmital","state_id":2022,"state_code":"PR","country_id":31,"country_code":"BR","latitude":"-24.84260000","longitude":"-52.25370000"},{"id":"13611","name":"Palotina","state_id":2022,"state_code":"PR","country_id":31,"country_code":"BR","latitude":"-24.28389000","longitude":"-53.84000000"},{"id":"13662","name":"Para\u00edso do Norte","state_id":2022,"state_code":"PR","country_id":31,"country_code":"BR","latitude":"-23.25410000","longitude":"-52.63634000"},{"id":"13636","name":"Paranacity","state_id":2022,"state_code":"PR","country_id":31,"country_code":"BR","latitude":"-22.84648000","longitude":"-52.13457000"},{"id":"13637","name":"Paranagu\u00e1","state_id":2022,"state_code":"PR","country_id":31,"country_code":"BR","latitude":"-25.51626000","longitude":"-48.52537000"},{"id":"13640","name":"Paranapoema","state_id":2022,"state_code":"PR","country_id":31,"country_code":"BR","latitude":"-22.65624000","longitude":"-52.07598000"},{"id":"13644","name":"Paranava\u00ed","state_id":2022,"state_code":"PR","country_id":31,"country_code":"BR","latitude":"-23.07306000","longitude":"-52.46528000"},{"id":"13704","name":"Pato Bragado","state_id":2022,"state_code":"PR","country_id":31,"country_code":"BR","latitude":"-24.64323000","longitude":"-54.22745000"},{"id":"13705","name":"Pato Branco","state_id":2022,"state_code":"PR","country_id":31,"country_code":"BR","latitude":"-26.22861000","longitude":"-52.67056000"},{"id":"13722","name":"Paula Freitas","state_id":2022,"state_code":"PR","country_id":31,"country_code":"BR","latitude":"-26.17808000","longitude":"-50.84807000"},{"id":"13733","name":"Paulo Frontin","state_id":2022,"state_code":"PR","country_id":31,"country_code":"BR","latitude":"-26.04279000","longitude":"-50.74770000"},{"id":"14121","name":"P\u00e9rola","state_id":2022,"state_code":"PR","country_id":31,"country_code":"BR","latitude":"-23.84076000","longitude":"-53.70733000"},{"id":"14122","name":"P\u00e9rola d'Oeste","state_id":2022,"state_code":"PR","country_id":31,"country_code":"BR","latitude":"-25.84683000","longitude":"-53.75640000"},{"id":"13743","name":"Peabiru","state_id":2022,"state_code":"PR","country_id":31,"country_code":"BR","latitude":"-23.91278000","longitude":"-52.34306000"},{"id":"13812","name":"Perobal","state_id":2022,"state_code":"PR","country_id":31,"country_code":"BR","latitude":"-23.97015000","longitude":"-53.32376000"},{"id":"13930","name":"Pi\u00ean","state_id":2022,"state_code":"PR","country_id":31,"country_code":"BR","latitude":"-26.08649000","longitude":"-49.45641000"},{"id":"13858","name":"Pinhais","state_id":2022,"state_code":"PR","country_id":31,"country_code":"BR","latitude":"-25.44472000","longitude":"-49.19250000"},{"id":"13862","name":"Pinhal de S\u00e3o Bento","state_id":2022,"state_code":"PR","country_id":31,"country_code":"BR","latitude":"-26.00683000","longitude":"-53.48906000"},{"id":"13865","name":"Pinhal\u00e3o","state_id":2022,"state_code":"PR","country_id":31,"country_code":"BR","latitude":"-23.92456000","longitude":"-50.05444000"},{"id":"13873","name":"Pinh\u00e3o","state_id":2022,"state_code":"PR","country_id":31,"country_code":"BR","latitude":"-25.69556000","longitude":"-51.65972000"},{"id":"13912","name":"Pira\u00ed do Sul","state_id":2022,"state_code":"PR","country_id":31,"country_code":"BR","latitude":"-24.52611000","longitude":"-49.94861000"},{"id":"13904","name":"Piraquara","state_id":2022,"state_code":"PR","country_id":31,"country_code":"BR","latitude":"-25.44227000","longitude":"-49.06795000"},{"id":"13921","name":"Pitanga","state_id":2022,"state_code":"PR","country_id":31,"country_code":"BR","latitude":"-24.75722000","longitude":"-51.76139000"},{"id":"13922","name":"Pitangueiras","state_id":2022,"state_code":"PR","country_id":31,"country_code":"BR","latitude":"-23.19194000","longitude":"-51.56836000"},{"id":"13935","name":"Planaltina do Paran\u00e1","state_id":2022,"state_code":"PR","country_id":31,"country_code":"BR","latitude":"-23.09388000","longitude":"-52.92823000"},{"id":"13938","name":"Planalto","state_id":2022,"state_code":"PR","country_id":31,"country_code":"BR","latitude":"-25.72679000","longitude":"-53.72859000"},{"id":"13957","name":"Ponta Grossa","state_id":2022,"state_code":"PR","country_id":31,"country_code":"BR","latitude":"-25.09500000","longitude":"-50.16194000"},{"id":"13962","name":"Pontal do Paran\u00e1","state_id":2022,"state_code":"PR","country_id":31,"country_code":"BR","latitude":"-25.67361000","longitude":"-48.51111000"},{"id":"13985","name":"Porecatu","state_id":2022,"state_code":"PR","country_id":31,"country_code":"BR","latitude":"-22.75583000","longitude":"-51.37917000"},{"id":"13998","name":"Porto Amazonas","state_id":2022,"state_code":"PR","country_id":31,"country_code":"BR","latitude":"-25.53897000","longitude":"-49.90183000"},{"id":"13999","name":"Porto Barreiro","state_id":2022,"state_code":"PR","country_id":31,"country_code":"BR","latitude":"-25.58093000","longitude":"-52.39206000"},{"id":"14015","name":"Porto Rico","state_id":2022,"state_code":"PR","country_id":31,"country_code":"BR","latitude":"-22.82902000","longitude":"-53.31785000"},{"id":"14021","name":"Porto Vit\u00f3ria","state_id":2022,"state_code":"PR","country_id":31,"country_code":"BR","latitude":"-26.25338000","longitude":"-51.24188000"},{"id":"14060","name":"Prado Ferreira","state_id":2022,"state_code":"PR","country_id":31,"country_code":"BR","latitude":"-23.02439000","longitude":"-51.37909000"},{"id":"14067","name":"Pranchita","state_id":2022,"state_code":"PR","country_id":31,"country_code":"BR","latitude":"-25.96586000","longitude":"-53.69675000"},{"id":"14078","name":"Presidente Castelo Branco","state_id":2022,"state_code":"PR","country_id":31,"country_code":"BR","latitude":"-23.26207000","longitude":"-52.14511000"},{"id":"14105","name":"Primeiro de Maio","state_id":2022,"state_code":"PR","country_id":31,"country_code":"BR","latitude":"-22.87095000","longitude":"-51.08897000"},{"id":"14114","name":"Prudent\u00f3polis","state_id":2022,"state_code":"PR","country_id":31,"country_code":"BR","latitude":"-25.21306000","longitude":"-50.97778000"},{"id":"14128","name":"Quarto Centen\u00e1rio","state_id":2022,"state_code":"PR","country_id":31,"country_code":"BR","latitude":"-24.29608000","longitude":"-53.11994000"},{"id":"14129","name":"Quatigu\u00e1","state_id":2022,"state_code":"PR","country_id":31,"country_code":"BR","latitude":"-23.55499000","longitude":"-49.91985000"},{"id":"14132","name":"Quatro Barras","state_id":2022,"state_code":"PR","country_id":31,"country_code":"BR","latitude":"-25.36556000","longitude":"-49.07694000"},{"id":"14134","name":"Quatro Pontes","state_id":2022,"state_code":"PR","country_id":31,"country_code":"BR","latitude":"-24.50435000","longitude":"-54.00566000"},{"id":"14137","name":"Quedas do Igua\u00e7u","state_id":2022,"state_code":"PR","country_id":31,"country_code":"BR","latitude":"-25.43169000","longitude":"-52.98265000"},{"id":"14146","name":"Quer\u00eancia do Norte","state_id":2022,"state_code":"PR","country_id":31,"country_code":"BR","latitude":"-23.10147000","longitude":"-53.56278000"},{"id":"14150","name":"Quinta do Sol","state_id":2022,"state_code":"PR","country_id":31,"country_code":"BR","latitude":"-23.79814000","longitude":"-52.15746000"},{"id":"14156","name":"Quitandinha","state_id":2022,"state_code":"PR","country_id":31,"country_code":"BR","latitude":"-25.90132000","longitude":"-49.50522000"},{"id":"14169","name":"Ramil\u00e2ndia","state_id":2022,"state_code":"PR","country_id":31,"country_code":"BR","latitude":"-25.09153000","longitude":"-54.00622000"},{"id":"14171","name":"Rancho Alegre","state_id":2022,"state_code":"PR","country_id":31,"country_code":"BR","latitude":"-23.05892000","longitude":"-50.91888000"},{"id":"14172","name":"Rancho Alegre d'Oeste","state_id":2022,"state_code":"PR","country_id":31,"country_code":"BR","latitude":"-24.30404000","longitude":"-52.98349000"},{"id":"14177","name":"Realeza","state_id":2022,"state_code":"PR","country_id":31,"country_code":"BR","latitude":"-25.67431000","longitude":"-53.54659000"},{"id":"14178","name":"Rebou\u00e7as","state_id":2022,"state_code":"PR","country_id":31,"country_code":"BR","latitude":"-25.68296000","longitude":"-50.63115000"},{"id":"14195","name":"Renascen\u00e7a","state_id":2022,"state_code":"PR","country_id":31,"country_code":"BR","latitude":"-26.21457000","longitude":"-52.93431000"},{"id":"14199","name":"Reserva","state_id":2022,"state_code":"PR","country_id":31,"country_code":"BR","latitude":"-24.57312000","longitude":"-50.93141000"},{"id":"14201","name":"Reserva do Igua\u00e7u","state_id":2022,"state_code":"PR","country_id":31,"country_code":"BR","latitude":"-25.84778000","longitude":"-51.94646000"},{"id":"14240","name":"Ribeir\u00e3o Claro","state_id":2022,"state_code":"PR","country_id":31,"country_code":"BR","latitude":"-23.29564000","longitude":"-49.78622000"},{"id":"14249","name":"Ribeir\u00e3o do Pinhal","state_id":2022,"state_code":"PR","country_id":31,"country_code":"BR","latitude":"-23.38629000","longitude":"-50.43197000"},{"id":"14258","name":"Rio Azul","state_id":2022,"state_code":"PR","country_id":31,"country_code":"BR","latitude":"-25.74072000","longitude":"-50.73497000"},{"id":"14260","name":"Rio Bom","state_id":2022,"state_code":"PR","country_id":31,"country_code":"BR","latitude":"-23.80220000","longitude":"-51.44616000"},{"id":"14262","name":"Rio Bonito do Igua\u00e7u","state_id":2022,"state_code":"PR","country_id":31,"country_code":"BR","latitude":"-25.54822000","longitude":"-52.62154000"},{"id":"14265","name":"Rio Branco do Iva\u00ed","state_id":2022,"state_code":"PR","country_id":31,"country_code":"BR","latitude":"-24.35602000","longitude":"-51.34215000"},{"id":"14266","name":"Rio Branco do Sul","state_id":2022,"state_code":"PR","country_id":31,"country_code":"BR","latitude":"-25.19000000","longitude":"-49.31417000"},{"id":"14283","name":"Rio Negro","state_id":2022,"state_code":"PR","country_id":31,"country_code":"BR","latitude":"-26.09001000","longitude":"-49.71582000"},{"id":"14337","name":"Rol\u00e2ndia","state_id":2022,"state_code":"PR","country_id":31,"country_code":"BR","latitude":"-23.30972000","longitude":"-51.36917000"},{"id":"14340","name":"Roncador","state_id":2022,"state_code":"PR","country_id":31,"country_code":"BR","latitude":"-24.56358000","longitude":"-52.22448000"},{"id":"14344","name":"Rondon","state_id":2022,"state_code":"PR","country_id":31,"country_code":"BR","latitude":"-23.47457000","longitude":"-52.84502000"},{"id":"14354","name":"Ros\u00e1rio do Iva\u00ed","state_id":2022,"state_code":"PR","country_id":31,"country_code":"BR","latitude":"-24.30569000","longitude":"-51.22024000"},{"id":"14370","name":"Sab\u00e1udia","state_id":2022,"state_code":"PR","country_id":31,"country_code":"BR","latitude":"-23.36584000","longitude":"-51.60539000"},{"id":"14384","name":"Salgado Filho","state_id":2022,"state_code":"PR","country_id":31,"country_code":"BR","latitude":"-26.12101000","longitude":"-53.43938000"},{"id":"14401","name":"Salto do Itarar\u00e9","state_id":2022,"state_code":"PR","country_id":31,"country_code":"BR","latitude":"-23.61939000","longitude":"-49.68219000"},{"id":"14403","name":"Salto do Lontra","state_id":2022,"state_code":"PR","country_id":31,"country_code":"BR","latitude":"-25.77035000","longitude":"-53.29978000"},{"id":"14419","name":"Santa Am\u00e9lia","state_id":2022,"state_code":"PR","country_id":31,"country_code":"BR","latitude":"-23.26039000","longitude":"-50.41329000"},{"id":"14434","name":"Santa Cec\u00edlia do Pav\u00e3o","state_id":2022,"state_code":"PR","country_id":31,"country_code":"BR","latitude":"-23.54436000","longitude":"-50.82283000"},{"id":"14449","name":"Santa Cruz de Monte Castelo","state_id":2022,"state_code":"PR","country_id":31,"country_code":"BR","latitude":"-23.14407000","longitude":"-53.36640000"},{"id":"14464","name":"Santa F\u00e9","state_id":2022,"state_code":"PR","country_id":31,"country_code":"BR","latitude":"-23.03990000","longitude":"-51.81359000"},{"id":"14472","name":"Santa Helena","state_id":2022,"state_code":"PR","country_id":31,"country_code":"BR","latitude":"-24.90689000","longitude":"-54.28722000"},{"id":"14479","name":"Santa In\u00eas","state_id":2022,"state_code":"PR","country_id":31,"country_code":"BR","latitude":"-22.68740000","longitude":"-51.89746000"},{"id":"14482","name":"Santa Isabel do Iva\u00ed","state_id":2022,"state_code":"PR","country_id":31,"country_code":"BR","latitude":"-23.13820000","longitude":"-53.25909000"},{"id":"14484","name":"Santa Izabel do Oeste","state_id":2022,"state_code":"PR","country_id":31,"country_code":"BR","latitude":"-25.77567000","longitude":"-53.41047000"},{"id":"14499","name":"Santa L\u00facia","state_id":2022,"state_code":"PR","country_id":31,"country_code":"BR","latitude":"-25.41465000","longitude":"-53.55213000"},{"id":"14513","name":"Santa Maria do Oeste","state_id":2022,"state_code":"PR","country_id":31,"country_code":"BR","latitude":"-24.92004000","longitude":"-51.96628000"},{"id":"14518","name":"Santa Mariana","state_id":2022,"state_code":"PR","country_id":31,"country_code":"BR","latitude":"-23.04831000","longitude":"-50.52939000"},{"id":"14521","name":"Santa M\u00f4nica","state_id":2022,"state_code":"PR","country_id":31,"country_code":"BR","latitude":"-23.16554000","longitude":"-53.11244000"},{"id":"14555","name":"Santa Tereza do Oeste","state_id":2022,"state_code":"PR","country_id":31,"country_code":"BR","latitude":"-25.04438000","longitude":"-53.61939000"},{"id":"14562","name":"Santa Terezinha de Itaipu","state_id":2022,"state_code":"PR","country_id":31,"country_code":"BR","latitude":"-25.41349000","longitude":"-54.42251000"},{"id":"14583","name":"Santana do Itarar\u00e9","state_id":2022,"state_code":"PR","country_id":31,"country_code":"BR","latitude":"-23.73441000","longitude":"-49.61942000"},{"id":"14614","name":"Santo Ant\u00f4nio da Platina","state_id":2022,"state_code":"PR","country_id":31,"country_code":"BR","latitude":"-23.29500000","longitude":"-50.07722000"},{"id":"14624","name":"Santo Ant\u00f4nio do Caiu\u00e1","state_id":2022,"state_code":"PR","country_id":31,"country_code":"BR","latitude":"-22.69373000","longitude":"-52.30897000"},{"id":"14635","name":"Santo Ant\u00f4nio do Para\u00edso","state_id":2022,"state_code":"PR","country_id":31,"country_code":"BR","latitude":"-23.56361000","longitude":"-50.61940000"},{"id":"14640","name":"Santo Ant\u00f4nio do Sudoeste","state_id":2022,"state_code":"PR","country_id":31,"country_code":"BR","latitude":"-26.07361000","longitude":"-53.72528000"},{"id":"14650","name":"Santo In\u00e1cio","state_id":2022,"state_code":"PR","country_id":31,"country_code":"BR","latitude":"-22.72365000","longitude":"-51.80606000"},{"id":"14659","name":"Sapopema","state_id":2022,"state_code":"PR","country_id":31,"country_code":"BR","latitude":"-23.87746000","longitude":"-50.61022000"},{"id":"14668","name":"Sarandi","state_id":2022,"state_code":"PR","country_id":31,"country_code":"BR","latitude":"-23.44361000","longitude":"-51.87389000"},{"id":"14676","name":"Saudade do Igua\u00e7u","state_id":2022,"state_code":"PR","country_id":31,"country_code":"BR","latitude":"-25.70473000","longitude":"-52.60816000"},{"id":"14857","name":"S\u00e3o Carlos do Iva\u00ed","state_id":2022,"state_code":"PR","country_id":31,"country_code":"BR","latitude":"-23.35478000","longitude":"-52.52074000"},{"id":"14929","name":"S\u00e3o Jer\u00f4nimo da Serra","state_id":2022,"state_code":"PR","country_id":31,"country_code":"BR","latitude":"-23.68708000","longitude":"-50.78987000"},{"id":"14998","name":"S\u00e3o Jo\u00e3o","state_id":2022,"state_code":"PR","country_id":31,"country_code":"BR","latitude":"-25.78385000","longitude":"-52.80418000"},{"id":"15026","name":"S\u00e3o Jo\u00e3o do Caiu\u00e1","state_id":2022,"state_code":"PR","country_id":31,"country_code":"BR","latitude":"-22.82937000","longitude":"-52.28543000"},{"id":"15030","name":"S\u00e3o Jo\u00e3o do Iva\u00ed","state_id":2022,"state_code":"PR","country_id":31,"country_code":"BR","latitude":"-23.97916000","longitude":"-51.88263000"},{"id":"15047","name":"S\u00e3o Jo\u00e3o do Triunfo","state_id":2022,"state_code":"PR","country_id":31,"country_code":"BR","latitude":"-25.70410000","longitude":"-50.26243000"},{"id":"14935","name":"S\u00e3o Jorge d'Oeste","state_id":2022,"state_code":"PR","country_id":31,"country_code":"BR","latitude":"-25.66317000","longitude":"-52.94857000"},{"id":"14936","name":"S\u00e3o Jorge do Iva\u00ed","state_id":2022,"state_code":"PR","country_id":31,"country_code":"BR","latitude":"-23.43841000","longitude":"-52.30359000"},{"id":"14937","name":"S\u00e3o Jorge do Patroc\u00ednio","state_id":2022,"state_code":"PR","country_id":31,"country_code":"BR","latitude":"-23.74952000","longitude":"-53.88553000"},{"id":"14941","name":"S\u00e3o Jos\u00e9 da Boa Vista","state_id":2022,"state_code":"PR","country_id":31,"country_code":"BR","latitude":"-23.96483000","longitude":"-49.65190000"},{"id":"14951","name":"S\u00e3o Jos\u00e9 das Palmeiras","state_id":2022,"state_code":"PR","country_id":31,"country_code":"BR","latitude":"-24.83457000","longitude":"-54.12721000"},{"id":"14995","name":"S\u00e3o Jos\u00e9 dos Pinhais","state_id":2022,"state_code":"PR","country_id":31,"country_code":"BR","latitude":"-25.53020000","longitude":"-49.20836000"},{"id":"15069","name":"S\u00e3o Manoel do Paran\u00e1","state_id":2022,"state_code":"PR","country_id":31,"country_code":"BR","latitude":"-23.38356000","longitude":"-52.58889000"},{"id":"15077","name":"S\u00e3o Mateus do Sul","state_id":2022,"state_code":"PR","country_id":31,"country_code":"BR","latitude":"-25.87417000","longitude":"-50.38278000"},{"id":"15092","name":"S\u00e3o Miguel do Igua\u00e7u","state_id":2022,"state_code":"PR","country_id":31,"country_code":"BR","latitude":"-25.34806000","longitude":"-54.23778000"},{"id":"15116","name":"S\u00e3o Pedro do Igua\u00e7u","state_id":2022,"state_code":"PR","country_id":31,"country_code":"BR","latitude":"-24.90931000","longitude":"-53.88765000"},{"id":"15117","name":"S\u00e3o Pedro do Iva\u00ed","state_id":2022,"state_code":"PR","country_id":31,"country_code":"BR","latitude":"-23.83342000","longitude":"-51.86952000"},{"id":"15118","name":"S\u00e3o Pedro do Paran\u00e1","state_id":2022,"state_code":"PR","country_id":31,"country_code":"BR","latitude":"-22.76847000","longitude":"-53.16580000"},{"id":"15137","name":"S\u00e3o Sebasti\u00e3o da Amoreira","state_id":2022,"state_code":"PR","country_id":31,"country_code":"BR","latitude":"-23.45392000","longitude":"-50.71309000"},{"id":"15162","name":"S\u00e3o Tom\u00e9","state_id":2022,"state_code":"PR","country_id":31,"country_code":"BR","latitude":"-23.52364000","longitude":"-52.51400000"},{"id":"14709","name":"Seng\u00e9s","state_id":2022,"state_code":"PR","country_id":31,"country_code":"BR","latitude":"-24.11335000","longitude":"-49.46315000"},{"id":"14749","name":"Serran\u00f3polis do Igua\u00e7u","state_id":2022,"state_code":"PR","country_id":31,"country_code":"BR","latitude":"-25.47001000","longitude":"-54.01644000"},{"id":"14758","name":"Sertan\u00f3polis","state_id":2022,"state_code":"PR","country_id":31,"country_code":"BR","latitude":"-23.05861000","longitude":"-51.03639000"},{"id":"14757","name":"Sertaneja","state_id":2022,"state_code":"PR","country_id":31,"country_code":"BR","latitude":"-22.95832000","longitude":"-50.88804000"},{"id":"14792","name":"Siqueira Campos","state_id":2022,"state_code":"PR","country_id":31,"country_code":"BR","latitude":"-23.68889000","longitude":"-49.83389000"},{"id":"14822","name":"Sulina","state_id":2022,"state_code":"PR","country_id":31,"country_code":"BR","latitude":"-25.67144000","longitude":"-52.68373000"},{"id":"15209","name":"Tamarana","state_id":2022,"state_code":"PR","country_id":31,"country_code":"BR","latitude":"-23.82556000","longitude":"-51.04683000"},{"id":"15211","name":"Tamboara","state_id":2022,"state_code":"PR","country_id":31,"country_code":"BR","latitude":"-23.19886000","longitude":"-52.46715000"},{"id":"15226","name":"Tapejara","state_id":2022,"state_code":"PR","country_id":31,"country_code":"BR","latitude":"-23.62534000","longitude":"-52.91113000"},{"id":"15234","name":"Tapira","state_id":2022,"state_code":"PR","country_id":31,"country_code":"BR","latitude":"-23.30639000","longitude":"-53.13632000"},{"id":"15266","name":"Teixeira Soares","state_id":2022,"state_code":"PR","country_id":31,"country_code":"BR","latitude":"-25.27813000","longitude":"-50.43158000"},{"id":"15273","name":"Tel\u00eamaco Borba","state_id":2022,"state_code":"PR","country_id":31,"country_code":"BR","latitude":"-24.22442000","longitude":"-50.54151000"},{"id":"15290","name":"Terra Boa","state_id":2022,"state_code":"PR","country_id":31,"country_code":"BR","latitude":"-23.67940000","longitude":"-52.34426000"},{"id":"15294","name":"Terra Rica","state_id":2022,"state_code":"PR","country_id":31,"country_code":"BR","latitude":"-22.73272000","longitude":"-52.68457000"},{"id":"15295","name":"Terra Roxa","state_id":2022,"state_code":"PR","country_id":31,"country_code":"BR","latitude":"-24.22292000","longitude":"-54.09087000"},{"id":"15304","name":"Tibagi","state_id":2022,"state_code":"PR","country_id":31,"country_code":"BR","latitude":"-24.65805000","longitude":"-50.51861000"},{"id":"15310","name":"Tijucas do Sul","state_id":2022,"state_code":"PR","country_id":31,"country_code":"BR","latitude":"-25.89852000","longitude":"-49.11779000"},{"id":"15329","name":"Toledo","state_id":2022,"state_code":"PR","country_id":31,"country_code":"BR","latitude":"-24.71361000","longitude":"-53.74306000"},{"id":"15332","name":"Tomazina","state_id":2022,"state_code":"PR","country_id":31,"country_code":"BR","latitude":"-23.77655000","longitude":"-49.95552000"},{"id":"15371","name":"Tr\u00eas Barras do Paran\u00e1","state_id":2022,"state_code":"PR","country_id":31,"country_code":"BR","latitude":"-25.42222000","longitude":"-53.23148000"},{"id":"15394","name":"Tunas do Paran\u00e1","state_id":2022,"state_code":"PR","country_id":31,"country_code":"BR","latitude":"-24.96753000","longitude":"-48.86604000"},{"id":"15395","name":"Tuneiras do Oeste","state_id":2022,"state_code":"PR","country_id":31,"country_code":"BR","latitude":"-23.90168000","longitude":"-52.83572000"},{"id":"15409","name":"Tup\u00e3ssi","state_id":2022,"state_code":"PR","country_id":31,"country_code":"BR","latitude":"-24.63318000","longitude":"-53.49207000"},{"id":"15418","name":"Turvo","state_id":2022,"state_code":"PR","country_id":31,"country_code":"BR","latitude":"-24.97002000","longitude":"-51.50860000"},{"id":"15436","name":"Ubirat\u00e3","state_id":2022,"state_code":"PR","country_id":31,"country_code":"BR","latitude":"-24.50395000","longitude":"-53.01934000"},{"id":"15451","name":"Umuarama","state_id":2022,"state_code":"PR","country_id":31,"country_code":"BR","latitude":"-23.76639000","longitude":"-53.32500000"},{"id":"15459","name":"Uni\u00e3o da Vit\u00f3ria","state_id":2022,"state_code":"PR","country_id":31,"country_code":"BR","latitude":"-26.09211000","longitude":"-51.11212000"},{"id":"15454","name":"Uniflor","state_id":2022,"state_code":"PR","country_id":31,"country_code":"BR","latitude":"-23.06016000","longitude":"-52.09077000"},{"id":"15466","name":"Ura\u00ed","state_id":2022,"state_code":"PR","country_id":31,"country_code":"BR","latitude":"-23.19291000","longitude":"-50.79419000"},{"id":"15528","name":"Ventania","state_id":2022,"state_code":"PR","country_id":31,"country_code":"BR","latitude":"-24.14204000","longitude":"-50.22365000"},{"id":"15536","name":"Vera Cruz do Oeste","state_id":2022,"state_code":"PR","country_id":31,"country_code":"BR","latitude":"-24.94088000","longitude":"-53.92809000"},{"id":"15546","name":"Ver\u00ea","state_id":2022,"state_code":"PR","country_id":31,"country_code":"BR","latitude":"-25.85329000","longitude":"-52.95920000"},{"id":"15586","name":"Virmond","state_id":2022,"state_code":"PR","country_id":31,"country_code":"BR","latitude":"-25.43010000","longitude":"-52.23673000"},{"id":"15595","name":"Vitorino","state_id":2022,"state_code":"PR","country_id":31,"country_code":"BR","latitude":"-26.24047000","longitude":"-52.81976000"},{"id":"15629","name":"Wenceslau Braz","state_id":2022,"state_code":"PR","country_id":31,"country_code":"BR","latitude":"-23.88811000","longitude":"-49.79148000"},{"id":"15634","name":"Xambr\u00ea","state_id":2022,"state_code":"PR","country_id":31,"country_code":"BR","latitude":"-23.73853000","longitude":"-53.60400000"}]