[{"id":"595","name":"Camacupa","state_id":212,"state_code":"BIE","country_id":7,"country_code":"AO","latitude":"-12.01667000","longitude":"17.48333000"},{"id":"596","name":"Catabola","state_id":212,"state_code":"BIE","country_id":7,"country_code":"AO","latitude":"-12.15000000","longitude":"17.28333000"},{"id":"605","name":"Chissamba","state_id":212,"state_code":"BIE","country_id":7,"country_code":"AO","latitude":"-12.16667000","longitude":"17.33333000"},{"id":"606","name":"Cuito","state_id":212,"state_code":"BIE","country_id":7,"country_code":"AO","latitude":"-12.38333000","longitude":"16.93333000"},{"id":"600","name":"Ca\u00e1la","state_id":213,"state_code":"HUA","country_id":7,"country_code":"AO","latitude":"-12.85250000","longitude":"15.56056000"},{"id":"601","name":"Chela","state_id":213,"state_code":"HUA","country_id":7,"country_code":"AO","latitude":"-12.30261000","longitude":"15.43358000"},{"id":"609","name":"Huambo","state_id":213,"state_code":"HUA","country_id":7,"country_code":"AO","latitude":"-12.77611000","longitude":"15.73917000"},{"id":"614","name":"Longonjo","state_id":213,"state_code":"HUA","country_id":7,"country_code":"AO","latitude":"-12.90667000","longitude":"15.25333000"},{"id":"624","name":"Mbanza Congo","state_id":214,"state_code":"ZAI","country_id":7,"country_code":"AO","latitude":"-6.26703000","longitude":"14.24010000"},{"id":"626","name":"N'zeto","state_id":214,"state_code":"ZAI","country_id":7,"country_code":"AO","latitude":"-7.23116000","longitude":"12.86660000"},{"id":"633","name":"Soio","state_id":214,"state_code":"ZAI","country_id":7,"country_code":"AO","latitude":"-6.13490000","longitude":"12.36894000"},{"id":"628","name":"Ondjiva","state_id":215,"state_code":"CNN","country_id":7,"country_code":"AO","latitude":"-17.06667000","longitude":"15.73333000"},{"id":"629","name":"Quibala","state_id":216,"state_code":"CUS","country_id":7,"country_code":"AO","latitude":"-10.73366000","longitude":"14.97995000"},{"id":"634","name":"Sumbe","state_id":216,"state_code":"CUS","country_id":7,"country_code":"AO","latitude":"-11.20605000","longitude":"13.84371000"},{"id":"635","name":"Uacu Cungo","state_id":216,"state_code":"CUS","country_id":7,"country_code":"AO","latitude":"-11.35669000","longitude":"15.11719000"},{"id":"594","name":"Camabatela","state_id":217,"state_code":"CNO","country_id":7,"country_code":"AO","latitude":"-8.18812000","longitude":"15.37495000"},{"id":"627","name":"N\u2019dalatando","state_id":217,"state_code":"CNO","country_id":7,"country_code":"AO","latitude":"-9.29782000","longitude":"14.91162000"},{"id":"590","name":"Benguela","state_id":218,"state_code":"BGU","country_id":7,"country_code":"AO","latitude":"-12.57626000","longitude":"13.40547000"},{"id":"597","name":"Catumbela","state_id":218,"state_code":"BGU","country_id":7,"country_code":"AO","latitude":"-12.43002000","longitude":"13.54677000"},{"id":"613","name":"Lobito","state_id":218,"state_code":"BGU","country_id":7,"country_code":"AO","latitude":"-12.36440000","longitude":"13.53601000"},{"id":"621","name":"L\u00e9ua","state_id":219,"state_code":"MOX","country_id":7,"country_code":"AO","latitude":"-11.65000000","longitude":"20.45000000"},{"id":"616","name":"Luau","state_id":219,"state_code":"MOX","country_id":7,"country_code":"AO","latitude":"-10.70727000","longitude":"22.22466000"},{"id":"619","name":"Luena","state_id":219,"state_code":"MOX","country_id":7,"country_code":"AO","latitude":"-11.78333000","longitude":"19.91667000"},{"id":"620","name":"Lumeje","state_id":219,"state_code":"MOX","country_id":7,"country_code":"AO","latitude":"-11.55000000","longitude":"20.78333000"},{"id":"599","name":"Cazaji","state_id":220,"state_code":"LSU","country_id":7,"country_code":"AO","latitude":"-11.06715000","longitude":"20.70148000"},{"id":"632","name":"Saurimo","state_id":220,"state_code":"LSU","country_id":7,"country_code":"AO","latitude":"-9.66078000","longitude":"20.39155000"},{"id":"598","name":"Caxito","state_id":221,"state_code":"BGO","country_id":7,"country_code":"AO","latitude":"-8.57848000","longitude":"13.66425000"},{"id":"589","name":"Belas","state_id":222,"state_code":"LUA","country_id":7,"country_code":"AO","latitude":"-9.06875000","longitude":"13.16072000"},{"id":"611","name":"Icolo e Bengo","state_id":222,"state_code":"LUA","country_id":7,"country_code":"AO","latitude":"-9.24191000","longitude":"13.73549000"},{"id":"615","name":"Luanda","state_id":222,"state_code":"LUA","country_id":7,"country_code":"AO","latitude":"-8.83682000","longitude":"13.23432000"},{"id":"618","name":"Lucapa","state_id":223,"state_code":"LNO","country_id":7,"country_code":"AO","latitude":"-8.68337000","longitude":"20.27045000"},{"id":"636","name":"U\u00edge","state_id":224,"state_code":"UIG","country_id":7,"country_code":"AO","latitude":"-7.60874000","longitude":"15.06131000"},{"id":"592","name":"Caconda","state_id":225,"state_code":"HUI","country_id":7,"country_code":"AO","latitude":"-13.73333000","longitude":"15.06667000"},{"id":"593","name":"Caluquembe","state_id":225,"state_code":"HUI","country_id":7,"country_code":"AO","latitude":"-13.92093000","longitude":"14.53476000"},{"id":"602","name":"Chibia","state_id":225,"state_code":"HUI","country_id":7,"country_code":"AO","latitude":"-15.23657000","longitude":"13.88468000"},{"id":"603","name":"Chicomba","state_id":225,"state_code":"HUI","country_id":7,"country_code":"AO","latitude":"-14.30788000","longitude":"14.98672000"},{"id":"604","name":"Chipindo","state_id":225,"state_code":"HUI","country_id":7,"country_code":"AO","latitude":"-13.86830000","longitude":"15.73277000"},{"id":"607","name":"Cuvango","state_id":225,"state_code":"HUI","country_id":7,"country_code":"AO","latitude":"-14.27693000","longitude":"16.31475000"},{"id":"608","name":"Gambos","state_id":225,"state_code":"HUI","country_id":7,"country_code":"AO","latitude":"-15.80926000","longitude":"14.07661000"},{"id":"610","name":"Humpata","state_id":225,"state_code":"HUI","country_id":7,"country_code":"AO","latitude":"-15.07250000","longitude":"13.36771000"},{"id":"612","name":"Jamba","state_id":225,"state_code":"HUI","country_id":7,"country_code":"AO","latitude":"-14.76294000","longitude":"15.83493000"},{"id":"617","name":"Lubango","state_id":225,"state_code":"HUI","country_id":7,"country_code":"AO","latitude":"-14.91717000","longitude":"13.49250000"},{"id":"623","name":"Matala","state_id":225,"state_code":"HUI","country_id":7,"country_code":"AO","latitude":"-15.23967000","longitude":"15.17246000"},{"id":"630","name":"Quilengues","state_id":225,"state_code":"HUI","country_id":7,"country_code":"AO","latitude":"-13.99213000","longitude":"13.76705000"},{"id":"631","name":"Quipungo","state_id":225,"state_code":"HUI","country_id":7,"country_code":"AO","latitude":"-15.12203000","longitude":"14.55953000"},{"id":"625","name":"Menongue","state_id":226,"state_code":"CCU","country_id":7,"country_code":"AO","latitude":"-14.65850000","longitude":"17.69099000"},{"id":"622","name":"Malanje","state_id":227,"state_code":"MAL","country_id":7,"country_code":"AO","latitude":"-9.54015000","longitude":"16.34096000"},{"id":"591","name":"Cabinda","state_id":228,"state_code":"CAB","country_id":7,"country_code":"AO","latitude":"-5.55000000","longitude":"12.20000000"}]