[{"id":"65964","name":"Anse Ger","state_id":3762,"state_code":"08","country_id":186,"country_code":"LC","latitude":"13.79567000","longitude":"-60.91567000"},{"id":"65991","name":"Beauchamp","state_id":3762,"state_code":"08","country_id":186,"country_code":"LC","latitude":"13.81778000","longitude":"-60.91528000"},{"id":"66014","name":"Blanchard","state_id":3762,"state_code":"08","country_id":186,"country_code":"LC","latitude":"13.80616000","longitude":"-60.94630000"},{"id":"66041","name":"Canelles","state_id":3762,"state_code":"08","country_id":186,"country_code":"LC","latitude":"13.78515000","longitude":"-60.91789000"},{"id":"66059","name":"Cazuca","state_id":3762,"state_code":"08","country_id":186,"country_code":"LC","latitude":"13.80002000","longitude":"-60.90481000"},{"id":"66068","name":"Chique\/Blanchard","state_id":3762,"state_code":"08","country_id":186,"country_code":"LC","latitude":"13.80120000","longitude":"-60.94970000"},{"id":"66079","name":"Coolie Town","state_id":3762,"state_code":"08","country_id":186,"country_code":"LC","latitude":"13.85429000","longitude":"-60.91380000"},{"id":"66098","name":"Delomel","state_id":3762,"state_code":"08","country_id":186,"country_code":"LC","latitude":"13.80338000","longitude":"-60.92927000"},{"id":"66116","name":"Des Blanchard","state_id":3762,"state_code":"08","country_id":186,"country_code":"LC","latitude":"13.81155000","longitude":"-60.93423000"},{"id":"66119","name":"Desruisseaux","state_id":3762,"state_code":"08","country_id":186,"country_code":"LC","latitude":"13.79640000","longitude":"-60.93540000"},{"id":"66126","name":"Dugard","state_id":3762,"state_code":"08","country_id":186,"country_code":"LC","latitude":"13.81090000","longitude":"-60.91415000"},{"id":"66134","name":"Escap","state_id":3762,"state_code":"08","country_id":186,"country_code":"LC","latitude":"13.83031000","longitude":"-60.89673000"},{"id":"66148","name":"Fond D'Lor\/Dugard","state_id":3762,"state_code":"08","country_id":186,"country_code":"LC","latitude":"13.81069000","longitude":"-60.92119000"},{"id":"66150","name":"Fond Estate","state_id":3762,"state_code":"08","country_id":186,"country_code":"LC","latitude":"13.84243000","longitude":"-60.91862000"},{"id":"66153","name":"Fond\/Desruisseaux","state_id":3762,"state_code":"08","country_id":186,"country_code":"LC","latitude":"13.79421000","longitude":"-60.94128000"},{"id":"66165","name":"Gomier","state_id":3762,"state_code":"08","country_id":186,"country_code":"LC","latitude":"13.81485000","longitude":"-60.95252000"},{"id":"66167","name":"Gouette","state_id":3762,"state_code":"08","country_id":186,"country_code":"LC","latitude":"13.80650000","longitude":"-60.93964000"},{"id":"66192","name":"Honeymoon Beach","state_id":3762,"state_code":"08","country_id":186,"country_code":"LC","latitude":"13.77746000","longitude":"-60.90493000"},{"id":"66205","name":"L'Eau Mineau","state_id":3762,"state_code":"08","country_id":186,"country_code":"LC","latitude":"13.80672000","longitude":"-60.92103000"},{"id":"66210","name":"La Courville","state_id":3762,"state_code":"08","country_id":186,"country_code":"LC","latitude":"13.81056000","longitude":"-60.92766000"},{"id":"66222","name":"La Pointe","state_id":3762,"state_code":"08","country_id":186,"country_code":"LC","latitude":"13.84593000","longitude":"-60.89332000"},{"id":"66228","name":"La Tille","state_id":3762,"state_code":"08","country_id":186,"country_code":"LC","latitude":"13.82744000","longitude":"-60.91716000"},{"id":"66239","name":"Lezy","state_id":3762,"state_code":"08","country_id":186,"country_code":"LC","latitude":"13.80372000","longitude":"-60.93906000"},{"id":"66240","name":"Lombard","state_id":3762,"state_code":"08","country_id":186,"country_code":"LC","latitude":"13.85772000","longitude":"-60.91510000"},{"id":"66245","name":"Mahaut","state_id":3762,"state_code":"08","country_id":186,"country_code":"LC","latitude":"13.84391000","longitude":"-60.95397000"},{"id":"66247","name":"Malgretoute","state_id":3762,"state_code":"08","country_id":186,"country_code":"LC","latitude":"13.84199000","longitude":"-60.90411000"},{"id":"66249","name":"Mamiku","state_id":3762,"state_code":"08","country_id":186,"country_code":"LC","latitude":"13.86744000","longitude":"-60.90184000"},{"id":"66264","name":"Micoud","state_id":3762,"state_code":"08","country_id":186,"country_code":"LC","latitude":"13.81667000","longitude":"-60.90000000"},{"id":"66268","name":"Mon Repos","state_id":3762,"state_code":"08","country_id":186,"country_code":"LC","latitude":"13.85865000","longitude":"-60.89591000"},{"id":"66290","name":"Moreau","state_id":3762,"state_code":"08","country_id":186,"country_code":"LC","latitude":"13.82676000","longitude":"-60.94238000"},{"id":"66308","name":"Morne Vient","state_id":3762,"state_code":"08","country_id":186,"country_code":"LC","latitude":"13.80646000","longitude":"-60.95241000"},{"id":"66312","name":"Myette Gardens","state_id":3762,"state_code":"08","country_id":186,"country_code":"LC","latitude":"13.81862000","longitude":"-60.90440000"},{"id":"66315","name":"New Village","state_id":3762,"state_code":"08","country_id":186,"country_code":"LC","latitude":"13.82446000","longitude":"-60.89864000"},{"id":"66321","name":"Paix Bouche","state_id":3762,"state_code":"08","country_id":186,"country_code":"LC","latitude":"13.81556000","longitude":"-60.94073000"},{"id":"66323","name":"Palmiste Estate","state_id":3762,"state_code":"08","country_id":186,"country_code":"LC","latitude":"13.85377000","longitude":"-60.96007000"},{"id":"66326","name":"Patience","state_id":3762,"state_code":"08","country_id":186,"country_code":"LC","latitude":"13.85000000","longitude":"-60.90874000"},{"id":"66334","name":"Planard","state_id":3762,"state_code":"08","country_id":186,"country_code":"LC","latitude":"13.80521000","longitude":"-60.91540000"},{"id":"66341","name":"Praslin","state_id":3762,"state_code":"08","country_id":186,"country_code":"LC","latitude":"13.87545000","longitude":"-60.89717000"},{"id":"66344","name":"Rameau","state_id":3762,"state_code":"08","country_id":186,"country_code":"LC","latitude":"13.83055000","longitude":"-60.92375000"},{"id":"66367","name":"Saint Marie Road","state_id":3762,"state_code":"08","country_id":186,"country_code":"LC","latitude":"13.85444000","longitude":"-60.91803000"},{"id":"66373","name":"Saut","state_id":3762,"state_code":"08","country_id":186,"country_code":"LC","latitude":"13.81272000","longitude":"-60.94375000"},{"id":"66375","name":"Savannes","state_id":3762,"state_code":"08","country_id":186,"country_code":"LC","latitude":"13.77098000","longitude":"-60.92017000"},{"id":"66379","name":"St Helen Estate","state_id":3762,"state_code":"08","country_id":186,"country_code":"LC","latitude":"13.78735000","longitude":"-60.90726000"},{"id":"66401","name":"Ti Riviere","state_id":3762,"state_code":"08","country_id":186,"country_code":"LC","latitude":"13.83006000","longitude":"-60.93774000"},{"id":"66403","name":"Ti Rocher","state_id":3762,"state_code":"08","country_id":186,"country_code":"LC","latitude":"13.81734000","longitude":"-60.92858000"},{"id":"66411","name":"Troumassee","state_id":3762,"state_code":"08","country_id":186,"country_code":"LC","latitude":"13.80892000","longitude":"-60.90341000"},{"id":"66425","name":"Village","state_id":3762,"state_code":"08","country_id":186,"country_code":"LC","latitude":"13.81904000","longitude":"-60.89692000"},{"id":"66430","name":"Volet","state_id":3762,"state_code":"08","country_id":186,"country_code":"LC","latitude":"13.82626000","longitude":"-60.90789000"}]