[{"id":"68023","name":"Acachu\u00e9n","state_id":3450,"state_code":"MEX","country_id":142,"country_code":"MX","latitude":"19.84715000","longitude":"-102.09272000"},{"id":"68031","name":"Acalpican de Morelos","state_id":3450,"state_code":"MEX","country_id":142,"country_code":"MX","latitude":"18.01854000","longitude":"-102.34033000"},{"id":"68032","name":"Acambay","state_id":3450,"state_code":"MEX","country_id":142,"country_code":"MX","latitude":"19.95522000","longitude":"-99.84428000"},{"id":"68054","name":"Acatzingo (Acatzingo de la Piedra)","state_id":3450,"state_code":"MEX","country_id":142,"country_code":"MX","latitude":"18.92389000","longitude":"-99.58861000"},{"id":"68063","name":"Acolman de Netzahualc\u00f3yotl","state_id":3450,"state_code":"MEX","country_id":142,"country_code":"MX","latitude":"19.63976000","longitude":"-98.90777000"},{"id":"68079","name":"Acuitlapilco","state_id":3450,"state_code":"MEX","country_id":142,"country_code":"MX","latitude":"18.90873000","longitude":"-99.78464000"},{"id":"68082","name":"Aculco de Espinoza","state_id":3450,"state_code":"MEX","country_id":142,"country_code":"MX","latitude":"20.09867000","longitude":"-99.82757000"},{"id":"68104","name":"Agua Blanca","state_id":3450,"state_code":"MEX","country_id":142,"country_code":"MX","latitude":"19.22056000","longitude":"-99.47056000"},{"id":"68107","name":"Agua Caliente","state_id":3450,"state_code":"MEX","country_id":142,"country_code":"MX","latitude":"19.90011000","longitude":"-100.17186000"},{"id":"68111","name":"Agua Escondida","state_id":3450,"state_code":"MEX","country_id":142,"country_code":"MX","latitude":"19.97893000","longitude":"-99.57829000"},{"id":"68133","name":"Ahuacatitl\u00e1n","state_id":3450,"state_code":"MEX","country_id":142,"country_code":"MX","latitude":"18.89414000","longitude":"-99.70867000"},{"id":"68134","name":"Ahuacatitl\u00e1n Cuarto y Quinto Cuartel","state_id":3450,"state_code":"MEX","country_id":142,"country_code":"MX","latitude":"19.96222000","longitude":"-99.98694000"},{"id":"68178","name":"Alborada Jaltenco","state_id":3450,"state_code":"MEX","country_id":142,"country_code":"MX","latitude":"19.66194000","longitude":"-99.06889000"},{"id":"68215","name":"Almoloya de Alquisiras","state_id":3450,"state_code":"MEX","country_id":142,"country_code":"MX","latitude":"18.84217000","longitude":"-99.86416000"},{"id":"68216","name":"Almoloya del R\u00edo","state_id":3450,"state_code":"MEX","country_id":142,"country_code":"MX","latitude":"19.16046000","longitude":"-99.48740000"},{"id":"68235","name":"Amanalco de Becerra","state_id":3450,"state_code":"MEX","country_id":142,"country_code":"MX","latitude":"19.31667000","longitude":"-100.01667000"},{"id":"68239","name":"Amatepec","state_id":3450,"state_code":"MEX","country_id":142,"country_code":"MX","latitude":"18.68222000","longitude":"-100.18583000"},{"id":"68252","name":"Amecameca","state_id":3450,"state_code":"MEX","country_id":142,"country_code":"MX","latitude":"19.12384000","longitude":"-98.76649000"},{"id":"68260","name":"Ampliaci\u00f3n San Mateo (Colonia Solidaridad)","state_id":3450,"state_code":"MEX","country_id":142,"country_code":"MX","latitude":"19.61639000","longitude":"-99.14722000"},{"id":"68261","name":"Ampliaci\u00f3n Tezoyuca","state_id":3450,"state_code":"MEX","country_id":142,"country_code":"MX","latitude":"19.58057000","longitude":"-98.92053000"},{"id":"68301","name":"Apaxco de Ocampo","state_id":3450,"state_code":"MEX","country_id":142,"country_code":"MX","latitude":"19.97512000","longitude":"-99.17112000"},{"id":"68334","name":"Arbolada los Sauces","state_id":3450,"state_code":"MEX","country_id":142,"country_code":"MX","latitude":"19.81583000","longitude":"-99.04417000"},{"id":"68346","name":"Arenal","state_id":3450,"state_code":"MEX","country_id":142,"country_code":"MX","latitude":"19.38111000","longitude":"-98.94278000"},{"id":"68400","name":"Atenguillo","state_id":3450,"state_code":"MEX","country_id":142,"country_code":"MX","latitude":"19.56361000","longitude":"-98.87639000"},{"id":"68407","name":"Atizap\u00e1n","state_id":3450,"state_code":"MEX","country_id":142,"country_code":"MX","latitude":"19.25000000","longitude":"-99.55000000"},{"id":"68411","name":"Atlacomulco de Fabela","state_id":3450,"state_code":"MEX","country_id":142,"country_code":"MX","latitude":"19.79919000","longitude":"-99.87500000"},{"id":"68418","name":"Atlatongo","state_id":3450,"state_code":"MEX","country_id":142,"country_code":"MX","latitude":"19.66776000","longitude":"-98.90402000"},{"id":"68419","name":"Atlautla","state_id":3450,"state_code":"MEX","country_id":142,"country_code":"MX","latitude":"19.02188000","longitude":"-98.77859000"},{"id":"68448","name":"Axapusco","state_id":3450,"state_code":"MEX","country_id":142,"country_code":"MX","latitude":"19.72456000","longitude":"-98.75863000"},{"id":"68453","name":"Axotl\u00e1n","state_id":3450,"state_code":"MEX","country_id":142,"country_code":"MX","latitude":"19.69417000","longitude":"-99.23944000"},{"id":"68461","name":"Ayapango","state_id":3450,"state_code":"MEX","country_id":142,"country_code":"MX","latitude":"19.12692000","longitude":"-98.79988000"},{"id":"68525","name":"Barrio Bordo Nuevo","state_id":3450,"state_code":"MEX","country_id":142,"country_code":"MX","latitude":"19.37917000","longitude":"-99.67333000"},{"id":"68526","name":"Barrio Chiquichuca","state_id":3450,"state_code":"MEX","country_id":142,"country_code":"MX","latitude":"19.32139000","longitude":"-100.21278000"},{"id":"68527","name":"Barrio Cuarto (La Loma)","state_id":3450,"state_code":"MEX","country_id":142,"country_code":"MX","latitude":"19.76861000","longitude":"-99.67694000"},{"id":"68536","name":"Barrio de Arriba de San Juan Xoconusco","state_id":3450,"state_code":"MEX","country_id":142,"country_code":"MX","latitude":"19.32040000","longitude":"-100.27020000"},{"id":"68537","name":"Barrio de Boyecha","state_id":3450,"state_code":"MEX","country_id":142,"country_code":"MX","latitude":"19.70778000","longitude":"-99.68444000"},{"id":"68538","name":"Barrio de Canales","state_id":3450,"state_code":"MEX","country_id":142,"country_code":"MX","latitude":"19.37333000","longitude":"-99.37556000"},{"id":"68539","name":"Barrio de Centro del Cerrillo","state_id":3450,"state_code":"MEX","country_id":142,"country_code":"MX","latitude":"19.53694000","longitude":"-99.95417000"},{"id":"68540","name":"Barrio de Ensido","state_id":3450,"state_code":"MEX","country_id":142,"country_code":"MX","latitude":"19.49389000","longitude":"-99.37444000"},{"id":"68541","name":"Barrio de Espa\u00f1a","state_id":3450,"state_code":"MEX","country_id":142,"country_code":"MX","latitude":"19.86139000","longitude":"-99.08167000"},{"id":"68542","name":"Barrio de Guadalupe","state_id":3450,"state_code":"MEX","country_id":142,"country_code":"MX","latitude":"19.23054000","longitude":"-98.93090000"},{"id":"68544","name":"Barrio de Jes\u00fas Fracci\u00f3n Primera","state_id":3450,"state_code":"MEX","country_id":142,"country_code":"MX","latitude":"19.36778000","longitude":"-99.68694000"},{"id":"68554","name":"Barrio de la Barranca","state_id":3450,"state_code":"MEX","country_id":142,"country_code":"MX","latitude":"19.43583000","longitude":"-99.55833000"},{"id":"68545","name":"Barrio de M\u00e9xico","state_id":3450,"state_code":"MEX","country_id":142,"country_code":"MX","latitude":"19.28250000","longitude":"-99.82833000"},{"id":"68547","name":"Barrio de Puentecillas","state_id":3450,"state_code":"MEX","country_id":142,"country_code":"MX","latitude":"19.53558000","longitude":"-99.98463000"},{"id":"68548","name":"Barrio de San Isidro","state_id":3450,"state_code":"MEX","country_id":142,"country_code":"MX","latitude":"19.52139000","longitude":"-99.95861000"},{"id":"68549","name":"Barrio de San Juan","state_id":3450,"state_code":"MEX","country_id":142,"country_code":"MX","latitude":"19.41420000","longitude":"-99.53717000"},{"id":"68551","name":"Barrio de San Miguel","state_id":3450,"state_code":"MEX","country_id":142,"country_code":"MX","latitude":"19.51232000","longitude":"-99.95467000"},{"id":"68552","name":"Barrio de San Pedro la Cabecera","state_id":3450,"state_code":"MEX","country_id":142,"country_code":"MX","latitude":"19.56528000","longitude":"-99.75000000"},{"id":"68553","name":"Barrio de San Ram\u00f3n","state_id":3450,"state_code":"MEX","country_id":142,"country_code":"MX","latitude":"19.37361000","longitude":"-99.33111000"},{"id":"68555","name":"Barrio del Caj\u00f3n","state_id":3450,"state_code":"MEX","country_id":142,"country_code":"MX","latitude":"19.39139000","longitude":"-99.65806000"},{"id":"68556","name":"Barrio el Boncho","state_id":3450,"state_code":"MEX","country_id":142,"country_code":"MX","latitude":"19.42611000","longitude":"-100.10639000"},{"id":"68557","name":"Barrio el Vivero","state_id":3450,"state_code":"MEX","country_id":142,"country_code":"MX","latitude":"19.45306000","longitude":"-100.03528000"},{"id":"68558","name":"Barrio la Joya","state_id":3450,"state_code":"MEX","country_id":142,"country_code":"MX","latitude":"19.42000000","longitude":"-100.09972000"},{"id":"68559","name":"Barrio la Tener\u00eda","state_id":3450,"state_code":"MEX","country_id":142,"country_code":"MX","latitude":"19.69361000","longitude":"-99.79194000"},{"id":"68560","name":"Barrio los Tules","state_id":3450,"state_code":"MEX","country_id":142,"country_code":"MX","latitude":"19.42917000","longitude":"-100.07472000"},{"id":"68531","name":"Barrio San Joaqu\u00edn el Junco","state_id":3450,"state_code":"MEX","country_id":142,"country_code":"MX","latitude":"19.56417000","longitude":"-99.77333000"},{"id":"68532","name":"Barrio San Miguel Dorami","state_id":3450,"state_code":"MEX","country_id":142,"country_code":"MX","latitude":"19.44622000","longitude":"-99.34296000"},{"id":"68533","name":"Barrio Santa Cruz","state_id":3450,"state_code":"MEX","country_id":142,"country_code":"MX","latitude":"19.35139000","longitude":"-99.66278000"},{"id":"68534","name":"Barrio Tepetitl\u00e1n Emilio Portes Gil","state_id":3450,"state_code":"MEX","country_id":142,"country_code":"MX","latitude":"19.65306000","longitude":"-99.88667000"},{"id":"68535","name":"Barrio Tlatenco","state_id":3450,"state_code":"MEX","country_id":142,"country_code":"MX","latitude":"19.73917000","longitude":"-99.19167000"},{"id":"68571","name":"Bejucos","state_id":3450,"state_code":"MEX","country_id":142,"country_code":"MX","latitude":"18.77802000","longitude":"-100.42778000"},{"id":"68572","name":"Belem","state_id":3450,"state_code":"MEX","country_id":142,"country_code":"MX","latitude":"19.63334000","longitude":"-98.79664000"},{"id":"68595","name":"Benito Ju\u00e1rez","state_id":3450,"state_code":"MEX","country_id":142,"country_code":"MX","latitude":"19.43765000","longitude":"-99.85384000"},{"id":"68620","name":"Bobashi de Guadalupe","state_id":3450,"state_code":"MEX","country_id":142,"country_code":"MX","latitude":"19.87583000","longitude":"-99.91167000"},{"id":"68642","name":"Boshind\u00f3","state_id":3450,"state_code":"MEX","country_id":142,"country_code":"MX","latitude":"19.91922000","longitude":"-99.84075000"},{"id":"68645","name":"Bosques de la Magdalena","state_id":3450,"state_code":"MEX","country_id":142,"country_code":"MX","latitude":"19.35778000","longitude":"-98.94750000"},{"id":"68670","name":"Buenavista","state_id":3450,"state_code":"MEX","country_id":142,"country_code":"MX","latitude":"19.60833000","longitude":"-99.16944000"},{"id":"68687","name":"Buenos Aires","state_id":3450,"state_code":"MEX","country_id":142,"country_code":"MX","latitude":"19.61745000","longitude":"-99.66790000"},{"id":"68876","name":"Ca\u00f1ada de Cisneros","state_id":3450,"state_code":"MEX","country_id":142,"country_code":"MX","latitude":"19.69534000","longitude":"-99.33570000"},{"id":"68877","name":"Ca\u00f1ada de Guadarrama","state_id":3450,"state_code":"MEX","country_id":142,"country_code":"MX","latitude":"19.31272000","longitude":"-99.78972000"},{"id":"68701","name":"Cabecera de Ind\u00edgenas","state_id":3450,"state_code":"MEX","country_id":142,"country_code":"MX","latitude":"19.37213000","longitude":"-100.13667000"},{"id":"68709","name":"Cacalomacan","state_id":3450,"state_code":"MEX","country_id":142,"country_code":"MX","latitude":"19.25311000","longitude":"-99.70623000"},{"id":"68721","name":"Caja de Agua","state_id":3450,"state_code":"MEX","country_id":142,"country_code":"MX","latitude":"19.64329000","longitude":"-99.36497000"},{"id":"68738","name":"Calimaya","state_id":3450,"state_code":"MEX","country_id":142,"country_code":"MX","latitude":"19.16324000","longitude":"-99.61810000"},{"id":"68740","name":"Calixtlahuaca","state_id":3450,"state_code":"MEX","country_id":142,"country_code":"MX","latitude":"19.33651000","longitude":"-99.68923000"},{"id":"68750","name":"Calvario Buenavista","state_id":3450,"state_code":"MEX","country_id":142,"country_code":"MX","latitude":"19.70387000","longitude":"-99.95674000"},{"id":"68751","name":"Calvario del Carmen","state_id":3450,"state_code":"MEX","country_id":142,"country_code":"MX","latitude":"19.63562000","longitude":"-100.01030000"},{"id":"68783","name":"Canalejas","state_id":3450,"state_code":"MEX","country_id":142,"country_code":"MX","latitude":"19.97867000","longitude":"-99.60548000"},{"id":"68808","name":"Capula","state_id":3450,"state_code":"MEX","country_id":142,"country_code":"MX","latitude":"18.87018000","longitude":"-99.96075000"},{"id":"68811","name":"Capulhuac de Mirafuentes","state_id":3450,"state_code":"MEX","country_id":142,"country_code":"MX","latitude":"19.19354000","longitude":"-99.46585000"},{"id":"68815","name":"Carap\u00e1n","state_id":3450,"state_code":"MEX","country_id":142,"country_code":"MX","latitude":"19.86003000","longitude":"-102.03644000"},{"id":"68849","name":"Casa Nueva","state_id":3450,"state_code":"MEX","country_id":142,"country_code":"MX","latitude":"19.83333000","longitude":"-99.20944000"},{"id":"68854","name":"Casas Viejas","state_id":3450,"state_code":"MEX","country_id":142,"country_code":"MX","latitude":"19.15167000","longitude":"-100.10778000"},{"id":"68855","name":"Caser\u00edo de Cort\u00e9s","state_id":3450,"state_code":"MEX","country_id":142,"country_code":"MX","latitude":"19.19861000","longitude":"-98.95444000"},{"id":"68887","name":"Cedro de la Manzana","state_id":3450,"state_code":"MEX","country_id":142,"country_code":"MX","latitude":"19.69213000","longitude":"-100.11656000"},{"id":"68892","name":"Celayita","state_id":3450,"state_code":"MEX","country_id":142,"country_code":"MX","latitude":"20.24113000","longitude":"-99.86142000"},{"id":"68919","name":"Cerritos del Pilar","state_id":3450,"state_code":"MEX","country_id":142,"country_code":"MX","latitude":"19.44508000","longitude":"-100.01909000"},{"id":"68935","name":"Cerro de San Francisco","state_id":3450,"state_code":"MEX","country_id":142,"country_code":"MX","latitude":"19.37038000","longitude":"-99.35162000"},{"id":"68939","name":"Cerro del Murci\u00e9lago","state_id":3450,"state_code":"MEX","country_id":142,"country_code":"MX","latitude":"19.28194000","longitude":"-99.75472000"},{"id":"68931","name":"Cerro La Calera","state_id":3450,"state_code":"MEX","country_id":142,"country_code":"MX","latitude":"19.18333000","longitude":"-99.81667000"},{"id":"68957","name":"Chalchihuapan","state_id":3450,"state_code":"MEX","country_id":142,"country_code":"MX","latitude":"18.97694000","longitude":"-99.57472000"},{"id":"68962","name":"Chalco","state_id":3450,"state_code":"MEX","country_id":142,"country_code":"MX","latitude":"19.26174000","longitude":"-98.89775000"},{"id":"68963","name":"Chalma","state_id":3450,"state_code":"MEX","country_id":142,"country_code":"MX","latitude":"18.93048000","longitude":"-99.43505000"},{"id":"68965","name":"Chalmita","state_id":3450,"state_code":"MEX","country_id":142,"country_code":"MX","latitude":"18.93433000","longitude":"-99.42325000"},{"id":"68977","name":"Chapa de Mota","state_id":3450,"state_code":"MEX","country_id":142,"country_code":"MX","latitude":"19.82420000","longitude":"-99.55252000"},{"id":"68982","name":"Chaparaco","state_id":3450,"state_code":"MEX","country_id":142,"country_code":"MX","latitude":"19.96061000","longitude":"-102.26092000"},{"id":"68990","name":"Chapultepec","state_id":3450,"state_code":"MEX","country_id":142,"country_code":"MX","latitude":"19.20216000","longitude":"-99.56176000"},{"id":"69013","name":"Chiautla","state_id":3450,"state_code":"MEX","country_id":142,"country_code":"MX","latitude":"19.54895000","longitude":"-98.88236000"},{"id":"69036","name":"Chicoloapan","state_id":3450,"state_code":"MEX","country_id":142,"country_code":"MX","latitude":"19.41687000","longitude":"-98.90202000"},{"id":"69040","name":"Chiconcuac","state_id":3450,"state_code":"MEX","country_id":142,"country_code":"MX","latitude":"19.55939000","longitude":"-98.89884000"},{"id":"69066","name":"Chilchota","state_id":3450,"state_code":"MEX","country_id":142,"country_code":"MX","latitude":"19.84654000","longitude":"-102.11716000"},{"id":"69073","name":"Chiltepec de Hidalgo","state_id":3450,"state_code":"MEX","country_id":142,"country_code":"MX","latitude":"18.91266000","longitude":"-99.83450000"},{"id":"69077","name":"Chimalpa Viejo","state_id":3450,"state_code":"MEX","country_id":142,"country_code":"MX","latitude":"19.44956000","longitude":"-99.34435000"},{"id":"69108","name":"Chosto de los Jarros","state_id":3450,"state_code":"MEX","country_id":142,"country_code":"MX","latitude":"19.86333000","longitude":"-99.91000000"},{"id":"69165","name":"Ciudad L\u00f3pez Mateos","state_id":3450,"state_code":"MEX","country_id":142,"country_code":"MX","latitude":"19.55793000","longitude":"-99.25675000"},{"id":"69173","name":"Ciudad Nezahualcoyotl","state_id":3450,"state_code":"MEX","country_id":142,"country_code":"MX","latitude":"19.40061000","longitude":"-99.01483000"},{"id":"69203","name":"Coacalco","state_id":3450,"state_code":"MEX","country_id":142,"country_code":"MX","latitude":"19.62923000","longitude":"-99.10689000"},{"id":"69221","name":"Coamilpa de Ju\u00e1rez","state_id":3450,"state_code":"MEX","country_id":142,"country_code":"MX","latitude":"19.19778000","longitude":"-99.44361000"},{"id":"69225","name":"Coatepec","state_id":3450,"state_code":"MEX","country_id":142,"country_code":"MX","latitude":"19.38485000","longitude":"-98.84546000"},{"id":"69228","name":"Coatepec Harinas","state_id":3450,"state_code":"MEX","country_id":142,"country_code":"MX","latitude":"18.89492000","longitude":"-99.72153000"},{"id":"69239","name":"Cocotitl\u00e1n","state_id":3450,"state_code":"MEX","country_id":142,"country_code":"MX","latitude":"19.23336000","longitude":"-98.86596000"},{"id":"69265","name":"Colonia 2 de Septiembre","state_id":3450,"state_code":"MEX","country_id":142,"country_code":"MX","latitude":"19.70056000","longitude":"-99.11667000"},{"id":"69268","name":"Colonia 3 de Mayo","state_id":3450,"state_code":"MEX","country_id":142,"country_code":"MX","latitude":"18.82726000","longitude":"-99.69304000"},{"id":"69269","name":"Colonia 3 de Mayo (La Cruz)","state_id":3450,"state_code":"MEX","country_id":142,"country_code":"MX","latitude":"19.98083000","longitude":"-99.16361000"},{"id":"69271","name":"Colonia Adolfo L\u00f3pez Mateos","state_id":3450,"state_code":"MEX","country_id":142,"country_code":"MX","latitude":"19.40056000","longitude":"-99.45944000"},{"id":"69274","name":"Colonia Agr\u00edcola Analco","state_id":3450,"state_code":"MEX","country_id":142,"country_code":"MX","latitude":"19.34972000","longitude":"-99.47500000"},{"id":"69277","name":"Colonia Agr\u00edcola \u00c1lvaro Obreg\u00f3n","state_id":3450,"state_code":"MEX","country_id":142,"country_code":"MX","latitude":"19.22806000","longitude":"-99.55583000"},{"id":"69281","name":"Colonia Arboledas (San Andr\u00e9s)","state_id":3450,"state_code":"MEX","country_id":142,"country_code":"MX","latitude":"19.20250000","longitude":"-99.58083000"},{"id":"69282","name":"Colonia Aviaci\u00f3n Autopan","state_id":3450,"state_code":"MEX","country_id":142,"country_code":"MX","latitude":"19.37917000","longitude":"-99.69278000"},{"id":"69283","name":"Colonia Azteca","state_id":3450,"state_code":"MEX","country_id":142,"country_code":"MX","latitude":"19.07806000","longitude":"-99.65417000"},{"id":"69405","name":"Colonia \u00c1lvaro Obreg\u00f3n","state_id":3450,"state_code":"MEX","country_id":142,"country_code":"MX","latitude":"19.37691000","longitude":"-99.49484000"},{"id":"69284","name":"Colonia Bellavista","state_id":3450,"state_code":"MEX","country_id":142,"country_code":"MX","latitude":"19.29820000","longitude":"-99.80879000"},{"id":"69290","name":"Colonia Cuauht\u00e9moc","state_id":3450,"state_code":"MEX","country_id":142,"country_code":"MX","latitude":"19.25122000","longitude":"-99.79717000"},{"id":"69292","name":"Colonia Doctor Gustavo Baz","state_id":3450,"state_code":"MEX","country_id":142,"country_code":"MX","latitude":"19.41056000","longitude":"-99.92167000"},{"id":"69385","name":"Colonia el Mirador","state_id":3450,"state_code":"MEX","country_id":142,"country_code":"MX","latitude":"19.67167000","longitude":"-99.35722000"},{"id":"69388","name":"Colonia el Pirame","state_id":3450,"state_code":"MEX","country_id":142,"country_code":"MX","latitude":"19.24083000","longitude":"-99.47194000"},{"id":"69389","name":"Colonia el Refugio","state_id":3450,"state_code":"MEX","country_id":142,"country_code":"MX","latitude":"19.22694000","longitude":"-99.69417000"},{"id":"69391","name":"Colonia el Salado","state_id":3450,"state_code":"MEX","country_id":142,"country_code":"MX","latitude":"19.58389000","longitude":"-98.99139000"},{"id":"69296","name":"Colonia Emiliano Zapata","state_id":3450,"state_code":"MEX","country_id":142,"country_code":"MX","latitude":"19.39111000","longitude":"-99.52528000"},{"id":"69298","name":"Colonia Emiliano Zapata Ejido de Tenancingo","state_id":3450,"state_code":"MEX","country_id":142,"country_code":"MX","latitude":"18.95361000","longitude":"-99.55889000"},{"id":"69306","name":"Colonia Guadalupe","state_id":3450,"state_code":"MEX","country_id":142,"country_code":"MX","latitude":"19.71306000","longitude":"-99.24972000"},{"id":"69307","name":"Colonia Guadalupe Victoria","state_id":3450,"state_code":"MEX","country_id":142,"country_code":"MX","latitude":"19.49917000","longitude":"-98.91917000"},{"id":"69308","name":"Colonia Guadalupe Victoria (La Capilla)","state_id":3450,"state_code":"MEX","country_id":142,"country_code":"MX","latitude":"19.40222000","longitude":"-99.45417000"},{"id":"69309","name":"Colonia Gustavo Baz Prada","state_id":3450,"state_code":"MEX","country_id":142,"country_code":"MX","latitude":"19.42139000","longitude":"-99.01361000"},{"id":"69314","name":"Colonia Isidro Fabela","state_id":3450,"state_code":"MEX","country_id":142,"country_code":"MX","latitude":"19.30056000","longitude":"-99.52278000"},{"id":"69318","name":"Colonia Ju\u00e1rez","state_id":3450,"state_code":"MEX","country_id":142,"country_code":"MX","latitude":"19.99583000","longitude":"-99.14944000"},{"id":"69392","name":"Colonia la Asunci\u00f3n","state_id":3450,"state_code":"MEX","country_id":142,"country_code":"MX","latitude":"19.69083000","longitude":"-99.06417000"},{"id":"69395","name":"Colonia la Libertad","state_id":3450,"state_code":"MEX","country_id":142,"country_code":"MX","latitude":"19.18528000","longitude":"-99.50278000"},{"id":"69325","name":"Colonia L\u00e1zaro C\u00e1rdenas","state_id":3450,"state_code":"MEX","country_id":142,"country_code":"MX","latitude":"19.51306000","longitude":"-98.92000000"},{"id":"69326","name":"Colonia L\u00e1zaro C\u00e1rdenas (Los Hornos)","state_id":3450,"state_code":"MEX","country_id":142,"country_code":"MX","latitude":"19.63167000","longitude":"-99.15333000"},{"id":"69322","name":"Colonia Lindavista","state_id":3450,"state_code":"MEX","country_id":142,"country_code":"MX","latitude":"19.49156000","longitude":"-99.12475000"},{"id":"69399","name":"Colonia los Aguiluchos","state_id":3450,"state_code":"MEX","country_id":142,"country_code":"MX","latitude":"19.72611000","longitude":"-99.09028000"},{"id":"69400","name":"Colonia los Cedros","state_id":3450,"state_code":"MEX","country_id":142,"country_code":"MX","latitude":"19.31167000","longitude":"-99.54111000"},{"id":"69402","name":"Colonia los Remedios","state_id":3450,"state_code":"MEX","country_id":142,"country_code":"MX","latitude":"19.73444000","longitude":"-98.79111000"},{"id":"69333","name":"Colonia Morelos","state_id":3450,"state_code":"MEX","country_id":142,"country_code":"MX","latitude":"19.63778000","longitude":"-99.33917000"},{"id":"69346","name":"Colonia Palma","state_id":3450,"state_code":"MEX","country_id":142,"country_code":"MX","latitude":"19.56444000","longitude":"-99.42417000"},{"id":"69360","name":"Colonia R\u00edo Lerma (Tic Ti)","state_id":3450,"state_code":"MEX","country_id":142,"country_code":"MX","latitude":"19.80556000","longitude":"-99.89722000"},{"id":"69354","name":"Colonia Reforma Tlalmimilolpan","state_id":3450,"state_code":"MEX","country_id":142,"country_code":"MX","latitude":"19.38806000","longitude":"-99.48889000"},{"id":"69357","name":"Colonia Ricardo Flores Mag\u00f3n","state_id":3450,"state_code":"MEX","country_id":142,"country_code":"MX","latitude":"19.26833000","longitude":"-99.75833000"},{"id":"69359","name":"Colonia Rinc\u00f3n Villa del Valle","state_id":3450,"state_code":"MEX","country_id":142,"country_code":"MX","latitude":"19.20966000","longitude":"-100.11917000"},{"id":"69363","name":"Colonia San Francisco de As\u00eds","state_id":3450,"state_code":"MEX","country_id":142,"country_code":"MX","latitude":"19.57861000","longitude":"-99.75444000"},{"id":"69368","name":"Colonia San Ram\u00f3n","state_id":3450,"state_code":"MEX","country_id":142,"country_code":"MX","latitude":"18.96833000","longitude":"-99.57222000"},{"id":"69373","name":"Colonia Tulteca Teopan","state_id":3450,"state_code":"MEX","country_id":142,"country_code":"MX","latitude":"19.56139000","longitude":"-98.84417000"},{"id":"69379","name":"Colonia Wenceslao Labra","state_id":3450,"state_code":"MEX","country_id":142,"country_code":"MX","latitude":"19.82773000","longitude":"-99.12435000"},{"id":"69409","name":"Colorines","state_id":3450,"state_code":"MEX","country_id":142,"country_code":"MX","latitude":"19.17829000","longitude":"-100.21817000"},{"id":"69434","name":"Concepci\u00f3n Caro","state_id":3450,"state_code":"MEX","country_id":142,"country_code":"MX","latitude":"19.77139000","longitude":"-99.90917000"},{"id":"69440","name":"Concepci\u00f3n del Monte","state_id":3450,"state_code":"MEX","country_id":142,"country_code":"MX","latitude":"19.65128000","longitude":"-100.15440000"},{"id":"69438","name":"Concepci\u00f3n Jolalpan","state_id":3450,"state_code":"MEX","country_id":142,"country_code":"MX","latitude":"19.58399000","longitude":"-98.84643000"},{"id":"69442","name":"Concepci\u00f3n la Venta","state_id":3450,"state_code":"MEX","country_id":142,"country_code":"MX","latitude":"19.69144000","longitude":"-100.15181000"},{"id":"69448","name":"Conejeras","state_id":3450,"state_code":"MEX","country_id":142,"country_code":"MX","latitude":"20.01271000","longitude":"-99.96202000"},{"id":"69455","name":"Conjunto Habitacional Ecol\u00f3gico SUTEYM","state_id":3450,"state_code":"MEX","country_id":142,"country_code":"MX","latitude":"19.36889000","longitude":"-99.77861000"},{"id":"69458","name":"Conjunto Urbano la Loma I","state_id":3450,"state_code":"MEX","country_id":142,"country_code":"MX","latitude":"19.32639000","longitude":"-99.73194000"},{"id":"69467","name":"Contepec","state_id":3450,"state_code":"MEX","country_id":142,"country_code":"MX","latitude":"19.95432000","longitude":"-100.16385000"},{"id":"69501","name":"Coscomate del Progreso","state_id":3450,"state_code":"MEX","country_id":142,"country_code":"MX","latitude":"19.93416000","longitude":"-99.51902000"},{"id":"69521","name":"Coyotepec","state_id":3450,"state_code":"MEX","country_id":142,"country_code":"MX","latitude":"19.77722000","longitude":"-99.21295000"},{"id":"69530","name":"Cozotl\u00e1n Norte","state_id":3450,"state_code":"MEX","country_id":142,"country_code":"MX","latitude":"19.70833000","longitude":"-98.86000000"},{"id":"69552","name":"Cuadrilla de Dolores","state_id":3450,"state_code":"MEX","country_id":142,"country_code":"MX","latitude":"19.14000000","longitude":"-100.06944000"},{"id":"69551","name":"Cuadrilla Vieja","state_id":3450,"state_code":"MEX","country_id":142,"country_code":"MX","latitude":"19.51205000","longitude":"-99.98692000"},{"id":"69590","name":"Cuautitl\u00e1n","state_id":3450,"state_code":"MEX","country_id":142,"country_code":"MX","latitude":"19.67052000","longitude":"-99.17989000"},{"id":"69592","name":"Cuautlacingo","state_id":3450,"state_code":"MEX","country_id":142,"country_code":"MX","latitude":"19.69405000","longitude":"-98.78385000"},{"id":"69610","name":"Cuecuecuatitla","state_id":3450,"state_code":"MEX","country_id":142,"country_code":"MX","latitude":"19.01349000","longitude":"-98.84351000"},{"id":"69613","name":"Cuendo","state_id":3450,"state_code":"MEX","country_id":142,"country_code":"MX","latitude":"19.80028000","longitude":"-99.94778000"},{"id":"69679","name":"Denjhi","state_id":3450,"state_code":"MEX","country_id":142,"country_code":"MX","latitude":"19.92116000","longitude":"-99.53561000"},{"id":"69682","name":"Deti\u00f1a (San Antonio Deti\u00f1a)","state_id":3450,"state_code":"MEX","country_id":142,"country_code":"MX","latitude":"19.97028000","longitude":"-99.88389000"},{"id":"69688","name":"Dios Padre","state_id":3450,"state_code":"MEX","country_id":142,"country_code":"MX","latitude":"19.61474000","longitude":"-100.06499000"},{"id":"69702","name":"Dolores","state_id":3450,"state_code":"MEX","country_id":142,"country_code":"MX","latitude":"20.06059000","longitude":"-100.32211000"},{"id":"69704","name":"Dolores Hidalgo","state_id":3450,"state_code":"MEX","country_id":142,"country_code":"MX","latitude":"19.65528000","longitude":"-99.92639000"},{"id":"69715","name":"Dongu","state_id":3450,"state_code":"MEX","country_id":142,"country_code":"MX","latitude":"19.84295000","longitude":"-99.58651000"},{"id":"69723","name":"Dotegiare","state_id":3450,"state_code":"MEX","country_id":142,"country_code":"MX","latitude":"19.70705000","longitude":"-100.04354000"},{"id":"69725","name":"Doxhicho","state_id":3450,"state_code":"MEX","country_id":142,"country_code":"MX","latitude":"19.89999000","longitude":"-99.55727000"},{"id":"69728","name":"Doxtej\u00e9 Centro","state_id":3450,"state_code":"MEX","country_id":142,"country_code":"MX","latitude":"19.97035000","longitude":"-99.95324000"},{"id":"69726","name":"Doxteje Barrio Primero","state_id":3450,"state_code":"MEX","country_id":142,"country_code":"MX","latitude":"19.95972000","longitude":"-99.95861000"},{"id":"69727","name":"Doxteje Centro","state_id":3450,"state_code":"MEX","country_id":142,"country_code":"MX","latitude":"19.97528000","longitude":"-99.95472000"},{"id":"69752","name":"Ecatepec de Morelos","state_id":3450,"state_code":"MEX","country_id":142,"country_code":"MX","latitude":"19.60378000","longitude":"-99.05514000"},{"id":"69753","name":"Ecatzingo de Hidalgo","state_id":3450,"state_code":"MEX","country_id":142,"country_code":"MX","latitude":"18.95508000","longitude":"-98.75198000"},{"id":"69802","name":"Ejido de Coscomate del Progreso","state_id":3450,"state_code":"MEX","country_id":142,"country_code":"MX","latitude":"19.93379000","longitude":"-99.54720000"},{"id":"69803","name":"Ejido de Dolores","state_id":3450,"state_code":"MEX","country_id":142,"country_code":"MX","latitude":"19.43083000","longitude":"-99.61278000"},{"id":"69804","name":"Ejido de Guadalupe","state_id":3450,"state_code":"MEX","country_id":142,"country_code":"MX","latitude":"19.63765000","longitude":"-99.27178000"},{"id":"69807","name":"Ejido de la Finca","state_id":3450,"state_code":"MEX","country_id":142,"country_code":"MX","latitude":"18.88635000","longitude":"-99.62693000"},{"id":"69805","name":"Ejido de Mozoquilpan","state_id":3450,"state_code":"MEX","country_id":142,"country_code":"MX","latitude":"19.42417000","longitude":"-99.52833000"},{"id":"69806","name":"Ejido de San Mateo Coapexco","state_id":3450,"state_code":"MEX","country_id":142,"country_code":"MX","latitude":"18.94889000","longitude":"-99.64249000"},{"id":"69808","name":"Ejido del Tejocote","state_id":3450,"state_code":"MEX","country_id":142,"country_code":"MX","latitude":"19.48474000","longitude":"-99.27847000"},{"id":"69809","name":"Ejido del Tunal Nenaxi","state_id":3450,"state_code":"MEX","country_id":142,"country_code":"MX","latitude":"19.74389000","longitude":"-99.90889000"},{"id":"69810","name":"Ejido el Castillo","state_id":3450,"state_code":"MEX","country_id":142,"country_code":"MX","latitude":"19.43583000","longitude":"-99.30583000"},{"id":"69817","name":"Ejido la Soledad","state_id":3450,"state_code":"MEX","country_id":142,"country_code":"MX","latitude":"19.64500000","longitude":"-100.10639000"},{"id":"69773","name":"Ejido Loma de Malacota","state_id":3450,"state_code":"MEX","country_id":142,"country_code":"MX","latitude":"19.65753000","longitude":"-99.67122000"},{"id":"69777","name":"Ejido Miraflores","state_id":3450,"state_code":"MEX","country_id":142,"country_code":"MX","latitude":"19.57000000","longitude":"-99.39750000"},{"id":"69783","name":"Ejido Palma (Ejido San Francisco)","state_id":3450,"state_code":"MEX","country_id":142,"country_code":"MX","latitude":"19.56889000","longitude":"-99.40889000"},{"id":"69788","name":"Ejido San Crist\u00f3bal","state_id":3450,"state_code":"MEX","country_id":142,"country_code":"MX","latitude":"19.54250000","longitude":"-98.89417000"},{"id":"69789","name":"Ejido San Diego","state_id":3450,"state_code":"MEX","country_id":142,"country_code":"MX","latitude":"19.41329000","longitude":"-99.82537000"},{"id":"69791","name":"Ejido San Lorenzo Cuauhtenco","state_id":3450,"state_code":"MEX","country_id":142,"country_code":"MX","latitude":"19.30139000","longitude":"-99.75028000"},{"id":"69831","name":"El Arco","state_id":3450,"state_code":"MEX","country_id":142,"country_code":"MX","latitude":"19.22528000","longitude":"-100.13167000"},{"id":"70266","name":"El \u00c1guila (La Mesa)","state_id":3450,"state_code":"MEX","country_id":142,"country_code":"MX","latitude":"19.16694000","longitude":"-99.40639000"},{"id":"69853","name":"El Cabi","state_id":3450,"state_code":"MEX","country_id":142,"country_code":"MX","latitude":"19.18986000","longitude":"-98.85371000"},{"id":"69875","name":"El Carmen (El Desierto del Carmen)","state_id":3450,"state_code":"MEX","country_id":142,"country_code":"MX","latitude":"18.92028000","longitude":"-99.55667000"},{"id":"69878","name":"El Carmen Ocotepec","state_id":3450,"state_code":"MEX","country_id":142,"country_code":"MX","latitude":"19.68722000","longitude":"-99.97417000"},{"id":"69941","name":"El C\u00f3poro","state_id":3450,"state_code":"MEX","country_id":142,"country_code":"MX","latitude":"19.28306000","longitude":"-99.83528000"},{"id":"69894","name":"El Cerrillo Vista Hermosa","state_id":3450,"state_code":"MEX","country_id":142,"country_code":"MX","latitude":"19.32337000","longitude":"-99.54250000"},{"id":"69895","name":"El Cerrito","state_id":3450,"state_code":"MEX","country_id":142,"country_code":"MX","latitude":"19.35528000","longitude":"-99.34833000"},{"id":"69914","name":"El Colorado","state_id":3450,"state_code":"MEX","country_id":142,"country_code":"MX","latitude":"20.09639000","longitude":"-99.76278000"},{"id":"69915","name":"El Coloso","state_id":3450,"state_code":"MEX","country_id":142,"country_code":"MX","latitude":"19.09778000","longitude":"-99.59778000"},{"id":"69921","name":"El Contadero de Matamoros","state_id":3450,"state_code":"MEX","country_id":142,"country_code":"MX","latitude":"19.23734000","longitude":"-99.80990000"},{"id":"69938","name":"El Curtidor","state_id":3450,"state_code":"MEX","country_id":142,"country_code":"MX","latitude":"19.29167000","longitude":"-99.83500000"},{"id":"69954","name":"El Esclavo","state_id":3450,"state_code":"MEX","country_id":142,"country_code":"MX","latitude":"19.67667000","longitude":"-99.37139000"},{"id":"69962","name":"El Espinal","state_id":3450,"state_code":"MEX","country_id":142,"country_code":"MX","latitude":"19.46756000","longitude":"-100.06051000"},{"id":"69980","name":"El Habillal","state_id":3450,"state_code":"MEX","country_id":142,"country_code":"MX","latitude":"18.00699000","longitude":"-102.37263000"},{"id":"69982","name":"El Hielo","state_id":3450,"state_code":"MEX","country_id":142,"country_code":"MX","latitude":"19.42583000","longitude":"-99.35556000"},{"id":"69996","name":"El Jacal","state_id":3450,"state_code":"MEX","country_id":142,"country_code":"MX","latitude":"19.40500000","longitude":"-100.08944000"},{"id":"70025","name":"El Llano del Compromiso","state_id":3450,"state_code":"MEX","country_id":142,"country_code":"MX","latitude":"19.25472000","longitude":"-99.47917000"},{"id":"70024","name":"El Llano Santa Mar\u00eda","state_id":3450,"state_code":"MEX","country_id":142,"country_code":"MX","latitude":"19.78389000","longitude":"-99.08639000"},{"id":"70030","name":"El Magueyal","state_id":3450,"state_code":"MEX","country_id":142,"country_code":"MX","latitude":"19.94250000","longitude":"-99.57462000"},{"id":"70042","name":"El Mogote","state_id":3450,"state_code":"MEX","country_id":142,"country_code":"MX","latitude":"20.16583000","longitude":"-99.91444000"},{"id":"70069","name":"El Obraje","state_id":3450,"state_code":"MEX","country_id":142,"country_code":"MX","latitude":"19.72269000","longitude":"-99.96259000"},{"id":"70070","name":"El Ocotal","state_id":3450,"state_code":"MEX","country_id":142,"country_code":"MX","latitude":"19.67983000","longitude":"-99.47008000"},{"id":"70075","name":"El Oro de Hidalgo","state_id":3450,"state_code":"MEX","country_id":142,"country_code":"MX","latitude":"19.80272000","longitude":"-100.13081000"},{"id":"70077","name":"El Palacio","state_id":3450,"state_code":"MEX","country_id":142,"country_code":"MX","latitude":"19.35139000","longitude":"-99.35667000"},{"id":"70084","name":"El Palmito","state_id":3450,"state_code":"MEX","country_id":142,"country_code":"MX","latitude":"19.91733000","longitude":"-99.68127000"},{"id":"70097","name":"El Pedregal de Guadalupe Hidalgo","state_id":3450,"state_code":"MEX","country_id":142,"country_code":"MX","latitude":"19.25278000","longitude":"-99.46500000"},{"id":"70103","name":"El Pilar","state_id":3450,"state_code":"MEX","country_id":142,"country_code":"MX","latitude":"20.24201000","longitude":"-101.40209000"},{"id":"70104","name":"El Pino","state_id":3450,"state_code":"MEX","country_id":142,"country_code":"MX","latitude":"19.35139000","longitude":"-98.94833000"},{"id":"70109","name":"El Plan","state_id":3450,"state_code":"MEX","country_id":142,"country_code":"MX","latitude":"19.37452000","longitude":"-99.80049000"},{"id":"70121","name":"El Porvenir I","state_id":3450,"state_code":"MEX","country_id":142,"country_code":"MX","latitude":"19.31694000","longitude":"-99.72889000"},{"id":"70124","name":"El Potrero","state_id":3450,"state_code":"MEX","country_id":142,"country_code":"MX","latitude":"19.30625000","longitude":"-99.99393000"},{"id":"70126","name":"El Potrero de San Diego","state_id":3450,"state_code":"MEX","country_id":142,"country_code":"MX","latitude":"19.48899000","longitude":"-100.08210000"},{"id":"70135","name":"El Progreso Hidalgo","state_id":3450,"state_code":"MEX","country_id":142,"country_code":"MX","latitude":"18.84639000","longitude":"-99.61417000"},{"id":"70140","name":"El Puerto Mag\u00fa","state_id":3450,"state_code":"MEX","country_id":142,"country_code":"MX","latitude":"19.68846000","longitude":"-99.37290000"},{"id":"70147","name":"El Recodo de San Jos\u00e9 Axalco","state_id":3450,"state_code":"MEX","country_id":142,"country_code":"MX","latitude":"19.20278000","longitude":"-98.90278000"},{"id":"70164","name":"El Rinc\u00f3n de la Candelaria","state_id":3450,"state_code":"MEX","country_id":142,"country_code":"MX","latitude":"19.79000000","longitude":"-99.84306000"},{"id":"70165","name":"El Rinc\u00f3n de los Perales","state_id":3450,"state_code":"MEX","country_id":142,"country_code":"MX","latitude":"19.54222000","longitude":"-99.82806000"},{"id":"70170","name":"El Rosal","state_id":3450,"state_code":"MEX","country_id":142,"country_code":"MX","latitude":"20.10126000","longitude":"-99.68555000"},{"id":"70186","name":"El Salitre","state_id":3450,"state_code":"MEX","country_id":142,"country_code":"MX","latitude":"18.95250000","longitude":"-99.58972000"},{"id":"70217","name":"El Tepetatal","state_id":3450,"state_code":"MEX","country_id":142,"country_code":"MX","latitude":"19.34581000","longitude":"-99.77086000"},{"id":"70223","name":"El Terrero","state_id":3450,"state_code":"MEX","country_id":142,"country_code":"MX","latitude":"18.79028000","longitude":"-99.64528000"},{"id":"70286","name":"Emiliano Zapata","state_id":3450,"state_code":"MEX","country_id":142,"country_code":"MX","latitude":"19.34361000","longitude":"-98.97472000"},{"id":"70292","name":"Emiliano Zapata (San Jos\u00e9 Bata)","state_id":3450,"state_code":"MEX","country_id":142,"country_code":"MX","latitude":"19.91111000","longitude":"-99.00667000"},{"id":"70293","name":"Emiliano Zapata (Santo Domingo)","state_id":3450,"state_code":"MEX","country_id":142,"country_code":"MX","latitude":"19.57972000","longitude":"-99.78806000"},{"id":"70297","name":"Emilio Portes Gil","state_id":3450,"state_code":"MEX","country_id":142,"country_code":"MX","latitude":"19.64444000","longitude":"-99.91667000"},{"id":"70312","name":"Epitacio Huerta","state_id":3450,"state_code":"MEX","country_id":142,"country_code":"MX","latitude":"20.13493000","longitude":"-100.29321000"},{"id":"70376","name":"Et\u00facuaro","state_id":3450,"state_code":"MEX","country_id":142,"country_code":"MX","latitude":"19.89286000","longitude":"-102.12945000"},{"id":"70382","name":"Ex-Hacienda de Guadalupe","state_id":3450,"state_code":"MEX","country_id":142,"country_code":"MX","latitude":"19.80889000","longitude":"-98.97250000"},{"id":"70388","name":"Ex-hacienda de Xalpa","state_id":3450,"state_code":"MEX","country_id":142,"country_code":"MX","latitude":"19.82150000","longitude":"-99.18275000"},{"id":"70381","name":"Ex-Hacienda Santa In\u00e9s","state_id":3450,"state_code":"MEX","country_id":142,"country_code":"MX","latitude":"19.70667000","longitude":"-99.07250000"},{"id":"70386","name":"Ex-Rancho San Dimas","state_id":3450,"state_code":"MEX","country_id":142,"country_code":"MX","latitude":"19.17389000","longitude":"-99.56528000"},{"id":"70498","name":"F\u00e1brica Concepci\u00f3n","state_id":3450,"state_code":"MEX","country_id":142,"country_code":"MX","latitude":"19.63445000","longitude":"-100.13596000"},{"id":"70462","name":"Fracci\u00f3n San Roque (El Prieto)","state_id":3450,"state_code":"MEX","country_id":142,"country_code":"MX","latitude":"19.68722000","longitude":"-99.17222000"},{"id":"70416","name":"Fraccionamiento Colinas del Sol","state_id":3450,"state_code":"MEX","country_id":142,"country_code":"MX","latitude":"19.37222000","longitude":"-99.74028000"},{"id":"70423","name":"Fraccionamiento Hacienda del Bosque","state_id":3450,"state_code":"MEX","country_id":142,"country_code":"MX","latitude":"19.72667000","longitude":"-98.96861000"},{"id":"70453","name":"Fraccionamiento la Trinidad","state_id":3450,"state_code":"MEX","country_id":142,"country_code":"MX","latitude":"19.82917000","longitude":"-99.08278000"},{"id":"70436","name":"Fraccionamiento Real de San Pablo","state_id":3450,"state_code":"MEX","country_id":142,"country_code":"MX","latitude":"19.38944000","longitude":"-99.64861000"},{"id":"70439","name":"Fraccionamiento Rinconada del Valle","state_id":3450,"state_code":"MEX","country_id":142,"country_code":"MX","latitude":"19.41111000","longitude":"-99.57417000"},{"id":"70460","name":"Fraccionamiento y Club de Golf los Encinos","state_id":3450,"state_code":"MEX","country_id":142,"country_code":"MX","latitude":"19.28917000","longitude":"-99.48000000"},{"id":"70489","name":"Fresno Nichi","state_id":3450,"state_code":"MEX","country_id":142,"country_code":"MX","latitude":"19.56694000","longitude":"-99.94889000"},{"id":"70496","name":"Fuentes del Valle","state_id":3450,"state_code":"MEX","country_id":142,"country_code":"MX","latitude":"19.63250000","longitude":"-99.13861000"},{"id":"70507","name":"Galaxias Toluca","state_id":3450,"state_code":"MEX","country_id":142,"country_code":"MX","latitude":"19.39806000","longitude":"-99.65000000"},{"id":"70510","name":"Galeana","state_id":3450,"state_code":"MEX","country_id":142,"country_code":"MX","latitude":"20.03585000","longitude":"-101.57150000"},{"id":"70519","name":"Ganzda","state_id":3450,"state_code":"MEX","country_id":142,"country_code":"MX","latitude":"19.99000000","longitude":"-99.84750000"},{"id":"70564","name":"Granjas Ampliaci\u00f3n Santa Rosa","state_id":3450,"state_code":"MEX","country_id":142,"country_code":"MX","latitude":"19.59278000","longitude":"-98.96667000"},{"id":"70577","name":"Guadalupe Buenavista","state_id":3450,"state_code":"MEX","country_id":142,"country_code":"MX","latitude":"19.61194000","longitude":"-100.12720000"},{"id":"70578","name":"Guadalupe Cachi","state_id":3450,"state_code":"MEX","country_id":142,"country_code":"MX","latitude":"19.60111000","longitude":"-99.82500000"},{"id":"70580","name":"Guadalupe Cot\u00e9","state_id":3450,"state_code":"MEX","country_id":142,"country_code":"MX","latitude":"19.61075000","longitude":"-99.98499000"},{"id":"70594","name":"Guadalupe Totoltepec","state_id":3450,"state_code":"MEX","country_id":142,"country_code":"MX","latitude":"19.34833000","longitude":"-99.56417000"},{"id":"70637","name":"Gunyo Poniente (San Jos\u00e9 Gunyo)","state_id":3450,"state_code":"MEX","country_id":142,"country_code":"MX","latitude":"20.11149000","longitude":"-99.83861000"},{"id":"70730","name":"Huancito","state_id":3450,"state_code":"MEX","country_id":142,"country_code":"MX","latitude":"19.84889000","longitude":"-102.06784000"},{"id":"70761","name":"Huehuetoca","state_id":3450,"state_code":"MEX","country_id":142,"country_code":"MX","latitude":"19.82819000","longitude":"-99.20370000"},{"id":"70768","name":"Huemetla","state_id":3450,"state_code":"MEX","country_id":142,"country_code":"MX","latitude":"19.71500000","longitude":"-99.73583000"},{"id":"70782","name":"Hueypoxtla","state_id":3450,"state_code":"MEX","country_id":142,"country_code":"MX","latitude":"19.91301000","longitude":"-99.07384000"},{"id":"70791","name":"Huilango","state_id":3450,"state_code":"MEX","country_id":142,"country_code":"MX","latitude":"19.68056000","longitude":"-99.25639000"},{"id":"70814","name":"Huitzoltepec","state_id":3450,"state_code":"MEX","country_id":142,"country_code":"MX","latitude":"18.76737000","longitude":"-99.80014000"},{"id":"70818","name":"Huixquilucan","state_id":3450,"state_code":"MEX","country_id":142,"country_code":"MX","latitude":"19.35985000","longitude":"-99.35016000"},{"id":"70819","name":"Huixquilucan de Degollado","state_id":3450,"state_code":"MEX","country_id":142,"country_code":"MX","latitude":"19.36028000","longitude":"-99.34980000"},{"id":"70836","name":"Ignacio Allende","state_id":3450,"state_code":"MEX","country_id":142,"country_code":"MX","latitude":"19.34426000","longitude":"-99.36146000"},{"id":"70929","name":"Ixtapaluca","state_id":3450,"state_code":"MEX","country_id":142,"country_code":"MX","latitude":"19.31556000","longitude":"-98.88284000"},{"id":"70931","name":"Ixtapan de la Sal","state_id":3450,"state_code":"MEX","country_id":142,"country_code":"MX","latitude":"18.84369000","longitude":"-99.67671000"},{"id":"70932","name":"Ixtapan del Oro","state_id":3450,"state_code":"MEX","country_id":142,"country_code":"MX","latitude":"19.26303000","longitude":"-100.26459000"},{"id":"70940","name":"Ixtlahuaca de Cuauht\u00e9moc","state_id":3450,"state_code":"MEX","country_id":142,"country_code":"MX","latitude":"19.88139000","longitude":"-98.86028000"},{"id":"70941","name":"Ixtlahuaca de Ray\u00f3n","state_id":3450,"state_code":"MEX","country_id":142,"country_code":"MX","latitude":"19.56889000","longitude":"-99.76694000"},{"id":"70960","name":"Jacona de Plancarte","state_id":3450,"state_code":"MEX","country_id":142,"country_code":"MX","latitude":"19.95232000","longitude":"-102.30781000"},{"id":"70974","name":"Jalmolonga (La Hacienda)","state_id":3450,"state_code":"MEX","country_id":142,"country_code":"MX","latitude":"18.91835000","longitude":"-99.49407000"},{"id":"70978","name":"Jalpa de los Ba\u00f1os","state_id":3450,"state_code":"MEX","country_id":142,"country_code":"MX","latitude":"19.67833000","longitude":"-99.87389000"},{"id":"70984","name":"Jaltenco","state_id":3450,"state_code":"MEX","country_id":142,"country_code":"MX","latitude":"19.75298000","longitude":"-99.09390000"},{"id":"70999","name":"Janambo","state_id":3450,"state_code":"MEX","country_id":142,"country_code":"MX","latitude":"20.20642000","longitude":"-101.52644000"},{"id":"71000","name":"Janamuato","state_id":3450,"state_code":"MEX","country_id":142,"country_code":"MX","latitude":"20.09961000","longitude":"-101.58540000"},{"id":"71023","name":"Jes\u00fas Carranza (Rancho de Jes\u00fas)","state_id":3450,"state_code":"MEX","country_id":142,"country_code":"MX","latitude":"18.94528000","longitude":"-99.63056000"},{"id":"71036","name":"Jes\u00fas del Monte","state_id":3450,"state_code":"MEX","country_id":142,"country_code":"MX","latitude":"19.37500000","longitude":"-99.29444000"},{"id":"71027","name":"Jes\u00fas Mar\u00eda","state_id":3450,"state_code":"MEX","country_id":142,"country_code":"MX","latitude":"19.41773000","longitude":"-99.99696000"},{"id":"71039","name":"Jicaltepec Autopan","state_id":3450,"state_code":"MEX","country_id":142,"country_code":"MX","latitude":"19.37167000","longitude":"-99.64083000"},{"id":"71040","name":"Jicaltepec Cuexcontitl\u00e1n","state_id":3450,"state_code":"MEX","country_id":142,"country_code":"MX","latitude":"19.37306000","longitude":"-99.62750000"},{"id":"71045","name":"Jilotepec de Molina Enr\u00edquez","state_id":3450,"state_code":"MEX","country_id":142,"country_code":"MX","latitude":"19.95194000","longitude":"-99.53278000"},{"id":"71046","name":"Jilotzingo","state_id":3450,"state_code":"MEX","country_id":142,"country_code":"MX","latitude":"19.86889000","longitude":"-99.06194000"},{"id":"71056","name":"Jiquipilco","state_id":3450,"state_code":"MEX","country_id":142,"country_code":"MX","latitude":"19.55644000","longitude":"-99.60833000"},{"id":"71067","name":"Jocotitl\u00e1n","state_id":3450,"state_code":"MEX","country_id":142,"country_code":"MX","latitude":"19.70991000","longitude":"-99.78867000"},{"id":"71083","name":"Joquicingo","state_id":3450,"state_code":"MEX","country_id":142,"country_code":"MX","latitude":"19.05032000","longitude":"-99.53375000"},{"id":"71084","name":"Jorge Jim\u00e9nez Cant\u00fa","state_id":3450,"state_code":"MEX","country_id":142,"country_code":"MX","latitude":"19.30972000","longitude":"-98.84667000"},{"id":"71085","name":"Jorobas","state_id":3450,"state_code":"MEX","country_id":142,"country_code":"MX","latitude":"19.82389000","longitude":"-99.24833000"},{"id":"71132","name":"Juchitepec","state_id":3450,"state_code":"MEX","country_id":142,"country_code":"MX","latitude":"19.10059000","longitude":"-98.87880000"},{"id":"71169","name":"La Albarrada (San Francisco la Albarrada)","state_id":3450,"state_code":"MEX","country_id":142,"country_code":"MX","latitude":"19.06750000","longitude":"-100.07528000"},{"id":"71207","name":"La Ca\u00f1ada","state_id":3450,"state_code":"MEX","country_id":142,"country_code":"MX","latitude":"19.48639000","longitude":"-99.59889000"},{"id":"71187","name":"La Cabecera","state_id":3450,"state_code":"MEX","country_id":142,"country_code":"MX","latitude":"19.35611000","longitude":"-99.74806000"},{"id":"71188","name":"La Cabecera Concepci\u00f3n","state_id":3450,"state_code":"MEX","country_id":142,"country_code":"MX","latitude":"19.70361000","longitude":"-99.94111000"},{"id":"71192","name":"La Calle","state_id":3450,"state_code":"MEX","country_id":142,"country_code":"MX","latitude":"20.28628000","longitude":"-101.63679000"},{"id":"71194","name":"La Campanilla","state_id":3450,"state_code":"MEX","country_id":142,"country_code":"MX","latitude":"19.50983000","longitude":"-99.94230000"},{"id":"71198","name":"La Candelaria Tlapala","state_id":3450,"state_code":"MEX","country_id":142,"country_code":"MX","latitude":"19.24042000","longitude":"-98.84766000"},{"id":"71199","name":"La Cantera","state_id":3450,"state_code":"MEX","country_id":142,"country_code":"MX","latitude":"19.86375000","longitude":"-102.40838000"},{"id":"71204","name":"La Caridad","state_id":3450,"state_code":"MEX","country_id":142,"country_code":"MX","latitude":"19.94778000","longitude":"-99.83694000"},{"id":"71217","name":"La Ci\u00e9nega","state_id":3450,"state_code":"MEX","country_id":142,"country_code":"MX","latitude":"18.95611000","longitude":"-99.58139000"},{"id":"71220","name":"La Colonia","state_id":3450,"state_code":"MEX","country_id":142,"country_code":"MX","latitude":"19.14444000","longitude":"-98.78667000"},{"id":"71225","name":"La Compa\u00f1\u00eda","state_id":3450,"state_code":"MEX","country_id":142,"country_code":"MX","latitude":"19.16460000","longitude":"-100.07966000"},{"id":"71227","name":"La Comunidad","state_id":3450,"state_code":"MEX","country_id":142,"country_code":"MX","latitude":"20.02111000","longitude":"-99.57611000"},{"id":"71233","name":"La Concepci\u00f3n","state_id":3450,"state_code":"MEX","country_id":142,"country_code":"MX","latitude":"19.69611000","longitude":"-99.30028000"},{"id":"71235","name":"La Concepci\u00f3n Coatipac (La Conchita)","state_id":3450,"state_code":"MEX","country_id":142,"country_code":"MX","latitude":"19.18188000","longitude":"-99.56833000"},{"id":"71238","name":"La Concepci\u00f3n de Hidalgo","state_id":3450,"state_code":"MEX","country_id":142,"country_code":"MX","latitude":"19.45054000","longitude":"-99.53139000"},{"id":"71239","name":"La Concepci\u00f3n de los Ba\u00f1os","state_id":3450,"state_code":"MEX","country_id":142,"country_code":"MX","latitude":"19.68249000","longitude":"-99.86104000"},{"id":"71236","name":"La Concepci\u00f3n Enyege","state_id":3450,"state_code":"MEX","country_id":142,"country_code":"MX","latitude":"19.56472000","longitude":"-99.84139000"},{"id":"71237","name":"La Concepci\u00f3n Xochicuautla","state_id":3450,"state_code":"MEX","country_id":142,"country_code":"MX","latitude":"19.38226000","longitude":"-99.44050000"},{"id":"71245","name":"La Constituci\u00f3n Toltepec","state_id":3450,"state_code":"MEX","country_id":142,"country_code":"MX","latitude":"19.34861000","longitude":"-99.54917000"},{"id":"71253","name":"La Cruz y Carrizal","state_id":3450,"state_code":"MEX","country_id":142,"country_code":"MX","latitude":"19.83021000","longitude":"-99.42168000"},{"id":"71270","name":"La Esperanza","state_id":3450,"state_code":"MEX","country_id":142,"country_code":"MX","latitude":"19.68377000","longitude":"-99.51575000"},{"id":"71283","name":"La Estancia Sector Uno (La Estancia)","state_id":3450,"state_code":"MEX","country_id":142,"country_code":"MX","latitude":"19.87056000","longitude":"-99.79167000"},{"id":"71290","name":"La Finca","state_id":3450,"state_code":"MEX","country_id":142,"country_code":"MX","latitude":"18.89047000","longitude":"-99.64028000"},{"id":"71303","name":"La Glorieta","state_id":3450,"state_code":"MEX","country_id":142,"country_code":"MX","latitude":"19.41154000","longitude":"-99.38562000"},{"id":"71309","name":"La Guadalupana","state_id":3450,"state_code":"MEX","country_id":142,"country_code":"MX","latitude":"19.55414000","longitude":"-99.90922000"},{"id":"71315","name":"La Herradura","state_id":3450,"state_code":"MEX","country_id":142,"country_code":"MX","latitude":"19.04000000","longitude":"-99.58472000"},{"id":"71333","name":"La Joya","state_id":3450,"state_code":"MEX","country_id":142,"country_code":"MX","latitude":"19.27639000","longitude":"-99.75889000"},{"id":"71365","name":"La Loma","state_id":3450,"state_code":"MEX","country_id":142,"country_code":"MX","latitude":"20.01966000","longitude":"-100.01027000"},{"id":"71368","name":"La Loma Cuexcontitl\u00e1n","state_id":3450,"state_code":"MEX","country_id":142,"country_code":"MX","latitude":"19.38000000","longitude":"-99.64889000"},{"id":"71381","name":"La Magdalena","state_id":3450,"state_code":"MEX","country_id":142,"country_code":"MX","latitude":"19.94796000","longitude":"-99.99947000"},{"id":"71382","name":"La Magdalena Chichicaspa","state_id":3450,"state_code":"MEX","country_id":142,"country_code":"MX","latitude":"19.41237000","longitude":"-99.32555000"},{"id":"71387","name":"La Magdalena de los Reyes (La Magdalena)","state_id":3450,"state_code":"MEX","country_id":142,"country_code":"MX","latitude":"19.18972000","longitude":"-99.41000000"},{"id":"71383","name":"La Magdalena Tenexpan","state_id":3450,"state_code":"MEX","country_id":142,"country_code":"MX","latitude":"19.46333000","longitude":"-99.58861000"},{"id":"71389","name":"La Mesa","state_id":3450,"state_code":"MEX","country_id":142,"country_code":"MX","latitude":"19.58748000","longitude":"-100.17373000"},{"id":"71392","name":"La Mesa de Chosto","state_id":3450,"state_code":"MEX","country_id":142,"country_code":"MX","latitude":"19.85250000","longitude":"-99.89028000"},{"id":"71433","name":"La Pastor\u00eda","state_id":3450,"state_code":"MEX","country_id":142,"country_code":"MX","latitude":"19.54306000","longitude":"-98.91111000"},{"id":"71451","name":"La Planada","state_id":3450,"state_code":"MEX","country_id":142,"country_code":"MX","latitude":"19.78129000","longitude":"-99.18267000"},{"id":"71452","name":"La Planada (El Arenal)","state_id":3450,"state_code":"MEX","country_id":142,"country_code":"MX","latitude":"19.33333000","longitude":"-99.67694000"},{"id":"71459","name":"La Presita Segundo Cuartel","state_id":3450,"state_code":"MEX","country_id":142,"country_code":"MX","latitude":"20.16278000","longitude":"-99.87278000"},{"id":"71462","name":"La Providencia","state_id":3450,"state_code":"MEX","country_id":142,"country_code":"MX","latitude":"19.75833000","longitude":"-99.14667000"},{"id":"71466","name":"La Puerta del Pilar","state_id":3450,"state_code":"MEX","country_id":142,"country_code":"MX","latitude":"19.46018000","longitude":"-100.01577000"},{"id":"71468","name":"La Purificaci\u00f3n","state_id":3450,"state_code":"MEX","country_id":142,"country_code":"MX","latitude":"19.52441000","longitude":"-98.81731000"},{"id":"71480","name":"La Rosa","state_id":3450,"state_code":"MEX","country_id":142,"country_code":"MX","latitude":"19.48519000","longitude":"-99.32984000"},{"id":"71496","name":"La Soledad Barrio","state_id":3450,"state_code":"MEX","country_id":142,"country_code":"MX","latitude":"20.09194000","longitude":"-99.82306000"},{"id":"71510","name":"La Trinidad","state_id":3450,"state_code":"MEX","country_id":142,"country_code":"MX","latitude":"18.96639000","longitude":"-99.58083000"},{"id":"71536","name":"La Y","state_id":3450,"state_code":"MEX","country_id":142,"country_code":"MX","latitude":"19.39806000","longitude":"-99.58972000"},{"id":"71555","name":"Laguna de Tabernillas (El Resbaloso)","state_id":3450,"state_code":"MEX","country_id":142,"country_code":"MX","latitude":"19.46139000","longitude":"-99.87833000"},{"id":"71604","name":"Las Huertas","state_id":3450,"state_code":"MEX","country_id":142,"country_code":"MX","latitude":"19.97222000","longitude":"-99.55611000"},{"id":"71615","name":"Las Manzanas","state_id":3450,"state_code":"MEX","country_id":142,"country_code":"MX","latitude":"19.95069000","longitude":"-99.56109000"},{"id":"71631","name":"Las Pe\u00f1as","state_id":3450,"state_code":"MEX","country_id":142,"country_code":"MX","latitude":"19.44972000","longitude":"-99.99944000"},{"id":"71633","name":"Las Pintas","state_id":3450,"state_code":"MEX","country_id":142,"country_code":"MX","latitude":"19.89667000","longitude":"-98.88694000"},{"id":"71636","name":"Las Ranas","state_id":3450,"state_code":"MEX","country_id":142,"country_code":"MX","latitude":"20.20860000","longitude":"-101.47810000"},{"id":"71638","name":"Las Rosas","state_id":3450,"state_code":"MEX","country_id":142,"country_code":"MX","latitude":"19.54631000","longitude":"-100.15986000"},{"id":"71664","name":"Lerma de Villada","state_id":3450,"state_code":"MEX","country_id":142,"country_code":"MX","latitude":"19.28881000","longitude":"-99.51163000"},{"id":"71695","name":"Llano de la Y","state_id":3450,"state_code":"MEX","country_id":142,"country_code":"MX","latitude":"19.40278000","longitude":"-99.61639000"},{"id":"71696","name":"Llano de las Flores (Barrio del Hueso)","state_id":3450,"state_code":"MEX","country_id":142,"country_code":"MX","latitude":"19.43583000","longitude":"-99.32250000"},{"id":"71692","name":"Llano de Zacapexco","state_id":3450,"state_code":"MEX","country_id":142,"country_code":"MX","latitude":"19.70405000","longitude":"-99.48507000"},{"id":"71684","name":"Llano Grande","state_id":3450,"state_code":"MEX","country_id":142,"country_code":"MX","latitude":"18.82733000","longitude":"-99.76774000"},{"id":"71708","name":"Loma Alta","state_id":3450,"state_code":"MEX","country_id":142,"country_code":"MX","latitude":"19.68944000","longitude":"-99.44917000"},{"id":"71710","name":"Loma Alta Taxhimay","state_id":3450,"state_code":"MEX","country_id":142,"country_code":"MX","latitude":"19.84222000","longitude":"-99.40806000"},{"id":"71716","name":"Loma Bonita","state_id":3450,"state_code":"MEX","country_id":142,"country_code":"MX","latitude":"19.18722000","longitude":"-100.21500000"},{"id":"71726","name":"Loma de Guadalupe (La Biznaga)","state_id":3450,"state_code":"MEX","country_id":142,"country_code":"MX","latitude":"19.65219000","longitude":"-99.36873000"},{"id":"71728","name":"Loma de Ju\u00e1rez","state_id":3450,"state_code":"MEX","country_id":142,"country_code":"MX","latitude":"19.43523000","longitude":"-100.09020000"},{"id":"71729","name":"Loma de San Francisco","state_id":3450,"state_code":"MEX","country_id":142,"country_code":"MX","latitude":"19.28333000","longitude":"-99.80917000"},{"id":"71730","name":"Loma de San Jos\u00e9","state_id":3450,"state_code":"MEX","country_id":142,"country_code":"MX","latitude":"19.64222000","longitude":"-99.32778000"},{"id":"71731","name":"Loma de San Miguel","state_id":3450,"state_code":"MEX","country_id":142,"country_code":"MX","latitude":"19.34194000","longitude":"-99.79167000"},{"id":"71739","name":"Loma del R\u00edo","state_id":3450,"state_code":"MEX","country_id":142,"country_code":"MX","latitude":"19.60056000","longitude":"-99.35056000"},{"id":"71720","name":"Loma Larga","state_id":3450,"state_code":"MEX","country_id":142,"country_code":"MX","latitude":"19.62750000","longitude":"-99.34611000"},{"id":"71721","name":"Loma Larga (Barrio de Loma Larga)","state_id":3450,"state_code":"MEX","country_id":142,"country_code":"MX","latitude":"19.86722000","longitude":"-99.11611000"},{"id":"71744","name":"Lomas de Altavista","state_id":3450,"state_code":"MEX","country_id":142,"country_code":"MX","latitude":"19.36139000","longitude":"-98.94472000"},{"id":"71751","name":"Lomas de San Pablo","state_id":3450,"state_code":"MEX","country_id":142,"country_code":"MX","latitude":"19.20250000","longitude":"-98.91778000"},{"id":"71752","name":"Lomas de San Sebasti\u00e1n","state_id":3450,"state_code":"MEX","country_id":142,"country_code":"MX","latitude":"19.38206000","longitude":"-98.93320000"},{"id":"71755","name":"Lomas de Tenopalco","state_id":3450,"state_code":"MEX","country_id":142,"country_code":"MX","latitude":"19.70232000","longitude":"-99.11237000"},{"id":"71771","name":"Los Arana","state_id":3450,"state_code":"MEX","country_id":142,"country_code":"MX","latitude":"19.70981000","longitude":"-99.50222000"},{"id":"71780","name":"Los Berros","state_id":3450,"state_code":"MEX","country_id":142,"country_code":"MX","latitude":"19.39771000","longitude":"-100.04840000"},{"id":"71807","name":"Los Hucuares","state_id":3450,"state_code":"MEX","country_id":142,"country_code":"MX","latitude":"19.89916000","longitude":"-102.49759000"},{"id":"71823","name":"Los Nogales","state_id":3450,"state_code":"MEX","country_id":142,"country_code":"MX","latitude":"19.85734000","longitude":"-102.15612000"},{"id":"71842","name":"Los Remedios","state_id":3450,"state_code":"MEX","country_id":142,"country_code":"MX","latitude":"19.97810000","longitude":"-102.67954000"},{"id":"71844","name":"Los Reyes","state_id":3450,"state_code":"MEX","country_id":142,"country_code":"MX","latitude":"19.68524000","longitude":"-99.76450000"},{"id":"71847","name":"Los Reyes Acaquilpan","state_id":3450,"state_code":"MEX","country_id":142,"country_code":"MX","latitude":"19.36357000","longitude":"-98.97707000"},{"id":"71848","name":"Los Reyes Acatlixhuay\u00e1n","state_id":3450,"state_code":"MEX","country_id":142,"country_code":"MX","latitude":"19.20889000","longitude":"-98.88242000"},{"id":"71861","name":"Los Saucos","state_id":3450,"state_code":"MEX","country_id":142,"country_code":"MX","latitude":"19.16520000","longitude":"-99.99895000"},{"id":"71884","name":"Luvianos","state_id":3450,"state_code":"MEX","country_id":142,"country_code":"MX","latitude":"18.94554000","longitude":"-100.42448000"},{"id":"71922","name":"Magdalena Atlicpac","state_id":3450,"state_code":"MEX","country_id":142,"country_code":"MX","latitude":"19.36906000","longitude":"-98.94935000"},{"id":"71945","name":"Malinalco","state_id":3450,"state_code":"MEX","country_id":142,"country_code":"MX","latitude":"18.94847000","longitude":"-99.49619000"},{"id":"71957","name":"Manto del R\u00edo Ejido","state_id":3450,"state_code":"MEX","country_id":142,"country_code":"MX","latitude":"19.84008000","longitude":"-99.92729000"},{"id":"71969","name":"Manzana Quinta (La Ca\u00f1ada)","state_id":3450,"state_code":"MEX","country_id":142,"country_code":"MX","latitude":"19.54222000","longitude":"-99.60250000"},{"id":"71970","name":"Manzana Segunda","state_id":3450,"state_code":"MEX","country_id":142,"country_code":"MX","latitude":"19.56722000","longitude":"-99.59389000"},{"id":"71971","name":"Manzana Sexta Parte Centro","state_id":3450,"state_code":"MEX","country_id":142,"country_code":"MX","latitude":"19.52750000","longitude":"-99.60528000"},{"id":"71972","name":"Manzana Tercera de Santa Cruz Tepexpan","state_id":3450,"state_code":"MEX","country_id":142,"country_code":"MX","latitude":"19.56917000","longitude":"-99.70361000"},{"id":"72025","name":"Mavoro","state_id":3450,"state_code":"MEX","country_id":142,"country_code":"MX","latitude":"19.70417000","longitude":"-99.82222000"},{"id":"72028","name":"Maxtleca de Galeana","state_id":3450,"state_code":"MEX","country_id":142,"country_code":"MX","latitude":"19.02889000","longitude":"-99.55722000"},{"id":"72034","name":"Mayorazgo de Le\u00f3n","state_id":3450,"state_code":"MEX","country_id":142,"country_code":"MX","latitude":"19.46889000","longitude":"-99.74365000"},{"id":"72069","name":"Melchor Ocampo","state_id":3450,"state_code":"MEX","country_id":142,"country_code":"MX","latitude":"19.70186000","longitude":"-99.14485000"},{"id":"72088","name":"Metepec","state_id":3450,"state_code":"MEX","country_id":142,"country_code":"MX","latitude":"19.25934000","longitude":"-99.60175000"},{"id":"72100","name":"Mexicaltzingo","state_id":3450,"state_code":"MEX","country_id":142,"country_code":"MX","latitude":"19.21130000","longitude":"-99.58469000"},{"id":"72103","name":"Mextepec","state_id":3450,"state_code":"MEX","country_id":142,"country_code":"MX","latitude":"19.46118000","longitude":"-99.89126000"},{"id":"72104","name":"Mezapa la F\u00e1brica","state_id":3450,"state_code":"MEX","country_id":142,"country_code":"MX","latitude":"19.17556000","longitude":"-99.44528000"},{"id":"72142","name":"Mina M\u00e9xico","state_id":3450,"state_code":"MEX","country_id":142,"country_code":"MX","latitude":"19.41014000","longitude":"-99.72771000"},{"id":"72143","name":"Mina Vieja","state_id":3450,"state_code":"MEX","country_id":142,"country_code":"MX","latitude":"19.55250000","longitude":"-99.94389000"},{"id":"72152","name":"Miraflores","state_id":3450,"state_code":"MEX","country_id":142,"country_code":"MX","latitude":"19.22210000","longitude":"-98.80741000"},{"id":"72183","name":"Molino Abajo","state_id":3450,"state_code":"MEX","country_id":142,"country_code":"MX","latitude":"19.44972000","longitude":"-99.60222000"},{"id":"72198","name":"Monte Calvario","state_id":3450,"state_code":"MEX","country_id":142,"country_code":"MX","latitude":"19.10444000","longitude":"-99.59528000"},{"id":"72210","name":"Montecillo","state_id":3450,"state_code":"MEX","country_id":142,"country_code":"MX","latitude":"19.45711000","longitude":"-98.90835000"},{"id":"72233","name":"Morelos","state_id":3450,"state_code":"MEX","country_id":142,"country_code":"MX","latitude":"19.74542000","longitude":"-99.64687000"},{"id":"72290","name":"Naucalpan de Ju\u00e1rez","state_id":3450,"state_code":"MEX","country_id":142,"country_code":"MX","latitude":"19.47851000","longitude":"-99.23963000"},{"id":"72311","name":"Nepantla de Sor Juana In\u00e9s de la Cruz","state_id":3450,"state_code":"MEX","country_id":142,"country_code":"MX","latitude":"18.98028000","longitude":"-98.84083000"},{"id":"72327","name":"Nicol\u00e1s Romero","state_id":3450,"state_code":"MEX","country_id":142,"country_code":"MX","latitude":"19.64177000","longitude":"-99.30680000"},{"id":"72347","name":"Nopaltepec","state_id":3450,"state_code":"MEX","country_id":142,"country_code":"MX","latitude":"19.77829000","longitude":"-98.71046000"},{"id":"72358","name":"Nueva Ameyalco","state_id":3450,"state_code":"MEX","country_id":142,"country_code":"MX","latitude":"19.29790000","longitude":"-99.50483000"},{"id":"72374","name":"Nueva Santa Rosa","state_id":3450,"state_code":"MEX","country_id":142,"country_code":"MX","latitude":"19.59028000","longitude":"-98.96000000"},{"id":"72449","name":"Ocopulco","state_id":3450,"state_code":"MEX","country_id":142,"country_code":"MX","latitude":"19.58972000","longitude":"-98.89694000"},{"id":"72463","name":"Ocoyoacac","state_id":3450,"state_code":"MEX","country_id":142,"country_code":"MX","latitude":"19.27127000","longitude":"-99.45787000"},{"id":"72468","name":"Octeyuco Dos Mil","state_id":3450,"state_code":"MEX","country_id":142,"country_code":"MX","latitude":"19.96333000","longitude":"-99.58806000"},{"id":"72470","name":"Ocuilan","state_id":3450,"state_code":"MEX","country_id":142,"country_code":"MX","latitude":"18.99043000","longitude":"-99.40910000"},{"id":"72471","name":"Ocuilan de Arteaga","state_id":3450,"state_code":"MEX","country_id":142,"country_code":"MX","latitude":"18.97784000","longitude":"-99.41986000"},{"id":"72474","name":"Ocumicho","state_id":3450,"state_code":"MEX","country_id":142,"country_code":"MX","latitude":"19.79654000","longitude":"-102.22169000"},{"id":"72485","name":"Ojo de Agua","state_id":3450,"state_code":"MEX","country_id":142,"country_code":"MX","latitude":"19.68028000","longitude":"-99.01000000"},{"id":"72542","name":"Otumba","state_id":3450,"state_code":"MEX","country_id":142,"country_code":"MX","latitude":"19.69985000","longitude":"-98.75638000"},{"id":"72543","name":"Otzoloapan","state_id":3450,"state_code":"MEX","country_id":142,"country_code":"MX","latitude":"19.11728000","longitude":"-100.29684000"},{"id":"72544","name":"Otzolotepec","state_id":3450,"state_code":"MEX","country_id":142,"country_code":"MX","latitude":"19.43526000","longitude":"-99.54407000"},{"id":"72554","name":"Oxtotipac","state_id":3450,"state_code":"MEX","country_id":142,"country_code":"MX","latitude":"19.65521000","longitude":"-98.79319000"},{"id":"72560","name":"Ozumba de Alzate","state_id":3450,"state_code":"MEX","country_id":142,"country_code":"MX","latitude":"19.03689000","longitude":"-98.79516000"},{"id":"72583","name":"Palizada","state_id":3450,"state_code":"MEX","country_id":142,"country_code":"MX","latitude":"19.50611000","longitude":"-100.10033000"},{"id":"72588","name":"Palmar Chico","state_id":3450,"state_code":"MEX","country_id":142,"country_code":"MX","latitude":"18.69593000","longitude":"-100.36852000"},{"id":"72600","name":"Palmillas","state_id":3450,"state_code":"MEX","country_id":142,"country_code":"MX","latitude":"19.69361000","longitude":"-99.95028000"},{"id":"72615","name":"Palos Amarillos (Palos Amarillos Yebuciv\u00ed)","state_id":3450,"state_code":"MEX","country_id":142,"country_code":"MX","latitude":"19.53944000","longitude":"-99.91667000"},{"id":"72633","name":"Papalotla","state_id":3450,"state_code":"MEX","country_id":142,"country_code":"MX","latitude":"19.56341000","longitude":"-98.85681000"},{"id":"72647","name":"Paraje el Mirador","state_id":3450,"state_code":"MEX","country_id":142,"country_code":"MX","latitude":"19.39944000","longitude":"-99.32694000"},{"id":"72648","name":"Paraje la Pera","state_id":3450,"state_code":"MEX","country_id":142,"country_code":"MX","latitude":"19.38056000","longitude":"-99.34500000"},{"id":"72646","name":"Paraje Trejo (El Chaparral)","state_id":3450,"state_code":"MEX","country_id":142,"country_code":"MX","latitude":"19.40556000","longitude":"-99.31222000"},{"id":"72669","name":"Paseos de San Juan","state_id":3450,"state_code":"MEX","country_id":142,"country_code":"MX","latitude":"19.78194000","longitude":"-99.01750000"},{"id":"72706","name":"Path\u00e9","state_id":3450,"state_code":"MEX","country_id":142,"country_code":"MX","latitude":"19.92695000","longitude":"-99.83957000"},{"id":"72809","name":"Playa Azul","state_id":3450,"state_code":"MEX","country_id":142,"country_code":"MX","latitude":"17.98170000","longitude":"-102.34761000"},{"id":"72817","name":"Plaza Nueva","state_id":3450,"state_code":"MEX","country_id":142,"country_code":"MX","latitude":"18.92944000","longitude":"-99.43444000"},{"id":"72843","name":"Pol\u00edgonos","state_id":3450,"state_code":"MEX","country_id":142,"country_code":"MX","latitude":"19.41612000","longitude":"-98.99091000"},{"id":"72838","name":"Polotitl\u00e1n","state_id":3450,"state_code":"MEX","country_id":142,"country_code":"MX","latitude":"20.21988000","longitude":"-99.82205000"},{"id":"72839","name":"Polotitl\u00e1n de la Ilustraci\u00f3n","state_id":3450,"state_code":"MEX","country_id":142,"country_code":"MX","latitude":"20.22530000","longitude":"-99.81537000"},{"id":"72841","name":"Polvillos (San Bartolo Quinta Secci\u00f3n)","state_id":3450,"state_code":"MEX","country_id":142,"country_code":"MX","latitude":"19.23611000","longitude":"-100.08000000"},{"id":"72849","name":"Popo Park","state_id":3450,"state_code":"MEX","country_id":142,"country_code":"MX","latitude":"19.06510000","longitude":"-98.78087000"},{"id":"72852","name":"Porfir\u00edo D\u00edaz","state_id":3450,"state_code":"MEX","country_id":142,"country_code":"MX","latitude":"18.92875000","longitude":"-99.72684000"},{"id":"72860","name":"Poth\u00e9","state_id":3450,"state_code":"MEX","country_id":142,"country_code":"MX","latitude":"19.47417000","longitude":"-99.60306000"},{"id":"72868","name":"Potreros","state_id":3450,"state_code":"MEX","country_id":142,"country_code":"MX","latitude":"20.25414000","longitude":"-101.65747000"},{"id":"72881","name":"Prados de San Juan","state_id":3450,"state_code":"MEX","country_id":142,"country_code":"MX","latitude":"19.63998000","longitude":"-98.97519000"},{"id":"72880","name":"Prados San Francisco","state_id":3450,"state_code":"MEX","country_id":142,"country_code":"MX","latitude":"19.72154000","longitude":"-99.08366000"},{"id":"72897","name":"Primera de Analco","state_id":3450,"state_code":"MEX","country_id":142,"country_code":"MX","latitude":"18.90250000","longitude":"-99.77556000"},{"id":"72906","name":"Profesor Carlos Hank Gonz\u00e1lez","state_id":3450,"state_code":"MEX","country_id":142,"country_code":"MX","latitude":"19.37222000","longitude":"-98.93889000"},{"id":"72917","name":"Progreso Industrial","state_id":3450,"state_code":"MEX","country_id":142,"country_code":"MX","latitude":"19.63635000","longitude":"-99.35687000"},{"id":"72939","name":"Pueblo Nuevo","state_id":3450,"state_code":"MEX","country_id":142,"country_code":"MX","latitude":"19.67419000","longitude":"-99.61750000"},{"id":"72944","name":"Pueblo Nuevo Tlalmimilolpan","state_id":3450,"state_code":"MEX","country_id":142,"country_code":"MX","latitude":"19.39222000","longitude":"-99.50167000"},{"id":"72958","name":"Puentecillas","state_id":3450,"state_code":"MEX","country_id":142,"country_code":"MX","latitude":"20.02568000","longitude":"-99.97806000"},{"id":"72969","name":"Puerto Escondido (Tepeolulco Puerto Escondido)","state_id":3450,"state_code":"MEX","country_id":142,"country_code":"MX","latitude":"19.55194000","longitude":"-99.09806000"},{"id":"72994","name":"Pur\u00edsima Concepci\u00f3n Mayorazgo","state_id":3450,"state_code":"MEX","country_id":142,"country_code":"MX","latitude":"19.69159000","longitude":"-100.00211000"},{"id":"73029","name":"Quetzalapa","state_id":3450,"state_code":"MEX","country_id":142,"country_code":"MX","latitude":"18.94056000","longitude":"-99.59694000"},{"id":"73039","name":"Quinto Barrio (Ejido Cahuac\u00e1n)","state_id":3450,"state_code":"MEX","country_id":142,"country_code":"MX","latitude":"19.62222000","longitude":"-99.41806000"},{"id":"73055","name":"Rancho Alegre","state_id":3450,"state_code":"MEX","country_id":142,"country_code":"MX","latitude":"19.62528000","longitude":"-99.68361000"},{"id":"73174","name":"R\u00edo Fr\u00edo de Ju\u00e1rez","state_id":3450,"state_code":"MEX","country_id":142,"country_code":"MX","latitude":"19.35336000","longitude":"-98.67057000"},{"id":"73121","name":"Rinc\u00f3n de Aguirre","state_id":3450,"state_code":"MEX","country_id":142,"country_code":"MX","latitude":"18.89947000","longitude":"-100.13659000"},{"id":"73127","name":"Rinc\u00f3n de Guadalupe","state_id":3450,"state_code":"MEX","country_id":142,"country_code":"MX","latitude":"19.27404000","longitude":"-99.99648000"},{"id":"73129","name":"Rinc\u00f3n de Jaimes","state_id":3450,"state_code":"MEX","country_id":142,"country_code":"MX","latitude":"18.89844000","longitude":"-100.16536000"},{"id":"73135","name":"Rinc\u00f3n de los Pirules","state_id":3450,"state_code":"MEX","country_id":142,"country_code":"MX","latitude":"19.73932000","longitude":"-100.03022000"},{"id":"73120","name":"Rinc\u00f3n Verde","state_id":3450,"state_code":"MEX","country_id":142,"country_code":"MX","latitude":"19.49639000","longitude":"-99.29083000"},{"id":"73218","name":"Salitrillo","state_id":3450,"state_code":"MEX","country_id":142,"country_code":"MX","latitude":"19.43333000","longitude":"-99.85000000"},{"id":"73238","name":"San Agust\u00edn","state_id":3450,"state_code":"MEX","country_id":142,"country_code":"MX","latitude":"18.94224000","longitude":"-99.93913000"},{"id":"73243","name":"San Agust\u00edn Berros","state_id":3450,"state_code":"MEX","country_id":142,"country_code":"MX","latitude":"19.40272000","longitude":"-100.01048000"},{"id":"73244","name":"San Agust\u00edn Buenavista","state_id":3450,"state_code":"MEX","country_id":142,"country_code":"MX","latitude":"20.04337000","longitude":"-99.48960000"},{"id":"73246","name":"San Agust\u00edn Citlali","state_id":3450,"state_code":"MEX","country_id":142,"country_code":"MX","latitude":"19.48025000","longitude":"-99.80222000"},{"id":"73260","name":"San Agust\u00edn de las Palmas","state_id":3450,"state_code":"MEX","country_id":142,"country_code":"MX","latitude":"19.32607000","longitude":"-100.14911000"},{"id":"73248","name":"San Agust\u00edn Huitzizilapan","state_id":3450,"state_code":"MEX","country_id":142,"country_code":"MX","latitude":"19.42000000","longitude":"-99.46360000"},{"id":"73251","name":"San Agust\u00edn Mextepec","state_id":3450,"state_code":"MEX","country_id":142,"country_code":"MX","latitude":"19.63292000","longitude":"-99.92654000"},{"id":"73252","name":"San Agust\u00edn Mimbres","state_id":3450,"state_code":"MEX","country_id":142,"country_code":"MX","latitude":"19.45069000","longitude":"-99.55626000"},{"id":"73264","name":"San Alejo","state_id":3450,"state_code":"MEX","country_id":142,"country_code":"MX","latitude":"18.83857000","longitude":"-99.72922000"},{"id":"73307","name":"San Andr\u00e9s de las Peras","state_id":3450,"state_code":"MEX","country_id":142,"country_code":"MX","latitude":"19.55653000","longitude":"-98.79202000"},{"id":"73308","name":"San Andr\u00e9s de los Gama","state_id":3450,"state_code":"MEX","country_id":142,"country_code":"MX","latitude":"19.03766000","longitude":"-99.97403000"},{"id":"73309","name":"San Andr\u00e9s del Pedregal","state_id":3450,"state_code":"MEX","country_id":142,"country_code":"MX","latitude":"19.58104000","longitude":"-99.86860000"},{"id":"73285","name":"San Andr\u00e9s Metla","state_id":3450,"state_code":"MEX","country_id":142,"country_code":"MX","latitude":"19.21695000","longitude":"-98.84167000"},{"id":"73287","name":"San Andr\u00e9s Nicol\u00e1s Bravo","state_id":3450,"state_code":"MEX","country_id":142,"country_code":"MX","latitude":"18.76778000","longitude":"-99.46528000"},{"id":"73288","name":"San Andr\u00e9s Ocotepec","state_id":3450,"state_code":"MEX","country_id":142,"country_code":"MX","latitude":"18.90361000","longitude":"-100.04667000"},{"id":"73297","name":"San Andr\u00e9s Tepetitl\u00e1n","state_id":3450,"state_code":"MEX","country_id":142,"country_code":"MX","latitude":"18.89833000","longitude":"-99.91972000"},{"id":"73298","name":"San Andr\u00e9s Timilpan","state_id":3450,"state_code":"MEX","country_id":142,"country_code":"MX","latitude":"19.87610000","longitude":"-99.73375000"},{"id":"73299","name":"San Andr\u00e9s Tlalamac","state_id":3450,"state_code":"MEX","country_id":142,"country_code":"MX","latitude":"18.96694000","longitude":"-98.80778000"},{"id":"73319","name":"San Antonio Acahualco","state_id":3450,"state_code":"MEX","country_id":142,"country_code":"MX","latitude":"19.27400000","longitude":"-99.77169000"},{"id":"73323","name":"San Antonio Bonixi","state_id":3450,"state_code":"MEX","country_id":142,"country_code":"MX","latitude":"19.49226000","longitude":"-99.72686000"},{"id":"73324","name":"San Antonio Buenavista","state_id":3450,"state_code":"MEX","country_id":142,"country_code":"MX","latitude":"19.26083000","longitude":"-99.71194000"},{"id":"73369","name":"San Antonio de la Laguna","state_id":3450,"state_code":"MEX","country_id":142,"country_code":"MX","latitude":"19.30134000","longitude":"-100.07179000"},{"id":"73371","name":"San Antonio de las Huertas","state_id":3450,"state_code":"MEX","country_id":142,"country_code":"MX","latitude":"19.56222000","longitude":"-99.97111000"},{"id":"73373","name":"San Antonio de las Palmas","state_id":3450,"state_code":"MEX","country_id":142,"country_code":"MX","latitude":"19.71806000","longitude":"-98.85684000"},{"id":"73382","name":"San Antonio del Rosario","state_id":3450,"state_code":"MEX","country_id":142,"country_code":"MX","latitude":"18.40012000","longitude":"-100.30874000"},{"id":"73385","name":"San Antonio el Llanito","state_id":3450,"state_code":"MEX","country_id":142,"country_code":"MX","latitude":"19.27750000","longitude":"-99.49500000"},{"id":"73333","name":"San Antonio Enchisi","state_id":3450,"state_code":"MEX","country_id":142,"country_code":"MX","latitude":"19.75472000","longitude":"-99.81667000"},{"id":"73335","name":"San Antonio Guaracha","state_id":3450,"state_code":"MEX","country_id":142,"country_code":"MX","latitude":"19.94592000","longitude":"-102.55590000"},{"id":"73388","name":"San Antonio la Isla","state_id":3450,"state_code":"MEX","country_id":142,"country_code":"MX","latitude":"19.17317000","longitude":"-99.55400000"},{"id":"73341","name":"San Antonio Nixini","state_id":3450,"state_code":"MEX","country_id":142,"country_code":"MX","latitude":"19.67472000","longitude":"-99.68472000"},{"id":"73349","name":"San Antonio Sol\u00eds","state_id":3450,"state_code":"MEX","country_id":142,"country_code":"MX","latitude":"19.99965000","longitude":"-100.08622000"},{"id":"73357","name":"San Antonio Tlaltecahuac\u00e1n","state_id":3450,"state_code":"MEX","country_id":142,"country_code":"MX","latitude":"19.15795000","longitude":"-98.76895000"},{"id":"73361","name":"San Antonio Xahuento","state_id":3450,"state_code":"MEX","country_id":142,"country_code":"MX","latitude":"19.69167000","longitude":"-99.10722000"},{"id":"73398","name":"San Bartolito Tlaltelolco","state_id":3450,"state_code":"MEX","country_id":142,"country_code":"MX","latitude":"19.19170000","longitude":"-99.56136000"},{"id":"73399","name":"San Bartolo","state_id":3450,"state_code":"MEX","country_id":142,"country_code":"MX","latitude":"19.24496000","longitude":"-100.05329000"},{"id":"73403","name":"San Bartolo Cuautlalpan","state_id":3450,"state_code":"MEX","country_id":142,"country_code":"MX","latitude":"19.81510000","longitude":"-99.01044000"},{"id":"73412","name":"San Bartolo del Llano","state_id":3450,"state_code":"MEX","country_id":142,"country_code":"MX","latitude":"19.59069000","longitude":"-99.74099000"},{"id":"73413","name":"San Bartolo del Llano (San Isidro)","state_id":3450,"state_code":"MEX","country_id":142,"country_code":"MX","latitude":"19.30528000","longitude":"-99.82750000"},{"id":"73414","name":"San Bartolo del Progreso","state_id":3450,"state_code":"MEX","country_id":142,"country_code":"MX","latitude":"19.10156000","longitude":"-99.40409000"},{"id":"73415","name":"San Bartolo el Viejo","state_id":3450,"state_code":"MEX","country_id":142,"country_code":"MX","latitude":"19.29889000","longitude":"-99.82389000"},{"id":"73405","name":"San Bartolo Lanzados","state_id":3450,"state_code":"MEX","country_id":142,"country_code":"MX","latitude":"19.86639000","longitude":"-99.89389000"},{"id":"73406","name":"San Bartolo Morelos","state_id":3450,"state_code":"MEX","country_id":142,"country_code":"MX","latitude":"19.78643000","longitude":"-99.66879000"},{"id":"73407","name":"San Bartolo Oxtotitl\u00e1n","state_id":3450,"state_code":"MEX","country_id":142,"country_code":"MX","latitude":"19.61902000","longitude":"-99.61347000"},{"id":"73418","name":"San Bartolom\u00e9","state_id":3450,"state_code":"MEX","country_id":142,"country_code":"MX","latitude":"19.00944000","longitude":"-99.67856000"},{"id":"73420","name":"San Bartolom\u00e9 Atlatlahuca","state_id":3450,"state_code":"MEX","country_id":142,"country_code":"MX","latitude":"19.06963000","longitude":"-99.60981000"},{"id":"73422","name":"San Bartolom\u00e9 Coatepec","state_id":3450,"state_code":"MEX","country_id":142,"country_code":"MX","latitude":"19.39776000","longitude":"-99.31211000"},{"id":"73434","name":"San Bernardino","state_id":3450,"state_code":"MEX","country_id":142,"country_code":"MX","latitude":"19.47667000","longitude":"-98.89635000"},{"id":"73443","name":"San Bernardo Tlalmimilolpan","state_id":3450,"state_code":"MEX","country_id":142,"country_code":"MX","latitude":"19.56179000","longitude":"-98.79288000"},{"id":"73452","name":"San Buenaventura","state_id":3450,"state_code":"MEX","country_id":142,"country_code":"MX","latitude":"19.30250000","longitude":"-98.86306000"},{"id":"73462","name":"San Carlos Autopan","state_id":3450,"state_code":"MEX","country_id":142,"country_code":"MX","latitude":"19.38583000","longitude":"-99.68722000"},{"id":"73481","name":"San Crist\u00f3bal Nexquipayac","state_id":3450,"state_code":"MEX","country_id":142,"country_code":"MX","latitude":"19.58010000","longitude":"-98.93053000"},{"id":"73491","name":"San Diego","state_id":3450,"state_code":"MEX","country_id":142,"country_code":"MX","latitude":"18.97291000","longitude":"-99.58530000"},{"id":"73497","name":"San Diego del Cerrito","state_id":3450,"state_code":"MEX","country_id":142,"country_code":"MX","latitude":"19.50795000","longitude":"-100.00684000"},{"id":"73493","name":"San Diego Huehuecalco","state_id":3450,"state_code":"MEX","country_id":142,"country_code":"MX","latitude":"19.09276000","longitude":"-98.76336000"},{"id":"73499","name":"San Diego la Huerta","state_id":3450,"state_code":"MEX","country_id":142,"country_code":"MX","latitude":"19.14472000","longitude":"-99.63333000"},{"id":"73501","name":"San Diego los Padres Cuexcontitl\u00e1n Secci\u00f3n 5 B","state_id":3450,"state_code":"MEX","country_id":142,"country_code":"MX","latitude":"19.37611000","longitude":"-99.61222000"},{"id":"73515","name":"San Felipe Coamango","state_id":3450,"state_code":"MEX","country_id":142,"country_code":"MX","latitude":"19.85902000","longitude":"-99.60675000"},{"id":"73531","name":"San Felipe del Progreso","state_id":3450,"state_code":"MEX","country_id":142,"country_code":"MX","latitude":"19.71440000","longitude":"-99.95197000"},{"id":"73532","name":"San Felipe el Mirasol","state_id":3450,"state_code":"MEX","country_id":142,"country_code":"MX","latitude":"19.20266000","longitude":"-99.42113000"},{"id":"73520","name":"San Felipe Pueblo Nuevo","state_id":3450,"state_code":"MEX","country_id":142,"country_code":"MX","latitude":"19.76778000","longitude":"-99.75833000"},{"id":"73522","name":"San Felipe Santiago","state_id":3450,"state_code":"MEX","country_id":142,"country_code":"MX","latitude":"19.39039000","longitude":"-100.10639000"},{"id":"73527","name":"San Felipe Tlalmimilolpan","state_id":3450,"state_code":"MEX","country_id":142,"country_code":"MX","latitude":"19.23934000","longitude":"-99.64215000"},{"id":"73545","name":"San Francisco","state_id":3450,"state_code":"MEX","country_id":142,"country_code":"MX","latitude":"18.94931000","longitude":"-99.64723000"},{"id":"73549","name":"San Francisco Acuautla","state_id":3450,"state_code":"MEX","country_id":142,"country_code":"MX","latitude":"19.34564000","longitude":"-98.86034000"},{"id":"73551","name":"San Francisco Ayotuzco","state_id":3450,"state_code":"MEX","country_id":142,"country_code":"MX","latitude":"19.36583000","longitude":"-99.35694000"},{"id":"73553","name":"San Francisco Chalchihuapan","state_id":3450,"state_code":"MEX","country_id":142,"country_code":"MX","latitude":"19.77000000","longitude":"-99.82167000"},{"id":"73554","name":"San Francisco Chej\u00e9","state_id":3450,"state_code":"MEX","country_id":142,"country_code":"MX","latitude":"19.68044000","longitude":"-99.74877000"},{"id":"73561","name":"San Francisco Cuaxusco","state_id":3450,"state_code":"MEX","country_id":142,"country_code":"MX","latitude":"19.26755000","longitude":"-99.61925000"},{"id":"73612","name":"San Francisco de Guzm\u00e1n","state_id":3450,"state_code":"MEX","country_id":142,"country_code":"MX","latitude":"19.62028000","longitude":"-99.77472000"},{"id":"73577","name":"San Francisco Mag\u00fa","state_id":3450,"state_code":"MEX","country_id":142,"country_code":"MX","latitude":"19.68540000","longitude":"-99.34800000"},{"id":"73578","name":"San Francisco Mazapa","state_id":3450,"state_code":"MEX","country_id":142,"country_code":"MX","latitude":"19.69142000","longitude":"-98.83442000"},{"id":"73579","name":"San Francisco Mihualtepec","state_id":3450,"state_code":"MEX","country_id":142,"country_code":"MX","latitude":"19.24507000","longitude":"-100.09830000"},{"id":"73583","name":"San Francisco Oxtotilpan","state_id":3450,"state_code":"MEX","country_id":142,"country_code":"MX","latitude":"19.16926000","longitude":"-99.90273000"},{"id":"73589","name":"San Francisco Putla","state_id":3450,"state_code":"MEX","country_id":142,"country_code":"MX","latitude":"19.12778000","longitude":"-99.63556000"},{"id":"73591","name":"San Francisco Solis","state_id":3450,"state_code":"MEX","country_id":142,"country_code":"MX","latitude":"19.92969000","longitude":"-100.04506000"},{"id":"73595","name":"San Francisco Tenopalco","state_id":3450,"state_code":"MEX","country_id":142,"country_code":"MX","latitude":"19.71259000","longitude":"-99.11616000"},{"id":"73596","name":"San Francisco Tepeolulco","state_id":3450,"state_code":"MEX","country_id":142,"country_code":"MX","latitude":"19.83291000","longitude":"-99.98834000"},{"id":"73597","name":"San Francisco Tepexoxica","state_id":3450,"state_code":"MEX","country_id":142,"country_code":"MX","latitude":"19.06043000","longitude":"-99.54783000"},{"id":"73601","name":"San Francisco Tlalcilalcalpan","state_id":3450,"state_code":"MEX","country_id":142,"country_code":"MX","latitude":"19.29474000","longitude":"-99.76771000"},{"id":"73602","name":"San Francisco Tlaltica","state_id":3450,"state_code":"MEX","country_id":142,"country_code":"MX","latitude":"19.65833000","longitude":"-98.77500000"},{"id":"73605","name":"San Francisco Xochicuautla","state_id":3450,"state_code":"MEX","country_id":142,"country_code":"MX","latitude":"19.37291000","longitude":"-99.44530000"},{"id":"73628","name":"San Gabriel Ixtla","state_id":3450,"state_code":"MEX","country_id":142,"country_code":"MX","latitude":"19.25782000","longitude":"-100.12400000"},{"id":"73631","name":"San Gabriel Zepayautla","state_id":3450,"state_code":"MEX","country_id":142,"country_code":"MX","latitude":"19.01306000","longitude":"-99.55194000"},{"id":"73634","name":"San Gaspar","state_id":3450,"state_code":"MEX","country_id":142,"country_code":"MX","latitude":"18.77750000","longitude":"-99.54861000"},{"id":"73636","name":"San Gaspar Tonatico","state_id":3450,"state_code":"MEX","country_id":142,"country_code":"MX","latitude":"18.80671000","longitude":"-99.66917000"},{"id":"73644","name":"San Gregorio Cuautzingo","state_id":3450,"state_code":"MEX","country_id":142,"country_code":"MX","latitude":"19.25962000","longitude":"-98.85742000"},{"id":"73657","name":"San Ildefonso","state_id":3450,"state_code":"MEX","country_id":142,"country_code":"MX","latitude":"19.56111000","longitude":"-99.78583000"},{"id":"73668","name":"San Isidro","state_id":3450,"state_code":"MEX","country_id":142,"country_code":"MX","latitude":"19.33972000","longitude":"-98.95056000"},{"id":"73672","name":"San Isidro (El Reservado)","state_id":3450,"state_code":"MEX","country_id":142,"country_code":"MX","latitude":"19.30694000","longitude":"-99.77889000"},{"id":"73675","name":"San Isidro Boxipe","state_id":3450,"state_code":"MEX","country_id":142,"country_code":"MX","latitude":"19.60111000","longitude":"-99.89083000"},{"id":"73692","name":"San Jacinto","state_id":3450,"state_code":"MEX","country_id":142,"country_code":"MX","latitude":"19.36288000","longitude":"-99.32308000"},{"id":"73700","name":"San Jer\u00f3nimo","state_id":3450,"state_code":"MEX","country_id":142,"country_code":"MX","latitude":"19.24255000","longitude":"-100.02224000"},{"id":"73703","name":"San Jer\u00f3nimo Amanalco","state_id":3450,"state_code":"MEX","country_id":142,"country_code":"MX","latitude":"19.51791000","longitude":"-98.75673000"},{"id":"73705","name":"San Jer\u00f3nimo Bonchete","state_id":3450,"state_code":"MEX","country_id":142,"country_code":"MX","latitude":"19.63106000","longitude":"-99.94949000"},{"id":"73710","name":"San Jer\u00f3nimo Cuatro Vientos","state_id":3450,"state_code":"MEX","country_id":142,"country_code":"MX","latitude":"19.29306000","longitude":"-98.84167000"},{"id":"73726","name":"San Jer\u00f3nimo de los Jarros","state_id":3450,"state_code":"MEX","country_id":142,"country_code":"MX","latitude":"19.87861000","longitude":"-99.92333000"},{"id":"73711","name":"San Jer\u00f3nimo Ixtapantongo","state_id":3450,"state_code":"MEX","country_id":142,"country_code":"MX","latitude":"19.53872000","longitude":"-99.76779000"},{"id":"73719","name":"San Jer\u00f3nimo Totoltepec","state_id":3450,"state_code":"MEX","country_id":142,"country_code":"MX","latitude":"19.31494000","longitude":"-100.20290000"},{"id":"73729","name":"San Joaqu\u00edn Coapango","state_id":3450,"state_code":"MEX","country_id":142,"country_code":"MX","latitude":"19.54043000","longitude":"-98.82739000"},{"id":"73730","name":"San Joaqu\u00edn del Monte","state_id":3450,"state_code":"MEX","country_id":142,"country_code":"MX","latitude":"19.41967000","longitude":"-99.90161000"},{"id":"73732","name":"San Jorge Pueblo Nuevo","state_id":3450,"state_code":"MEX","country_id":142,"country_code":"MX","latitude":"19.25417000","longitude":"-99.62778000"},{"id":"73746","name":"San Jos\u00e9 Barbabosa","state_id":3450,"state_code":"MEX","country_id":142,"country_code":"MX","latitude":"19.27583000","longitude":"-99.72000000"},{"id":"73747","name":"San Jos\u00e9 Boqui","state_id":3450,"state_code":"MEX","country_id":142,"country_code":"MX","latitude":"19.70167000","longitude":"-99.72861000"},{"id":"73755","name":"San Jos\u00e9 Chalmita","state_id":3450,"state_code":"MEX","country_id":142,"country_code":"MX","latitude":"18.85862000","longitude":"-99.54831000"},{"id":"73838","name":"San Jos\u00e9 del Progreso","state_id":3450,"state_code":"MEX","country_id":142,"country_code":"MX","latitude":"18.93443000","longitude":"-99.79230000"},{"id":"73840","name":"San Jos\u00e9 del Puente","state_id":3450,"state_code":"MEX","country_id":142,"country_code":"MX","latitude":"19.72056000","longitude":"-99.19667000"},{"id":"73841","name":"San Jos\u00e9 del Rinc\u00f3n Centro","state_id":3450,"state_code":"MEX","country_id":142,"country_code":"MX","latitude":"19.66216000","longitude":"-100.15315000"},{"id":"73843","name":"San Jos\u00e9 del Sitio","state_id":3450,"state_code":"MEX","country_id":142,"country_code":"MX","latitude":"19.60263000","longitude":"-99.66627000"},{"id":"73846","name":"San Jos\u00e9 del Tunal","state_id":3450,"state_code":"MEX","country_id":142,"country_code":"MX","latitude":"19.79056000","longitude":"-99.84000000"},{"id":"73848","name":"San Jos\u00e9 el Cuartel","state_id":3450,"state_code":"MEX","country_id":142,"country_code":"MX","latitude":"18.95972000","longitude":"-99.57722000"},{"id":"73852","name":"San Jos\u00e9 el Vidrio","state_id":3450,"state_code":"MEX","country_id":142,"country_code":"MX","latitude":"19.65333000","longitude":"-99.38417000"},{"id":"73765","name":"San Jos\u00e9 Guadalupe Otzacatipan","state_id":3450,"state_code":"MEX","country_id":142,"country_code":"MX","latitude":"19.34472000","longitude":"-99.59194000"},{"id":"73856","name":"San Jos\u00e9 las Lomas","state_id":3450,"state_code":"MEX","country_id":142,"country_code":"MX","latitude":"19.47936000","longitude":"-99.67052000"},{"id":"73857","name":"San Jos\u00e9 las Palmas","state_id":3450,"state_code":"MEX","country_id":142,"country_code":"MX","latitude":"19.36724000","longitude":"-98.93368000"},{"id":"73774","name":"San Jos\u00e9 Mezapa Secci\u00f3n I","state_id":3450,"state_code":"MEX","country_id":142,"country_code":"MX","latitude":"19.16306000","longitude":"-99.45500000"},{"id":"73779","name":"San Jos\u00e9 Path\u00e9","state_id":3450,"state_code":"MEX","country_id":142,"country_code":"MX","latitude":"19.43528000","longitude":"-99.63111000"},{"id":"73785","name":"San Jos\u00e9 Tejamanil","state_id":3450,"state_code":"MEX","country_id":142,"country_code":"MX","latitude":"19.43139000","longitude":"-99.35889000"},{"id":"73789","name":"San Jos\u00e9 Tener\u00eda (Tener\u00eda)","state_id":3450,"state_code":"MEX","country_id":142,"country_code":"MX","latitude":"18.95028000","longitude":"-99.54306000"},{"id":"73794","name":"San Jos\u00e9 Tlacotitl\u00e1n","state_id":3450,"state_code":"MEX","country_id":142,"country_code":"MX","latitude":"18.98583000","longitude":"-98.80611000"},{"id":"73796","name":"San Jos\u00e9 Toxi","state_id":3450,"state_code":"MEX","country_id":142,"country_code":"MX","latitude":"19.86803000","longitude":"-99.93736000"},{"id":"73799","name":"San Jos\u00e9 Villa de Allende","state_id":3450,"state_code":"MEX","country_id":142,"country_code":"MX","latitude":"19.37521000","longitude":"-100.14850000"},{"id":"73859","name":"San Juan","state_id":3450,"state_code":"MEX","country_id":142,"country_code":"MX","latitude":"19.24677000","longitude":"-100.03040000"},{"id":"73867","name":"San Juan Atezcapan","state_id":3450,"state_code":"MEX","country_id":142,"country_code":"MX","latitude":"19.16736000","longitude":"-100.18491000"},