[{"id":"68007","name":"1ra. Secci\u00f3n de Izapa","state_id":3451,"state_code":"CHP","country_id":142,"country_code":"MX","latitude":"14.92083000","longitude":"-92.17083000"},{"id":"68008","name":"2da. Secci\u00f3n de Medio Monte","state_id":3451,"state_code":"CHP","country_id":142,"country_code":"MX","latitude":"14.88194000","longitude":"-92.18444000"},{"id":"68013","name":"Abasolo","state_id":3451,"state_code":"CHP","country_id":142,"country_code":"MX","latitude":"16.82140000","longitude":"-92.21611000"},{"id":"68024","name":"Acacoyagua","state_id":3451,"state_code":"CHP","country_id":142,"country_code":"MX","latitude":"15.41414000","longitude":"-92.68169000"},{"id":"68029","name":"Acala","state_id":3451,"state_code":"CHP","country_id":142,"country_code":"MX","latitude":"16.55625000","longitude":"-92.80449000"},{"id":"68036","name":"Acapetahua","state_id":3451,"state_code":"CHP","country_id":142,"country_code":"MX","latitude":"15.28189000","longitude":"-92.68987000"},{"id":"68089","name":"Adolfo L\u00f3pez Mateos","state_id":3451,"state_code":"CHP","country_id":142,"country_code":"MX","latitude":"17.21600000","longitude":"-93.47895000"},{"id":"68101","name":"Agr\u00f3nomos Mexicanos","state_id":3451,"state_code":"CHP","country_id":142,"country_code":"MX","latitude":"16.35000000","longitude":"-93.53000000"},{"id":"68102","name":"Agua Azul","state_id":3451,"state_code":"CHP","country_id":142,"country_code":"MX","latitude":"16.81432000","longitude":"-91.52391000"},{"id":"68105","name":"Agua Blanca Serran\u00eda","state_id":3451,"state_code":"CHP","country_id":142,"country_code":"MX","latitude":"17.26781000","longitude":"-91.83564000"},{"id":"68120","name":"Agua Zarca","state_id":3451,"state_code":"CHP","country_id":142,"country_code":"MX","latitude":"15.63417000","longitude":"-92.14472000"},{"id":"68122","name":"Aguacatenango","state_id":3451,"state_code":"CHP","country_id":142,"country_code":"MX","latitude":"16.47388000","longitude":"-92.40875000"},{"id":"68130","name":"Agust\u00edn de Iturbide","state_id":3451,"state_code":"CHP","country_id":142,"country_code":"MX","latitude":"15.07523000","longitude":"-92.19858000"},{"id":"68135","name":"Ahuacatl\u00e1n","state_id":3451,"state_code":"CHP","country_id":142,"country_code":"MX","latitude":"15.04030000","longitude":"-92.18036000"},{"id":"68165","name":"Ajilh\u00f3","state_id":3451,"state_code":"CHP","country_id":142,"country_code":"MX","latitude":"16.98376000","longitude":"-92.93804000"},{"id":"68186","name":"Aldama","state_id":3451,"state_code":"CHP","country_id":142,"country_code":"MX","latitude":"16.91667000","longitude":"-92.68333000"},{"id":"68195","name":"Alfonso Moguel","state_id":3451,"state_code":"CHP","country_id":142,"country_code":"MX","latitude":"16.66750000","longitude":"-93.50639000"},{"id":"68224","name":"Altamirano","state_id":3451,"state_code":"CHP","country_id":142,"country_code":"MX","latitude":"16.88333000","longitude":"-92.15000000"},{"id":"68234","name":"Amado Nervo","state_id":3451,"state_code":"CHP","country_id":142,"country_code":"MX","latitude":"17.23107000","longitude":"-92.24581000"},{"id":"68247","name":"Amat\u00e1n","state_id":3451,"state_code":"CHP","country_id":142,"country_code":"MX","latitude":"17.36667000","longitude":"-92.81667000"},{"id":"68237","name":"Amatenango de la Frontera","state_id":3451,"state_code":"CHP","country_id":142,"country_code":"MX","latitude":"15.43333000","longitude":"-92.11667000"},{"id":"68238","name":"Amatenango del Valle","state_id":3451,"state_code":"CHP","country_id":142,"country_code":"MX","latitude":"16.52722000","longitude":"-92.43472000"},{"id":"68264","name":"Am\u00e9rica Libre","state_id":3451,"state_code":"CHP","country_id":142,"country_code":"MX","latitude":"16.61462000","longitude":"-92.99185000"},{"id":"68295","name":"Apas","state_id":3451,"state_code":"CHP","country_id":142,"country_code":"MX","latitude":"16.71066000","longitude":"-92.79335000"},{"id":"68320","name":"Aquiles Serd\u00e1n","state_id":3451,"state_code":"CHP","country_id":142,"country_code":"MX","latitude":"14.93980000","longitude":"-92.51444000"},{"id":"68349","name":"Arimatea","state_id":3451,"state_code":"CHP","country_id":142,"country_code":"MX","latitude":"17.34139000","longitude":"-91.87639000"},{"id":"68355","name":"Arriaga","state_id":3451,"state_code":"CHP","country_id":142,"country_code":"MX","latitude":"16.23589000","longitude":"-93.89995000"},{"id":"68358","name":"Arroyo Grande","state_id":3451,"state_code":"CHP","country_id":142,"country_code":"MX","latitude":"17.19122000","longitude":"-92.87207000"},{"id":"68359","name":"Arroyo Granizo","state_id":3451,"state_code":"CHP","country_id":142,"country_code":"MX","latitude":"17.03716000","longitude":"-91.42563000"},{"id":"68363","name":"Arroyo Palenque","state_id":3451,"state_code":"CHP","country_id":142,"country_code":"MX","latitude":"17.39167000","longitude":"-92.10444000"},{"id":"68378","name":"Arvenza Uno","state_id":3451,"state_code":"CHP","country_id":142,"country_code":"MX","latitude":"16.77972000","longitude":"-92.72028000"},{"id":"68445","name":"Aurora Ermita","state_id":3451,"state_code":"CHP","country_id":142,"country_code":"MX","latitude":"17.23583000","longitude":"-92.87389000"},{"id":"68446","name":"Aurora Esquipulas","state_id":3451,"state_code":"CHP","country_id":142,"country_code":"MX","latitude":"17.11704000","longitude":"-92.47626000"},{"id":"68474","name":"Azteca","state_id":3451,"state_code":"CHP","country_id":142,"country_code":"MX","latitude":"16.21775000","longitude":"-93.94557000"},{"id":"68475","name":"Aztl\u00e1n","state_id":3451,"state_code":"CHP","country_id":142,"country_code":"MX","latitude":"16.76919000","longitude":"-92.92316000"},{"id":"76395","name":"\u00c1lvaro Obreg\u00f3n","state_id":3451,"state_code":"CHP","country_id":142,"country_code":"MX","latitude":"14.92231000","longitude":"-92.37813000"},{"id":"76404","name":"\u00c1ngel Albino Corzo","state_id":3451,"state_code":"CHP","country_id":142,"country_code":"MX","latitude":"15.86624000","longitude":"-92.72324000"},{"id":"76405","name":"\u00c1ngel Albino Corzo (Guadalupe)","state_id":3451,"state_code":"CHP","country_id":142,"country_code":"MX","latitude":"17.12639000","longitude":"-93.27500000"},{"id":"68487","name":"Bachaj\u00f3n","state_id":3451,"state_code":"CHP","country_id":142,"country_code":"MX","latitude":"17.03963000","longitude":"-92.18986000"},{"id":"68504","name":"Bajucu","state_id":3451,"state_code":"CHP","country_id":142,"country_code":"MX","latitude":"16.47520000","longitude":"-92.06471000"},{"id":"68567","name":"Bautista Chico","state_id":3451,"state_code":"CHP","country_id":142,"country_code":"MX","latitude":"16.79972000","longitude":"-92.71194000"},{"id":"68570","name":"Bejucal de Ocampo","state_id":3451,"state_code":"CHP","country_id":142,"country_code":"MX","latitude":"15.45535000","longitude":"-92.15835000"},{"id":"68574","name":"Belisario Dom\u00ednguez","state_id":3451,"state_code":"CHP","country_id":142,"country_code":"MX","latitude":"15.29944000","longitude":"-92.38056000"},{"id":"68576","name":"Bella Vista","state_id":3451,"state_code":"CHP","country_id":142,"country_code":"MX","latitude":"15.58333000","longitude":"-92.21667000"},{"id":"68585","name":"Benem\u00e9rito de las Am\u00e9ricas","state_id":3451,"state_code":"CHP","country_id":142,"country_code":"MX","latitude":"16.51599000","longitude":"-90.65371000"},{"id":"68601","name":"Benito Ju\u00e1rez","state_id":3451,"state_code":"CHP","country_id":142,"country_code":"MX","latitude":"15.05500000","longitude":"-92.19111000"},{"id":"68611","name":"Berrioz\u00e1bal","state_id":3451,"state_code":"CHP","country_id":142,"country_code":"MX","latitude":"16.80000000","longitude":"-93.26667000"},{"id":"68612","name":"Betania","state_id":3451,"state_code":"CHP","country_id":142,"country_code":"MX","latitude":"16.60639000","longitude":"-92.52194000"},{"id":"68625","name":"Bochil","state_id":3451,"state_code":"CHP","country_id":142,"country_code":"MX","latitude":"16.99625000","longitude":"-92.89218000"},{"id":"68626","name":"Bochojbo Alto","state_id":3451,"state_code":"CHP","country_id":142,"country_code":"MX","latitude":"16.73583000","longitude":"-92.71694000"},{"id":"68649","name":"Brisas Barra de Suchiate","state_id":3451,"state_code":"CHP","country_id":142,"country_code":"MX","latitude":"14.53588000","longitude":"-92.22414000"},{"id":"68673","name":"Buenavista","state_id":3451,"state_code":"CHP","country_id":142,"country_code":"MX","latitude":"16.24278000","longitude":"-91.98778000"},{"id":"68676","name":"Buenavista (Matasanos)","state_id":3451,"state_code":"CHP","country_id":142,"country_code":"MX","latitude":"17.10778000","longitude":"-93.06694000"},{"id":"68686","name":"Buenos Aires","state_id":3451,"state_code":"CHP","country_id":142,"country_code":"MX","latitude":"14.88980000","longitude":"-92.48121000"},{"id":"68702","name":"Cabeza de Toro","state_id":3451,"state_code":"CHP","country_id":142,"country_code":"MX","latitude":"15.93698000","longitude":"-93.78256000"},{"id":"68705","name":"Cacahoat\u00e1n","state_id":3451,"state_code":"CHP","country_id":142,"country_code":"MX","latitude":"14.99201000","longitude":"-92.16376000"},{"id":"68715","name":"Cacat\u00e9","state_id":3451,"state_code":"CHP","country_id":142,"country_code":"MX","latitude":"16.84534000","longitude":"-92.83485000"},{"id":"68753","name":"Calzada Larga","state_id":3451,"state_code":"CHP","country_id":142,"country_code":"MX","latitude":"16.35115000","longitude":"-93.31518000"},{"id":"68786","name":"Cancuc","state_id":3451,"state_code":"CHP","country_id":142,"country_code":"MX","latitude":"16.91667000","longitude":"-92.48333000"},{"id":"68801","name":"Cant\u00f3n las Delicias","state_id":3451,"state_code":"CHP","country_id":142,"country_code":"MX","latitude":"15.10245000","longitude":"-92.50002000"},{"id":"68799","name":"Cant\u00f3n Rancho Nuevo","state_id":3451,"state_code":"CHP","country_id":142,"country_code":"MX","latitude":"15.06742000","longitude":"-92.52565000"},{"id":"68800","name":"Cant\u00f3n Villaflor","state_id":3451,"state_code":"CHP","country_id":142,"country_code":"MX","latitude":"15.11424000","longitude":"-92.35261000"},{"id":"68797","name":"Cantioc","state_id":3451,"state_code":"CHP","country_id":142,"country_code":"MX","latitude":"17.26222000","longitude":"-92.40694000"},{"id":"68829","name":"Carmen Yalchuch","state_id":3451,"state_code":"CHP","country_id":142,"country_code":"MX","latitude":"16.64482000","longitude":"-92.36245000"},{"id":"68830","name":"Carmen Zacatal","state_id":3451,"state_code":"CHP","country_id":142,"country_code":"MX","latitude":"17.08083000","longitude":"-92.80250000"},{"id":"68837","name":"Carrillo Puerto","state_id":3451,"state_code":"CHP","country_id":142,"country_code":"MX","latitude":"15.01120000","longitude":"-92.19552000"},{"id":"68856","name":"Cash","state_id":3451,"state_code":"CHP","country_id":142,"country_code":"MX","latitude":"16.26426000","longitude":"-92.09775000"},{"id":"68862","name":"Catazaj\u00e1","state_id":3451,"state_code":"CHP","country_id":142,"country_code":"MX","latitude":"17.73333000","longitude":"-92.01667000"},{"id":"68864","name":"Catishtic","state_id":3451,"state_code":"CHP","country_id":142,"country_code":"MX","latitude":"16.78028000","longitude":"-92.73778000"},{"id":"69657","name":"C\u00e1lido","state_id":3451,"state_code":"CHP","country_id":142,"country_code":"MX","latitude":"17.09889000","longitude":"-92.78750000"},{"id":"68884","name":"Cebadilla 1ra. Secci\u00f3n","state_id":3451,"state_code":"CHP","country_id":142,"country_code":"MX","latitude":"14.86381000","longitude":"-92.27969000"},{"id":"68895","name":"Cenobio Aguilar (La Trinidad)","state_id":3451,"state_code":"CHP","country_id":142,"country_code":"MX","latitude":"17.40472000","longitude":"-92.31944000"},{"id":"68905","name":"Cereso 14 (El Amate)","state_id":3451,"state_code":"CHP","country_id":142,"country_code":"MX","latitude":"16.59472000","longitude":"-93.80278000"},{"id":"68946","name":"Chacaljoc\u00f3m","state_id":3451,"state_code":"CHP","country_id":142,"country_code":"MX","latitude":"16.29919000","longitude":"-92.18345000"},{"id":"68949","name":"Chacoma","state_id":3451,"state_code":"CHP","country_id":142,"country_code":"MX","latitude":"16.87611000","longitude":"-92.49139000"},{"id":"68955","name":"Chalam","state_id":3451,"state_code":"CHP","country_id":142,"country_code":"MX","latitude":"16.88771000","longitude":"-92.55009000"},{"id":"68960","name":"Chalchihuit\u00e1n","state_id":3451,"state_code":"CHP","country_id":142,"country_code":"MX","latitude":"16.96667000","longitude":"-92.65000000"},{"id":"68969","name":"Chamula","state_id":3451,"state_code":"CHP","country_id":142,"country_code":"MX","latitude":"16.78416000","longitude":"-92.68959000"},{"id":"68970","name":"Chamulapita","state_id":3451,"state_code":"CHP","country_id":142,"country_code":"MX","latitude":"15.06892000","longitude":"-92.36942000"},{"id":"68973","name":"Chanal","state_id":3451,"state_code":"CHP","country_id":142,"country_code":"MX","latitude":"16.65750000","longitude":"-92.25750000"},{"id":"68980","name":"Chapallal Grande","state_id":3451,"state_code":"CHP","country_id":142,"country_code":"MX","latitude":"17.29631000","longitude":"-92.94519000"},{"id":"68989","name":"Chapultenango","state_id":3451,"state_code":"CHP","country_id":142,"country_code":"MX","latitude":"17.33333000","longitude":"-93.13333000"},{"id":"69010","name":"Chiapa de Corzo","state_id":3451,"state_code":"CHP","country_id":142,"country_code":"MX","latitude":"16.70770000","longitude":"-93.01184000"},{"id":"69011","name":"Chiapilla","state_id":3451,"state_code":"CHP","country_id":142,"country_code":"MX","latitude":"16.55397000","longitude":"-92.72594000"},{"id":"69034","name":"Chicoas\u00e9n","state_id":3451,"state_code":"CHP","country_id":142,"country_code":"MX","latitude":"16.96528000","longitude":"-93.10472000"},{"id":"69037","name":"Chicomuselo","state_id":3451,"state_code":"CHP","country_id":142,"country_code":"MX","latitude":"15.74420000","longitude":"-92.28330000"},{"id":"69048","name":"Chicumtantic","state_id":3451,"state_code":"CHP","country_id":142,"country_code":"MX","latitude":"16.86556000","longitude":"-92.60528000"},{"id":"69055","name":"Chihuahua","state_id":3451,"state_code":"CHP","country_id":142,"country_code":"MX","latitude":"16.02966000","longitude":"-91.97331000"},{"id":"69075","name":"Chil\u00f3n","state_id":3451,"state_code":"CHP","country_id":142,"country_code":"MX","latitude":"17.11667000","longitude":"-92.28333000"},{"id":"69071","name":"Chilolj\u00e1","state_id":3451,"state_code":"CHP","country_id":142,"country_code":"MX","latitude":"16.88528000","longitude":"-92.42472000"},{"id":"69079","name":"Chimhucum","state_id":3451,"state_code":"CHP","country_id":142,"country_code":"MX","latitude":"16.89000000","longitude":"-92.53139000"},{"id":"69092","name":"Chiquinival","state_id":3451,"state_code":"CHP","country_id":142,"country_code":"MX","latitude":"16.99111000","longitude":"-91.96028000"},{"id":"69093","name":"Chiquinshulum","state_id":3451,"state_code":"CHP","country_id":142,"country_code":"MX","latitude":"17.07194000","longitude":"-92.59806000"},{"id":"69096","name":"Chixtontic","state_id":3451,"state_code":"CHP","country_id":142,"country_code":"MX","latitude":"16.89080000","longitude":"-92.45793000"},{"id":"69113","name":"Chulum C\u00e1rdenas","state_id":3451,"state_code":"CHP","country_id":142,"country_code":"MX","latitude":"17.38417000","longitude":"-92.57389000"},{"id":"69114","name":"Chulum Ju\u00e1rez","state_id":3451,"state_code":"CHP","country_id":142,"country_code":"MX","latitude":"17.33194000","longitude":"-92.53389000"},{"id":"69136","name":"Cintalapa","state_id":3451,"state_code":"CHP","country_id":142,"country_code":"MX","latitude":"16.68778000","longitude":"-93.71083000"},{"id":"69137","name":"Cintalapa de Figueroa","state_id":3451,"state_code":"CHP","country_id":142,"country_code":"MX","latitude":"16.68393000","longitude":"-93.71814000"},{"id":"69153","name":"Ciudad Cuauht\u00e9moc","state_id":3451,"state_code":"CHP","country_id":142,"country_code":"MX","latitude":"15.66587000","longitude":"-92.00388000"},{"id":"69160","name":"Ciudad Hidalgo","state_id":3451,"state_code":"CHP","country_id":142,"country_code":"MX","latitude":"14.68148000","longitude":"-92.15217000"},{"id":"69222","name":"Coapilla","state_id":3451,"state_code":"CHP","country_id":142,"country_code":"MX","latitude":"17.13137000","longitude":"-93.15946000"},{"id":"69342","name":"Colonia Obrera","state_id":3451,"state_code":"CHP","country_id":142,"country_code":"MX","latitude":"15.09806000","longitude":"-92.49806000"},{"id":"69417","name":"Comalapa","state_id":3451,"state_code":"CHP","country_id":142,"country_code":"MX","latitude":"15.65924000","longitude":"-92.14237000"},{"id":"69425","name":"Comit\u00e1n","state_id":3451,"state_code":"CHP","country_id":142,"country_code":"MX","latitude":"16.24710000","longitude":"-92.13515000"},{"id":"69432","name":"Concepci\u00f3n","state_id":3451,"state_code":"CHP","country_id":142,"country_code":"MX","latitude":"16.80908000","longitude":"-92.96526000"},{"id":"69453","name":"Congregaci\u00f3n Reforma","state_id":3451,"state_code":"CHP","country_id":142,"country_code":"MX","latitude":"14.78208000","longitude":"-92.31424000"},{"id":"69465","name":"Constituci\u00f3n","state_id":3451,"state_code":"CHP","country_id":142,"country_code":"MX","latitude":"17.07556000","longitude":"-92.52417000"},{"id":"69469","name":"Copainal\u00e1","state_id":3451,"state_code":"CHP","country_id":142,"country_code":"MX","latitude":"17.09366000","longitude":"-93.21059000"},{"id":"69474","name":"Copoya","state_id":3451,"state_code":"CHP","country_id":142,"country_code":"MX","latitude":"16.71191000","longitude":"-93.12089000"},{"id":"69535","name":"Crist\u00f3bal Col\u00f3n","state_id":3451,"state_code":"CHP","country_id":142,"country_code":"MX","latitude":"17.19194000","longitude":"-91.62917000"},{"id":"69536","name":"Crist\u00f3bal Obreg\u00f3n","state_id":3451,"state_code":"CHP","country_id":142,"country_code":"MX","latitude":"16.43246000","longitude":"-93.45689000"},{"id":"69548","name":"Cruzt\u00f3n","state_id":3451,"state_code":"CHP","country_id":142,"country_code":"MX","latitude":"16.76167000","longitude":"-92.57917000"},{"id":"69580","name":"Cuauht\u00e9moc","state_id":3451,"state_code":"CHP","country_id":142,"country_code":"MX","latitude":"16.55000000","longitude":"-93.71611000"},{"id":"69606","name":"Cuchulumtic","state_id":3451,"state_code":"CHP","country_id":142,"country_code":"MX","latitude":"16.77722000","longitude":"-92.70417000"},{"id":"69665","name":"Damasco","state_id":3451,"state_code":"CHP","country_id":142,"country_code":"MX","latitude":"17.16161000","longitude":"-91.60058000"},{"id":"69683","name":"Diamante de Echeverr\u00eda","state_id":3451,"state_code":"CHP","country_id":142,"country_code":"MX","latitude":"16.11181000","longitude":"-92.87931000"},{"id":"69685","name":"Diecis\u00e9is de Septiembre","state_id":3451,"state_code":"CHP","country_id":142,"country_code":"MX","latitude":"16.29715000","longitude":"-93.17490000"},{"id":"69693","name":"Doctor Belisario Dom\u00ednguez (La Barra)","state_id":3451,"state_code":"CHP","country_id":142,"country_code":"MX","latitude":"15.88947000","longitude":"-93.70404000"},{"id":"69695","name":"Doctor Domingo Chanona","state_id":3451,"state_code":"CHP","country_id":142,"country_code":"MX","latitude":"16.34611000","longitude":"-93.41667000"},{"id":"69700","name":"Doctor Rodulfo Figueroa (Tierra Blanca)","state_id":3451,"state_code":"CHP","country_id":142,"country_code":"MX","latitude":"15.85083000","longitude":"-92.06222000"},{"id":"69701","name":"Doctor Samuel Le\u00f3n Brindis","state_id":3451,"state_code":"CHP","country_id":142,"country_code":"MX","latitude":"17.43528000","longitude":"-91.93194000"},{"id":"69707","name":"Dolores Jaltenango","state_id":3451,"state_code":"CHP","country_id":142,"country_code":"MX","latitude":"15.89694000","longitude":"-92.77777000"},{"id":"69755","name":"Efra\u00edn A. Guti\u00e9rrez","state_id":3451,"state_code":"CHP","country_id":142,"country_code":"MX","latitude":"16.34442000","longitude":"-92.19927000"},{"id":"69756","name":"Egipto","state_id":3451,"state_code":"CHP","country_id":142,"country_code":"MX","latitude":"17.26207000","longitude":"-91.97150000"},{"id":"69832","name":"El Arenal","state_id":3451,"state_code":"CHP","country_id":142,"country_code":"MX","latitude":"15.17273000","longitude":"-92.69923000"},{"id":"70264","name":"El \u00c1guila","state_id":3451,"state_code":"CHP","country_id":142,"country_code":"MX","latitude":"15.09334000","longitude":"-92.18512000"},{"id":"70267","name":"El \u00c1mbar","state_id":3451,"state_code":"CHP","country_id":142,"country_code":"MX","latitude":"17.02500000","longitude":"-92.83417000"},{"id":"70268","name":"El \u00c1mbar (El \u00c1mbar de Echeverr\u00eda)","state_id":3451,"state_code":"CHP","country_id":142,"country_code":"MX","latitude":"16.09639000","longitude":"-92.83333000"},{"id":"69848","name":"El Bosque","state_id":3451,"state_code":"CHP","country_id":142,"country_code":"MX","latitude":"17.06273000","longitude":"-92.72147000"},{"id":"69855","name":"El Calvario","state_id":3451,"state_code":"CHP","country_id":142,"country_code":"MX","latitude":"17.21750000","longitude":"-92.55694000"},{"id":"69870","name":"El Carmen","state_id":3451,"state_code":"CHP","country_id":142,"country_code":"MX","latitude":"15.57549000","longitude":"-93.12865000"},{"id":"69876","name":"El Carmen (El Lim\u00f3n)","state_id":3451,"state_code":"CHP","country_id":142,"country_code":"MX","latitude":"17.89056000","longitude":"-93.16528000"},{"id":"69892","name":"El Censo","state_id":3451,"state_code":"CHP","country_id":142,"country_code":"MX","latitude":"16.86287000","longitude":"-91.55988000"},{"id":"69920","name":"El Consuelo Ulapa","state_id":3451,"state_code":"CHP","country_id":142,"country_code":"MX","latitude":"15.38662000","longitude":"-92.79228000"},{"id":"69923","name":"El Copal","state_id":3451,"state_code":"CHP","country_id":142,"country_code":"MX","latitude":"16.96729000","longitude":"-92.92625000"},{"id":"69924","name":"El Copalar","state_id":3451,"state_code":"CHP","country_id":142,"country_code":"MX","latitude":"16.87694000","longitude":"-93.21389000"},{"id":"69950","name":"El Ed\u00e9n","state_id":3451,"state_code":"CHP","country_id":142,"country_code":"MX","latitude":"16.29191000","longitude":"-91.63755000"},{"id":"69952","name":"El Encanto","state_id":3451,"state_code":"CHP","country_id":142,"country_code":"MX","latitude":"14.73083000","longitude":"-92.41028000"},{"id":"69960","name":"El Espinal","state_id":3451,"state_code":"CHP","country_id":142,"country_code":"MX","latitude":"16.36862000","longitude":"-94.10449000"},{"id":"70001","name":"El Jard\u00edn","state_id":3451,"state_code":"CHP","country_id":142,"country_code":"MX","latitude":"17.16657000","longitude":"-92.59933000"},{"id":"70007","name":"El Jobo","state_id":3451,"state_code":"CHP","country_id":142,"country_code":"MX","latitude":"16.70369000","longitude":"-93.10569000"},{"id":"70014","name":"El Limar","state_id":3451,"state_code":"CHP","country_id":142,"country_code":"MX","latitude":"17.41491000","longitude":"-92.40293000"},{"id":"70015","name":"El Limonar","state_id":3451,"state_code":"CHP","country_id":142,"country_code":"MX","latitude":"16.97026000","longitude":"-91.37820000"},{"id":"70032","name":"El Mango","state_id":3451,"state_code":"CHP","country_id":142,"country_code":"MX","latitude":"17.16236000","longitude":"-92.05985000"},{"id":"70067","name":"El Nopal","state_id":3451,"state_code":"CHP","country_id":142,"country_code":"MX","latitude":"16.91161000","longitude":"-92.84471000"},{"id":"70076","name":"El Pacayal","state_id":3451,"state_code":"CHP","country_id":142,"country_code":"MX","latitude":"15.59849000","longitude":"-92.04254000"},{"id":"70081","name":"El Palmar (San Gabriel)","state_id":3451,"state_code":"CHP","country_id":142,"country_code":"MX","latitude":"16.84556000","longitude":"-93.01639000"},{"id":"70082","name":"El Palmar Grande","state_id":3451,"state_code":"CHP","country_id":142,"country_code":"MX","latitude":"15.49858000","longitude":"-92.25518000"},{"id":"70083","name":"El Palmarcito","state_id":3451,"state_code":"CHP","country_id":142,"country_code":"MX","latitude":"15.49728000","longitude":"-93.21387000"},{"id":"70091","name":"El Para\u00edso","state_id":3451,"state_code":"CHP","country_id":142,"country_code":"MX","latitude":"17.24639000","longitude":"-92.55694000"},{"id":"70095","name":"El Parral","state_id":3451,"state_code":"CHP","country_id":142,"country_code":"MX","latitude":"16.37035000","longitude":"-93.00567000"},{"id":"70114","name":"El Portal","state_id":3451,"state_code":"CHP","country_id":142,"country_code":"MX","latitude":"15.67726000","longitude":"-92.09588000"},{"id":"70118","name":"El Porvenir","state_id":3451,"state_code":"CHP","country_id":142,"country_code":"MX","latitude":"15.43092000","longitude":"-92.26447000"},{"id":"70120","name":"El Porvenir Agrarista","state_id":3451,"state_code":"CHP","country_id":142,"country_code":"MX","latitude":"16.16465000","longitude":"-91.83575000"},{"id":"70122","name":"El Porvenir de Velasco Su\u00e1rez","state_id":3451,"state_code":"CHP","country_id":142,"country_code":"MX","latitude":"15.45695000","longitude":"-92.27987000"},{"id":"70128","name":"El Pozo","state_id":3451,"state_code":"CHP","country_id":142,"country_code":"MX","latitude":"16.92034000","longitude":"-92.41166000"},{"id":"70133","name":"El Progreso","state_id":3451,"state_code":"CHP","country_id":142,"country_code":"MX","latitude":"16.87694000","longitude":"-93.22222000"},{"id":"70139","name":"El Puerto","state_id":3451,"state_code":"CHP","country_id":142,"country_code":"MX","latitude":"16.42575000","longitude":"-92.43059000"},{"id":"70143","name":"El Ramal (Porvenir)","state_id":3451,"state_code":"CHP","country_id":142,"country_code":"MX","latitude":"15.86583000","longitude":"-92.94556000"},{"id":"70182","name":"El Sacrificio","state_id":3451,"state_code":"CHP","country_id":142,"country_code":"MX","latitude":"14.87283000","longitude":"-92.22782000"},{"id":"70205","name":"El Sibal","state_id":3451,"state_code":"CHP","country_id":142,"country_code":"MX","latitude":"16.98000000","longitude":"-91.49111000"},{"id":"70235","name":"El Triunfo","state_id":3451,"state_code":"CHP","country_id":142,"country_code":"MX","latitude":"16.20200000","longitude":"-91.85916000"},{"id":"70237","name":"El Triunfo 1ra. Secci\u00f3n (Cardona)","state_id":3451,"state_code":"CHP","country_id":142,"country_code":"MX","latitude":"17.60778000","longitude":"-93.23306000"},{"id":"70238","name":"El Triunfo de las Tres Maravillas","state_id":3451,"state_code":"CHP","country_id":142,"country_code":"MX","latitude":"15.64694000","longitude":"-92.15639000"},{"id":"70244","name":"El Tumbo","state_id":3451,"state_code":"CHP","country_id":142,"country_code":"MX","latitude":"17.07779000","longitude":"-91.62595000"},{"id":"70246","name":"El Tzay","state_id":3451,"state_code":"CHP","country_id":142,"country_code":"MX","latitude":"16.86361000","longitude":"-92.31222000"},{"id":"70255","name":"El Vergel","state_id":3451,"state_code":"CHP","country_id":142,"country_code":"MX","latitude":"16.57951000","longitude":"-92.08148000"},{"id":"70260","name":"El Zapotal","state_id":3451,"state_code":"CHP","country_id":142,"country_code":"MX","latitude":"16.74991000","longitude":"-91.44192000"},{"id":"70263","name":"El Zapotillo","state_id":3451,"state_code":"CHP","country_id":142,"country_code":"MX","latitude":"16.83700000","longitude":"-92.95152000"},{"id":"70276","name":"Emiliano Zapata","state_id":3451,"state_code":"CHP","country_id":142,"country_code":"MX","latitude":"17.74058000","longitude":"-91.76635000"},{"id":"70323","name":"Escuintla","state_id":3451,"state_code":"CHP","country_id":142,"country_code":"MX","latitude":"15.33333000","longitude":"-92.63333000"},{"id":"70343","name":"Estaci\u00f3n Huehuet\u00e1n","state_id":3451,"state_code":"CHP","country_id":142,"country_code":"MX","latitude":"15.01091000","longitude":"-92.40662000"},{"id":"70354","name":"Estaci\u00f3n San Manuel","state_id":3451,"state_code":"CHP","country_id":142,"country_code":"MX","latitude":"17.65256000","longitude":"-93.38427000"},{"id":"70357","name":"Estaci\u00f3n Tuzant\u00e1n","state_id":3451,"state_code":"CHP","country_id":142,"country_code":"MX","latitude":"15.10643000","longitude":"-92.45092000"},{"id":"70373","name":"Estrella de Bel\u00e9n","state_id":3451,"state_code":"CHP","country_id":142,"country_code":"MX","latitude":"17.38722000","longitude":"-91.95861000"},{"id":"70392","name":"Faja de Oro","state_id":3451,"state_code":"CHP","country_id":142,"country_code":"MX","latitude":"15.03244000","longitude":"-92.15634000"},{"id":"70405","name":"Flor de Cacao","state_id":3451,"state_code":"CHP","country_id":142,"country_code":"MX","latitude":"16.12889000","longitude":"-90.45111000"},{"id":"70469","name":"Francisco I. Madero","state_id":3451,"state_code":"CHP","country_id":142,"country_code":"MX","latitude":"16.87427000","longitude":"-93.21678000"},{"id":"70473","name":"Francisco Le\u00f3n","state_id":3451,"state_code":"CHP","country_id":142,"country_code":"MX","latitude":"17.31667000","longitude":"-93.25000000"},{"id":"70475","name":"Francisco Sarabia","state_id":3451,"state_code":"CHP","country_id":142,"country_code":"MX","latitude":"16.94583000","longitude":"-93.01306000"},{"id":"70480","name":"Francisco Villa","state_id":3451,"state_code":"CHP","country_id":142,"country_code":"MX","latitude":"16.21426000","longitude":"-93.33697000"},{"id":"70492","name":"Frontera Corozal","state_id":3451,"state_code":"CHP","country_id":142,"country_code":"MX","latitude":"16.81473000","longitude":"-90.88351000"},{"id":"70493","name":"Frontera Hidalgo","state_id":3451,"state_code":"CHP","country_id":142,"country_code":"MX","latitude":"14.77744000","longitude":"-92.17741000"},{"id":"70501","name":"Gabriel Esquinca","state_id":3451,"state_code":"CHP","country_id":142,"country_code":"MX","latitude":"16.94056000","longitude":"-93.17555000"},{"id":"70512","name":"Galecio Narcia","state_id":3451,"state_code":"CHP","country_id":142,"country_code":"MX","latitude":"16.58820000","longitude":"-93.02052000"},{"id":"70571","name":"Guadalupe","state_id":3451,"state_code":"CHP","country_id":142,"country_code":"MX","latitude":"14.98033000","longitude":"-92.33938000"},{"id":"70583","name":"Guadalupe Grijalva","state_id":3451,"state_code":"CHP","country_id":142,"country_code":"MX","latitude":"15.69899000","longitude":"-92.16414000"},{"id":"70605","name":"Guadalupe Victoria","state_id":3451,"state_code":"CHP","country_id":142,"country_code":"MX","latitude":"16.40500000","longitude":"-92.55250000"},{"id":"70619","name":"Guaquitepec","state_id":3451,"state_code":"CHP","country_id":142,"country_code":"MX","latitude":"16.98017000","longitude":"-92.28795000"},{"id":"70829","name":"H\u00e9roes de Chapultepec","state_id":3451,"state_code":"CHP","country_id":142,"country_code":"MX","latitude":"16.06920000","longitude":"-92.28621000"},{"id":"70669","name":"Hermenegildo Galeana","state_id":3451,"state_code":"CHP","country_id":142,"country_code":"MX","latitude":"16.57722000","longitude":"-93.35944000"},{"id":"70682","name":"Hidalgo","state_id":3451,"state_code":"CHP","country_id":142,"country_code":"MX","latitude":"15.16249000","longitude":"-92.63030000"},{"id":"70688","name":"Hidalgo Joshil","state_id":3451,"state_code":"CHP","country_id":142,"country_code":"MX","latitude":"17.22743000","longitude":"-92.34719000"},{"id":"70762","name":"Huehuet\u00e1n","state_id":3451,"state_code":"CHP","country_id":142,"country_code":"MX","latitude":"15.01981000","longitude":"-92.38249000"},{"id":"70801","name":"Huitiup\u00e1n","state_id":3451,"state_code":"CHP","country_id":142,"country_code":"MX","latitude":"17.17240000","longitude":"-92.68621000"},{"id":"70821","name":"Huixtla","state_id":3451,"state_code":"CHP","country_id":142,"country_code":"MX","latitude":"15.13915000","longitude":"-92.46410000"},{"id":"70822","name":"Huizachal","state_id":3451,"state_code":"CHP","country_id":142,"country_code":"MX","latitude":"16.05184000","longitude":"-93.80011000"},{"id":"70838","name":"Ignacio Allende","state_id":3451,"state_code":"CHP","country_id":142,"country_code":"MX","latitude":"16.52556000","longitude":"-92.99222000"},{"id":"70842","name":"Ignacio L\u00f3pez Ray\u00f3n","state_id":3451,"state_code":"CHP","country_id":142,"country_code":"MX","latitude":"14.62164000","longitude":"-92.18678000"},{"id":"70845","name":"Ignacio Ram\u00edrez","state_id":3451,"state_code":"CHP","country_id":142,"country_code":"MX","latitude":"16.11091000","longitude":"-93.87323000"},{"id":"70857","name":"Ignacio Zaragoza","state_id":3451,"state_code":"CHP","country_id":142,"country_code":"MX","latitude":"17.29000000","longitude":"-92.93806000"},{"id":"70858","name":"Ignacio Zaragoza (El Morro)","state_id":3451,"state_code":"CHP","country_id":142,"country_code":"MX","latitude":"16.59944000","longitude":"-93.35083000"},{"id":"70869","name":"Independencia","state_id":3451,"state_code":"CHP","country_id":142,"country_code":"MX","latitude":"16.08611000","longitude":"-92.83824000"},{"id":"70916","name":"Ixhuat\u00e1n","state_id":3451,"state_code":"CHP","country_id":142,"country_code":"MX","latitude":"17.29341000","longitude":"-93.00829000"},{"id":"70923","name":"Ixtacomit\u00e1n","state_id":3451,"state_code":"CHP","country_id":142,"country_code":"MX","latitude":"17.43093000","longitude":"-93.09704000"},{"id":"70926","name":"Ixtapa","state_id":3451,"state_code":"CHP","country_id":142,"country_code":"MX","latitude":"16.80320000","longitude":"-92.90532000"},{"id":"70933","name":"Ixtapangajoya","state_id":3451,"state_code":"CHP","country_id":142,"country_code":"MX","latitude":"17.49849000","longitude":"-93.00155000"},{"id":"70973","name":"Jalisco","state_id":3451,"state_code":"CHP","country_id":142,"country_code":"MX","latitude":"16.43033000","longitude":"-91.97499000"},{"id":"70983","name":"Jaltenango de la Paz","state_id":3451,"state_code":"CHP","country_id":142,"country_code":"MX","latitude":"15.87314000","longitude":"-92.72437000"},{"id":"71006","name":"Jard\u00ednes del Grijalva","state_id":3451,"state_code":"CHP","country_id":142,"country_code":"MX","latitude":"16.72847000","longitude":"-93.03463000"},{"id":"71019","name":"Jeric\u00f3","state_id":3451,"state_code":"CHP","country_id":142,"country_code":"MX","latitude":"16.28713000","longitude":"-92.96630000"},{"id":"71020","name":"Jerusal\u00e9n","state_id":3451,"state_code":"CHP","country_id":142,"country_code":"MX","latitude":"17.36806000","longitude":"-92.06083000"},{"id":"71033","name":"Jes\u00fas Mar\u00eda Garza","state_id":3451,"state_code":"CHP","country_id":142,"country_code":"MX","latitude":"16.39669000","longitude":"-93.29368000"},{"id":"71054","name":"Jiquilpan (Estaci\u00f3n Bonanza)","state_id":3451,"state_code":"CHP","country_id":142,"country_code":"MX","latitude":"15.34194000","longitude":"-92.74750000"},{"id":"71055","name":"Jiquipilas","state_id":3451,"state_code":"CHP","country_id":142,"country_code":"MX","latitude":"16.66806000","longitude":"-93.64667000"},{"id":"71059","name":"Jitotol","state_id":3451,"state_code":"CHP","country_id":142,"country_code":"MX","latitude":"17.06723000","longitude":"-92.86111000"},{"id":"71064","name":"Joaqu\u00edn Miguel Guti\u00e9rrez","state_id":3451,"state_code":"CHP","country_id":142,"country_code":"MX","latitude":"16.37000000","longitude":"-93.36556000"},{"id":"71065","name":"Joaqu\u00edn Miguel Guti\u00e9rrez (Margaritas)","state_id":3451,"state_code":"CHP","country_id":142,"country_code":"MX","latitude":"15.55028000","longitude":"-93.09306000"},{"id":"71071","name":"Jolj\u00e1","state_id":3451,"state_code":"CHP","country_id":142,"country_code":"MX","latitude":"17.20459000","longitude":"-92.49946000"},{"id":"71074","name":"Jolsibaquil","state_id":3451,"state_code":"CHP","country_id":142,"country_code":"MX","latitude":"17.25972000","longitude":"-92.48167000"},{"id":"71075","name":"Joltealal","state_id":3451,"state_code":"CHP","country_id":142,"country_code":"MX","latitude":"17.07683000","longitude":"-92.62163000"},{"id":"71076","name":"Jomanichim","state_id":3451,"state_code":"CHP","country_id":142,"country_code":"MX","latitude":"16.90056000","longitude":"-92.47222000"},{"id":"71097","name":"Jos\u00e9 Mar\u00eda Morelos","state_id":3451,"state_code":"CHP","country_id":142,"country_code":"MX","latitude":"16.04189000","longitude":"-91.83201000"},{"id":"71105","name":"Jos\u00e9 Mar\u00eda Morelos y Pav\u00f3n","state_id":3451,"state_code":"CHP","country_id":142,"country_code":"MX","latitude":"17.24105000","longitude":"-92.70231000"},{"id":"71108","name":"Jos\u00e9 Mar\u00eda Pino Su\u00e1rez","state_id":3451,"state_code":"CHP","country_id":142,"country_code":"MX","latitude":"16.50571000","longitude":"-93.73910000"},{"id":"71087","name":"Joshil","state_id":3451,"state_code":"CHP","country_id":142,"country_code":"MX","latitude":"17.24667000","longitude":"-92.36278000"},{"id":"71112","name":"Juan Aldama","state_id":3451,"state_code":"CHP","country_id":142,"country_code":"MX","latitude":"17.60939000","longitude":"-93.02826000"},{"id":"71129","name":"Juan del Grijalva","state_id":3451,"state_code":"CHP","country_id":142,"country_code":"MX","latitude":"16.72806000","longitude":"-92.97750000"},{"id":"71145","name":"Ju\u00e1rez","state_id":3451,"state_code":"CHP","country_id":142,"country_code":"MX","latitude":"17.60572000","longitude":"-93.19433000"},{"id":"71137","name":"Juli\u00e1n Grajales","state_id":3451,"state_code":"CHP","country_id":142,"country_code":"MX","latitude":"16.42917000","longitude":"-93.71417000"},{"id":"71143","name":"Justo Sierra","state_id":3451,"state_code":"CHP","country_id":142,"country_code":"MX","latitude":"16.54248000","longitude":"-92.05737000"},{"id":"71168","name":"Kotolte","state_id":3451,"state_code":"CHP","country_id":142,"country_code":"MX","latitude":"16.86444000","longitude":"-92.46111000"},{"id":"71195","name":"La Candelaria","state_id":3451,"state_code":"CHP","country_id":142,"country_code":"MX","latitude":"16.74289000","longitude":"-92.52156000"},{"id":"71210","name":"La Ceiba","state_id":3451,"state_code":"CHP","country_id":142,"country_code":"MX","latitude":"17.13371000","longitude":"-92.51887000"},{"id":"71226","name":"La Competencia","state_id":3451,"state_code":"CHP","country_id":142,"country_code":"MX","latitude":"17.23588000","longitude":"-92.75718000"},{"id":"71242","name":"La Concordia","state_id":3451,"state_code":"CHP","country_id":142,"country_code":"MX","latitude":"16.11774000","longitude":"-92.69018000"},{"id":"71271","name":"La Esperanza","state_id":3451,"state_code":"CHP","country_id":142,"country_code":"MX","latitude":"16.15191000","longitude":"-91.86874000"},{"id":"71276","name":"La Esperanza (El Zapotal)","state_id":3451,"state_code":"CHP","country_id":142,"country_code":"MX","latitude":"15.44917000","longitude":"-93.16417000"},{"id":"71292","name":"La Floresta","state_id":3451,"state_code":"CHP","country_id":142,"country_code":"MX","latitude":"16.50915000","longitude":"-92.31251000"},{"id":"71302","name":"La Gloria","state_id":3451,"state_code":"CHP","country_id":142,"country_code":"MX","latitude":"15.96389000","longitude":"-91.96500000"},{"id":"71307","name":"La Grandeza","state_id":3451,"state_code":"CHP","country_id":142,"country_code":"MX","latitude":"15.51033000","longitude":"-92.22603000"},{"id":"71323","name":"La Independencia","state_id":3451,"state_code":"CHP","country_id":142,"country_code":"MX","latitude":"16.25263000","longitude":"-92.02371000"},{"id":"71324","name":"La Independencia (Las Pilas)","state_id":3451,"state_code":"CHP","country_id":142,"country_code":"MX","latitude":"16.67750000","longitude":"-93.24944000"},{"id":"71343","name":"La Laguna","state_id":3451,"state_code":"CHP","country_id":142,"country_code":"MX","latitude":"16.69357000","longitude":"-91.94929000"},{"id":"71379","name":"La L\u00ednea","state_id":3451,"state_code":"CHP","country_id":142,"country_code":"MX","latitude":"16.13078000","longitude":"-94.03563000"},{"id":"71351","name":"La Libertad","state_id":3451,"state_code":"CHP","country_id":142,"country_code":"MX","latitude":"14.59167000","longitude":"-92.19315000"},{"id":"71434","name":"La Patria","state_id":3451,"state_code":"CHP","country_id":142,"country_code":"MX","latitude":"16.22975000","longitude":"-91.91148000"},{"id":"71448","name":"La Pimienta","state_id":3451,"state_code":"CHP","country_id":142,"country_code":"MX","latitude":"17.14111000","longitude":"-92.76222000"},{"id":"71477","name":"La Rinconada","state_id":3451,"state_code":"CHP","country_id":142,"country_code":"MX","latitude":"15.59333000","longitude":"-92.26806000"},{"id":"71502","name":"La Tigrilla","state_id":3451,"state_code":"CHP","country_id":142,"country_code":"MX","latitude":"15.98769000","longitude":"-92.85220000"},{"id":"71516","name":"La Trinitaria","state_id":3451,"state_code":"CHP","country_id":142,"country_code":"MX","latitude":"16.11859000","longitude":"-92.05201000"},{"id":"71540","name":"Lacand\u00f3n","state_id":3451,"state_code":"CHP","country_id":142,"country_code":"MX","latitude":"17.02141000","longitude":"-91.59523000"},{"id":"71557","name":"Laguna del Cofre","state_id":3451,"state_code":"CHP","country_id":142,"country_code":"MX","latitude":"15.62751000","longitude":"-92.64143000"},{"id":"71571","name":"Larr\u00e1inzar","state_id":3451,"state_code":"CHP","country_id":142,"country_code":"MX","latitude":"16.88392000","longitude":"-92.71329000"},{"id":"71579","name":"Las Brisas","state_id":3451,"state_code":"CHP","country_id":142,"country_code":"MX","latitude":"15.51681000","longitude":"-93.11763000"},{"id":"71586","name":"Las Chicharras","state_id":3451,"state_code":"CHP","country_id":142,"country_code":"MX","latitude":"15.67089000","longitude":"-92.21070000"},{"id":"71596","name":"Las Delicias","state_id":3451,"state_code":"CHP","country_id":142,"country_code":"MX","latitude":"15.96932000","longitude":"-91.86315000"},{"id":"71599","name":"Las Flechas","state_id":3451,"state_code":"CHP","country_id":142,"country_code":"MX","latitude":"16.70028000","longitude":"-93.02639000"},{"id":"71616","name":"Las Maravillas","state_id":3451,"state_code":"CHP","country_id":142,"country_code":"MX","latitude":"16.95951000","longitude":"-93.32012000"},{"id":"71617","name":"Las Margaritas","state_id":3451,"state_code":"CHP","country_id":142,"country_code":"MX","latitude":"16.31265000","longitude":"-91.98107000"},{"id":"71628","name":"Las Ollas","state_id":3451,"state_code":"CHP","country_id":142,"country_code":"MX","latitude":"16.78146000","longitude":"-92.55278000"},{"id":"71637","name":"Las Rosas","state_id":3451,"state_code":"CHP","country_id":142,"country_code":"MX","latitude":"16.36574000","longitude":"-92.37040000"},{"id":"71642","name":"Las Tazas","state_id":3451,"state_code":"CHP","country_id":142,"country_code":"MX","latitude":"16.75722000","longitude":"-91.61500000"},{"id":"71888","name":"L\u00e1zaro C\u00e1rdenas","state_id":3451,"state_code":"CHP","country_id":142,"country_code":"MX","latitude":"16.60417000","longitude":"-93.79139000"},{"id":"71896","name":"L\u00e1zaro C\u00e1rdenas (Chilil)","state_id":3451,"state_code":"CHP","country_id":142,"country_code":"MX","latitude":"16.67611000","longitude":"-92.48917000"},{"id":"71670","name":"Libertad Melchor Ocampo","state_id":3451,"state_code":"CHP","country_id":142,"country_code":"MX","latitude":"16.37389000","longitude":"-93.47500000"},{"id":"71671","name":"Libertad Ventanas","state_id":3451,"state_code":"CHP","country_id":142,"country_code":"MX","latitude":"15.53954000","longitude":"-92.27576000"},{"id":"71693","name":"Llano de la Lima","state_id":3451,"state_code":"CHP","country_id":142,"country_code":"MX","latitude":"14.86596000","longitude":"-92.29714000"},{"id":"71713","name":"Loma Bonita","state_id":3451,"state_code":"CHP","country_id":142,"country_code":"MX","latitude":"17.78697000","longitude":"-92.07651000"},{"id":"71741","name":"Lomant\u00e1n","state_id":3451,"state_code":"CHP","country_id":142,"country_code":"MX","latitude":"16.43999000","longitude":"-92.06445000"},{"id":"71782","name":"Los Cafetales","state_id":3451,"state_code":"CHP","country_id":142,"country_code":"MX","latitude":"14.86745000","longitude":"-92.30200000"},{"id":"71793","name":"Los Corazones","state_id":3451,"state_code":"CHP","country_id":142,"country_code":"MX","latitude":"16.21026000","longitude":"-94.07391000"},{"id":"71819","name":"Los Naranjos","state_id":3451,"state_code":"CHP","country_id":142,"country_code":"MX","latitude":"17.26446000","longitude":"-92.61972000"},{"id":"71827","name":"Los Palacios","state_id":3451,"state_code":"CHP","country_id":142,"country_code":"MX","latitude":"14.85718000","longitude":"-92.25821000"},{"id":"71832","name":"Los Pinos","state_id":3451,"state_code":"CHP","country_id":142,"country_code":"MX","latitude":"16.92083000","longitude":"-92.10861000"},{"id":"71834","name":"Los Pl\u00e1tanos","state_id":3451,"state_code":"CHP","country_id":142,"country_code":"MX","latitude":"17.00556000","longitude":"-92.74264000"},{"id":"71836","name":"Los Pozos","state_id":3451,"state_code":"CHP","country_id":142,"country_code":"MX","latitude":"16.64770000","longitude":"-92.40726000"},{"id":"71853","name":"Los Riegos","state_id":3451,"state_code":"CHP","country_id":142,"country_code":"MX","latitude":"16.30457000","longitude":"-92.12425000"},{"id":"71880","name":"Luis Espinoza","state_id":3451,"state_code":"CHP","country_id":142,"country_code":"MX","latitude":"17.03167000","longitude":"-93.02694000"},{"id":"71915","name":"Macvilh\u00f3","state_id":3451,"state_code":"CHP","country_id":142,"country_code":"MX","latitude":"16.85760000","longitude":"-92.69419000"},{"id":"71942","name":"Majastic","state_id":3451,"state_code":"CHP","country_id":142,"country_code":"MX","latitude":"17.28944000","longitude":"-92.62833000"},{"id":"71943","name":"Majomut","state_id":3451,"state_code":"CHP","country_id":142,"country_code":"MX","latitude":"16.84917000","longitude":"-92.65944000"},{"id":"71966","name":"Manuel \u00c1vila Camacho","state_id":3451,"state_code":"CHP","country_id":142,"country_code":"MX","latitude":"16.14647000","longitude":"-93.01701000"},{"id":"71968","name":"Manuel \u00c1vila Camacho (Ponte Duro)","state_id":3451,"state_code":"CHP","country_id":142,"country_code":"MX","latitude":"15.80973000","longitude":"-93.58933000"},{"id":"71961","name":"Manuel Lazos","state_id":3451,"state_code":"CHP","country_id":142,"country_code":"MX","latitude":"14.97159000","longitude":"-92.18726000"},{"id":"71977","name":"Mapastepec","state_id":3451,"state_code":"CHP","country_id":142,"country_code":"MX","latitude":"15.43358000","longitude":"-92.90039000"},{"id":"71981","name":"Maravilla Tenejapa","state_id":3451,"state_code":"CHP","country_id":142,"country_code":"MX","latitude":"16.20391000","longitude":"-91.26093000"},{"id":"71982","name":"Maravillas","state_id":3451,"state_code":"CHP","country_id":142,"country_code":"MX","latitude":"17.09693000","longitude":"-92.89107000"},{"id":"71993","name":"Mariano Matamoros","state_id":3451,"state_code":"CHP","country_id":142,"country_code":"MX","latitude":"16.48119000","longitude":"-92.58472000"},{"id":"71995","name":"Mariscal Subikuski","state_id":3451,"state_code":"CHP","country_id":142,"country_code":"MX","latitude":"17.33250000","longitude":"-92.38083000"},{"id":"71998","name":"Marqu\u00e9s de Comillas","state_id":3451,"state_code":"CHP","country_id":142,"country_code":"MX","latitude":"16.21471000","longitude":"-90.75917000"},{"id":"72000","name":"Marte R. G\u00f3mez","state_id":3451,"state_code":"CHP","country_id":142,"country_code":"MX","latitude":"14.92653000","longitude":"-92.44389000"},{"id":"72023","name":"Matzam","state_id":3451,"state_code":"CHP","country_id":142,"country_code":"MX","latitude":"16.78917000","longitude":"-92.47694000"},{"id":"72036","name":"Mazapa","state_id":3451,"state_code":"CHP","country_id":142,"country_code":"MX","latitude":"15.38773000","longitude":"-92.18780000"},{"id":"72038","name":"Mazapa de Madero","state_id":3451,"state_code":"CHP","country_id":142,"country_code":"MX","latitude":"15.36461000","longitude":"-92.18762000"},{"id":"72049","name":"Mazat\u00e1n","state_id":3451,"state_code":"CHP","country_id":142,"country_code":"MX","latitude":"14.86319000","longitude":"-92.45030000"},{"id":"72262","name":"M\u00e9rida","state_id":3451,"state_code":"CHP","country_id":142,"country_code":"MX","latitude":"16.56750000","longitude":"-93.81722000"},{"id":"72087","name":"Metapa","state_id":3451,"state_code":"CHP","country_id":142,"country_code":"MX","latitude":"14.83624000","longitude":"-92.19186000"},{"id":"72128","name":"Miguel Hidalgo","state_id":3451,"state_code":"CHP","country_id":142,"country_code":"MX","latitude":"16.35060000","longitude":"-92.62852000"},{"id":"72135","name":"Miguel Utrilla (Los Chorros)","state_id":3451,"state_code":"CHP","country_id":142,"country_code":"MX","latitude":"16.94278000","longitude":"-92.47972000"},{"id":"72158","name":"Misija","state_id":3451,"state_code":"CHP","country_id":142,"country_code":"MX","latitude":"17.26611000","longitude":"-92.38167000"},{"id":"72161","name":"Mitontic","state_id":3451,"state_code":"CHP","country_id":142,"country_code":"MX","latitude":"16.87540000","longitude":"-92.57130000"},{"id":"72163","name":"Mitzit\u00f3n","state_id":3451,"state_code":"CHP","country_id":142,"country_code":"MX","latitude":"16.64639000","longitude":"-92.54333000"},{"id":"72164","name":"Mixcum","state_id":3451,"state_code":"CHP","country_id":142,"country_code":"MX","latitude":"15.02560000","longitude":"-92.14080000"},{"id":"72205","name":"Monte Redondo","state_id":3451,"state_code":"CHP","country_id":142,"country_code":"MX","latitude":"15.65217000","longitude":"-92.05045000"},{"id":"72212","name":"Montecristo","state_id":3451,"state_code":"CHP","country_id":142,"country_code":"MX","latitude":"15.69263000","longitude":"-92.61999000"},{"id":"72213","name":"Montecristo de Guerrero","state_id":3451,"state_code":"CHP","country_id":142,"country_code":"MX","latitude":"15.67526000","longitude":"-92.64399000"},{"id":"72218","name":"Monterrey","state_id":3451,"state_code":"CHP","country_id":142,"country_code":"MX","latitude":"16.06191000","longitude":"-93.36928000"},{"id":"72226","name":"Morelia (Vict\u00f3rico Rodolfo Grajales)","state_id":3451,"state_code":"CHP","country_id":142,"country_code":"MX","latitude":"16.72306000","longitude":"-91.96778000"},{"id":"72241","name":"Motozintla","state_id":3451,"state_code":"CHP","country_id":142,"country_code":"MX","latitude":"15.36694000","longitude":"-92.24605000"},{"id":"72246","name":"Moyos","state_id":3451,"state_code":"CHP","country_id":142,"country_code":"MX","latitude":"17.35889000","longitude":"-92.64134000"},{"id":"72256","name":"Muqu\u00e9n","state_id":3451,"state_code":"CHP","country_id":142,"country_code":"MX","latitude":"16.80641000","longitude":"-92.61006000"},{"id":"72265","name":"Nachig","state_id":3451,"state_code":"CHP","country_id":142,"country_code":"MX","latitude":"16.73056000","longitude":"-92.72528000"},{"id":"72285","name":"Narciso Mendoza","state_id":3451,"state_code":"CHP","country_id":142,"country_code":"MX","latitude":"16.57996000","longitude":"-92.98911000"},{"id":"72296","name":"Navenchauc","state_id":3451,"state_code":"CHP","country_id":142,"country_code":"MX","latitude":"16.73501000","longitude":"-92.77900000"},{"id":"72323","name":"Nicol\u00e1s Bravo","state_id":3451,"state_code":"CHP","country_id":142,"country_code":"MX","latitude":"16.51058000","longitude":"-92.99222000"},{"id":"72329","name":"Nicol\u00e1s Ru\u00edz","state_id":3451,"state_code":"CHP","country_id":142,"country_code":"MX","latitude":"16.44833000","longitude":"-92.60361000"},{"id":"72328","name":"Nicol\u00e1s Ruiz","state_id":3451,"state_code":"CHP","country_id":142,"country_code":"MX","latitude":"16.43714000","longitude":"-92.58522000"},{"id":"72359","name":"Nueva Am\u00e9rica","state_id":3451,"state_code":"CHP","country_id":142,"country_code":"MX","latitude":"15.92281000","longitude":"-92.30587000"},{"id":"72362","name":"Nueva Colombia","state_id":3451,"state_code":"CHP","country_id":142,"country_code":"MX","latitude":"15.69670000","longitude":"-92.72111000"},{"id":"72364","name":"Nueva Esperanza","state_id":3451,"state_code":"CHP","country_id":142,"country_code":"MX","latitude":"17.24746000","longitude":"-92.45524000"},{"id":"72366","name":"Nueva Independencia","state_id":3451,"state_code":"CHP","country_id":142,"country_code":"MX","latitude":"15.78259000","longitude":"-92.20883000"},{"id":"72368","name":"Nueva Libertad","state_id":3451,"state_code":"CHP","country_id":142,"country_code":"MX","latitude":"16.09038000","longitude":"-92.80813000"},{"id":"72369","name":"Nueva Libertad (El Colorado)","state_id":3451,"state_code":"CHP","country_id":142,"country_code":"MX","latitude":"15.89861000","longitude":"-92.05917000"},{"id":"72370","name":"Nueva Morelia","state_id":3451,"state_code":"CHP","country_id":142,"country_code":"MX","latitude":"15.61784000","longitude":"-92.14517000"},{"id":"72371","name":"Nueva Palestina","state_id":3451,"state_code":"CHP","country_id":142,"country_code":"MX","latitude":"16.81722000","longitude":"-91.26000000"},{"id":"72375","name":"Nueva Sesecapa","state_id":3451,"state_code":"CHP","country_id":142,"country_code":"MX","latitude":"15.40205000","longitude":"-92.82239000"},{"id":"72376","name":"Nueva Tenochtitl\u00e1n (Rizo de Oro)","state_id":3451,"state_code":"CHP","country_id":142,"country_code":"MX","latitude":"16.47639000","longitude":"-94.08056000"},{"id":"72378","name":"Nuevo Amatenango","state_id":3451,"state_code":"CHP","country_id":142,"country_code":"MX","latitude":"15.50852000","longitude":"-92.10958000"},{"id":"72380","name":"Nuevo Carmen Tonapac","state_id":3451,"state_code":"CHP","country_id":142,"country_code":"MX","latitude":"16.69667000","longitude":"-92.95556000"},{"id":"72385","name":"Nuevo Francisco Le\u00f3n","state_id":3451,"state_code":"CHP","country_id":142,"country_code":"MX","latitude":"17.03031000","longitude":"-91.32216000"},{"id":"72389","name":"Nuevo Juan del Grijalva","state_id":3451,"state_code":"CHP","country_id":142,"country_code":"MX","latitude":"17.42722000","longitude":"-93.37222000"},{"id":"72391","name":"Nuevo Le\u00f3n","state_id":3451,"state_code":"CHP","country_id":142,"country_code":"MX","latitude":"16.48629000","longitude":"-92.57140000"},{"id":"72393","name":"Nuevo Limar","state_id":3451,"state_code":"CHP","country_id":142,"country_code":"MX","latitude":"17.45514000","longitude":"-92.39890000"},{"id":"72398","name":"Nuevo M\u00e9xico","state_id":3451,"state_code":"CHP","country_id":142,"country_code":"MX","latitude":"16.46944000","longitude":"-93.43806000"},{"id":"72395","name":"Nuevo Milenio Valdivia","state_id":3451,"state_code":"CHP","country_id":142,"country_code":"MX","latitude":"15.50306000","longitude":"-92.94861000"},{"id":"72399","name":"Nuevo Naranjo","state_id":3451,"state_code":"CHP","country_id":142,"country_code":"MX","latitude":"17.15444000","longitude":"-93.43333000"},{"id":"72401","name":"Nuevo Nicapa","state_id":3451,"state_code":"CHP","country_id":142,"country_code":"MX","latitude":"17.63464000","longitude":"-93.07238000"},{"id":"72402","name":"Nuevo Pacayal","state_id":3451,"state_code":"CHP","country_id":142,"country_code":"MX","latitude":"15.66010000","longitude":"-92.31538000"},{"id":"72407","name":"Nuevo Pumpuapa (Cereso)","state_id":3451,"state_code":"CHP","country_id":142,"country_code":"MX","latitude":"14.92562000","longitude":"-92.36533000"},{"id":"72409","name":"Nuevo San Juan Chamula","state_id":3451,"state_code":"CHP","country_id":142,"country_code":"MX","latitude":"16.14426000","longitude":"-91.44379000"},{"id":"72413","name":"Nuevo Sital\u00e1","state_id":3451,"state_code":"CHP","country_id":142,"country_code":"MX","latitude":"17.13936000","longitude":"-92.48287000"},{"id":"72419","name":"Nuevo Vicente Guerrero","state_id":3451,"state_code":"CHP","country_id":142,"country_code":"MX","latitude":"16.03860000","longitude":"-92.97542000"},{"id":"72420","name":"Nuevo Vicente Guerrero (El Chichonal)","state_id":3451,"state_code":"CHP","country_id":142,"country_code":"MX","latitude":"16.48528000","longitude":"-92.87139000"},{"id":"72421","name":"Nuevo Volc\u00e1n Chichonal","state_id":3451,"state_code":"CHP","country_id":142,"country_code":"MX","latitude":"17.77263000","longitude":"-93.10955000"},{"id":"72423","name":"Nuevo Xochimilco","state_id":3451,"state_code":"CHP","country_id":142,"country_code":"MX","latitude":"17.45442000","longitude":"-93.36904000"},{"id":"72447","name":"Ochusjob","state_id":3451,"state_code":"CHP","country_id":142,"country_code":"MX","latitude":"16.22482000","longitude":"-92.25201000"},{"id":"72448","name":"Ococh","state_id":3451,"state_code":"CHP","country_id":142,"country_code":"MX","latitude":"16.83806000","longitude":"-92.47528000"},{"id":"72450","name":"Ocosingo","state_id":3451,"state_code":"CHP","country_id":142,"country_code":"MX","latitude":"16.90639000","longitude":"-92.09374000"},{"id":"72452","name":"Ocotepec","state_id":3451,"state_code":"CHP","country_id":142,"country_code":"MX","latitude":"17.22620000","longitude":"-93.16440000"},{"id":"72464","name":"Ocozocoautla de Espinosa","state_id":3451,"state_code":"CHP","country_id":142,"country_code":"MX","latitude":"16.76231000","longitude":"-93.37476000"},{"id":"72467","name":"Octavio Paz","state_id":3451,"state_code":"CHP","country_id":142,"country_code":"MX","latitude":"14.85778000","longitude":"-92.26389000"},{"id":"72484","name":"Ojo de Agua","state_id":3451,"state_code":"CHP","country_id":142,"country_code":"MX","latitude":"16.15773000","longitude":"-91.75794000"},{"id":"72508","name":"Omoa","state_id":3451,"state_code":"CHP","country_id":142,"country_code":"MX","latitude":"14.83292000","longitude":"-92.23279000"},{"id":"72510","name":"Once de Abril","state_id":3451,"state_code":"CHP","country_id":142,"country_code":"MX","latitude":"15.05199000","longitude":"-92.14224000"},{"id":"72534","name":"Ostuac\u00e1n","state_id":3451,"state_code":"CHP","country_id":142,"country_code":"MX","latitude":"17.40664000","longitude":"-93.33643000"},{"id":"72535","name":"Osumacinta","state_id":3451,"state_code":"CHP","country_id":142,"country_code":"MX","latitude":"16.93611000","longitude":"-93.09028000"},{"id":"72546","name":"Oxchuc","state_id":3451,"state_code":"CHP","country_id":142,"country_code":"MX","latitude":"16.78588000","longitude":"-92.34455000"},{"id":"72550","name":"Oxinam","state_id":3451,"state_code":"CHP","country_id":142,"country_code":"MX","latitude":"16.86306000","longitude":"-92.54917000"},{"id":"72564","name":"Pablo L. Sidar","state_id":3451,"state_code":"CHP","country_id":142,"country_code":"MX","latitude":"15.83053000","longitude":"-92.27977000"},{"id":"72571","name":"Pac\u00fa","state_id":3451,"state_code":"CHP","country_id":142,"country_code":"MX","latitude":"16.63584000","longitude":"-93.13437000"},{"id":"72582","name":"Palenque","state_id":3451,"state_code":"CHP","country_id":142,"country_code":"MX","latitude":"17.50953000","longitude":"-91.98248000"},{"id":"72625","name":"Pantelh\u00f3","state_id":3451,"state_code":"CHP","country_id":142,"country_code":"MX","latitude":"17.00563000","longitude":"-92.47165000"},{"id":"72626","name":"Pantepec","state_id":3451,"state_code":"CHP","country_id":142,"country_code":"MX","latitude":"17.18842000","longitude":"-93.04998000"},{"id":"72650","name":"Para\u00edso del Grijalva","state_id":3451,"state_code":"CHP","country_id":142,"country_code":"MX","latitude":"16.22576000","longitude":"-92.64318000"},{"id":"72653","name":"Pared\u00f3n","state_id":3451,"state_code":"CHP","country_id":142,"country_code":"MX","latitude":"16.05083000","longitude":"-93.86667000"},{"id":"72680","name":"Paso Hondo","state_id":3451,"state_code":"CHP","country_id":142,"country_code":"MX","latitude":"15.68390000","longitude":"-92.01860000"},{"id":"72704","name":"Past\u00e9","state_id":3451,"state_code":"CHP","country_id":142,"country_code":"MX","latitude":"16.70420000","longitude":"-92.74111000"},{"id":"72709","name":"Patosil","state_id":3451,"state_code":"CHP","country_id":142,"country_code":"MX","latitude":"16.75210000","longitude":"-92.74133000"},{"id":"72712","name":"Patria Nueva (San Jos\u00e9 el Contento)","state_id":3451,"state_code":"CHP","country_id":142,"country_code":"MX","latitude":"16.92778000","longitude":"-92.11361000"},{"id":"72714","name":"Pavencul","state_id":3451,"state_code":"CHP","country_id":142,"country_code":"MX","latitude":"15.20249000","longitude":"-92.17993000"},{"id":"72736","name":"Perla de Acapulco","state_id":3451,"state_code":"CHP","country_id":142,"country_code":"MX","latitude":"16.79570000","longitude":"-91.47793000"},{"id":"72742","name":"Petalcingo","state_id":3451,"state_code":"CHP","country_id":142,"country_code":"MX","latitude":"17.22715000","longitude":"-92.41511000"},{"id":"72761","name":"Pichucalco","state_id":3451,"state_code":"CHP","country_id":142,"country_code":"MX","latitude":"17.51000000","longitude":"-93.11591000"},{"id":"72766","name":"Piedra Labrada","state_id":3451,"state_code":"CHP","country_id":142,"country_code":"MX","latitude":"15.68226000","longitude":"-92.30538000"},{"id":"72774","name":"Pijijiapan","state_id":3451,"state_code":"CHP","country_id":142,"country_code":"MX","latitude":"15.68618000","longitude":"-93.20938000"},{"id":"72795","name":"Plan de Agua Prieta","state_id":3451,"state_code":"CHP","country_id":142,"country_code":"MX","latitude":"16.13111000","longitude":"-92.79139000"},{"id":"72798","name":"Plan de Ayala","state_id":3451,"state_code":"CHP","country_id":142,"country_code":"MX","latitude":"16.47152000","longitude":"-92.02735000"},{"id":"72846","name":"Pomposo Castellanos","state_id":3451,"state_code":"CHP","country_id":142,"country_code":"MX","latitude":"16.59033000","longitude":"-93.86688000"},{"id":"72861","name":"Potrerillo","state_id":3451,"state_code":"CHP","country_id":142,"country_code":"MX","latitude":"15.63096000","longitude":"-92.02059000"},{"id":"72891","name":"Presidente Echeverr\u00eda (Laja Tendida)","state_id":3451,"state_code":"CHP","country_id":142,"country_code":"MX","latitude":"16.33583000","longitude":"-92.66861000"},{"id":"72895","name":"Primer Cant\u00f3n","state_id":3451,"state_code":"CHP","country_id":142,"country_code":"MX","latitude":"15.12056000","longitude":"-92.44000000"},{"id":"72907","name":"Profresor Roberto Barrios","state_id":3451,"state_code":"CHP","country_id":142,"country_code":"MX","latitude":"17.32583000","longitude":"-91.92639000"},{"id":"72927","name":"Puebla","state_id":3451,"state_code":"CHP","country_id":142,"country_code":"MX","latitude":"16.91583000","longitude":"-92.50389000"},{"id":"72938","name":"Pueblo Nuevo","state_id":3451,"state_code":"CHP","country_id":142,"country_code":"MX","latitude":"17.16027000","longitude":"-92.89977000"},{"id":"72971","name":"Puerto Madero","state_id":3451,"state_code":"CHP","country_id":142,"country_code":"MX","latitude":"14.72076000","longitude":"-92.42146000"},{"id":"72983","name":"Pugch\u00e9n Mumuntic","state_id":3451,"state_code":"CHP","country_id":142,"country_code":"MX","latitude":"16.86389000","longitude":"-92.82361000"},{"id":"72986","name":"Punta Arena","state_id":3451,"state_code":"CHP","country_id":142,"country_code":"MX","latitude":"17.74601000","longitude":"-92.05871000"},{"id":"73024","name":"Quer\u00e9taro","state_id":3451,"state_code":"CHP","country_id":142,"country_code":"MX","latitude":"15.83752000","longitude":"-92.75774000"},{"id":"73036","name":"Quintana Roo","state_id":3451,"state_code":"CHP","country_id":142,"country_code":"MX","latitude":"16.60667000","longitude":"-93.56194000"},{"id":"73046","name":"Rafael Pascacio Gamboa","state_id":3451,"state_code":"CHP","country_id":142,"country_code":"MX","latitude":"17.91818000","longitude":"-93.26833000"},{"id":"73047","name":"Rafael Ram\u00edrez","state_id":3451,"state_code":"CHP","country_id":142,"country_code":"MX","latitude":"16.46199000","longitude":"-91.94523000"},{"id":"73052","name":"Ram\u00f3n F. Balboa","state_id":3451,"state_code":"CHP","country_id":142,"country_code":"MX","latitude":"16.47427000","longitude":"-91.40318000"},{"id":"73082","name":"Raudales Malpaso","state_id":3451,"state_code":"CHP","country_id":142,"country_code":"MX","latitude":"17.18833000","longitude":"-93.60583000"},{"id":"73087","name":"Ray\u00f3n","state_id":3451,"state_code":"CHP","country_id":142,"country_code":"MX","latitude":"17.20137000","longitude":"-93.01110000"},{"id":"73084","name":"Raymundo Enr\u00edquez","state_id":3451,"state_code":"CHP","country_id":142,"country_code":"MX","latitude":"14.86722000","longitude":"-92.31466000"},{"id":"73168","name":"R\u00edo Blanco","state_id":3451,"state_code":"CHP","country_id":142,"country_code":"MX","latitude":"16.20501000","longitude":"-91.63429000"},{"id":"73171","name":"R\u00edo Chancal\u00e1","state_id":3451,"state_code":"CHP","country_id":142,"country_code":"MX","latitude":"17.33454000","longitude":"-91.68430000"},{"id":"73178","name":"R\u00edo Jord\u00e1n","state_id":3451,"state_code":"CHP","country_id":142,"country_code":"MX","latitude":"17.24611000","longitude":"-91.93306000"},{"id":"73094","name":"Reforma","state_id":3451,"state_code":"CHP","country_id":142,"country_code":"MX","latitude":"17.86876000","longitude":"-93.22673000"},{"id":"73096","name":"Reforma y Planada","state_id":3451,"state_code":"CHP","country_id":142,"country_code":"MX","latitude":"17.38694000","longitude":"-92.86583000"},{"id":"73100","name":"Revoluci\u00f3n Mexicana","state_id":3451,"state_code":"CHP","country_id":142,"country_code":"MX","latitude":"16.17156000","longitude":"-93.07666000"},{"id":"73106","name":"Ricardo Flores Mag\u00f3n","state_id":3451,"state_code":"CHP","country_id":142,"country_code":"MX","latitude":"16.39397000","longitude":"-92.69618000"},{"id":"73118","name":"Rinc\u00f3n Chamula","state_id":3451,"state_code":"CHP","country_id":142,"country_code":"MX","latitude":"17.20718000","longitude":"-92.93912000"},{"id":"73143","name":"Rizo de Oro","state_id":3451,"state_code":"CHP","country_id":142,"country_code":"MX","latitude":"15.97088000","longitude":"-92.48316000"},{"id":"73145","name":"Roblada Grande","state_id":3451,"state_code":"CHP","country_id":142,"country_code":"MX","latitude":"16.48909000","longitude":"-93.19499000"},{"id":"73151","name":"Rodulfo Figueroa","state_id":3451,"state_code":"CHP","country_id":142,"country_code":"MX","latitude":"15.92006000","longitude":"-91.90370000"},{"id":"73153","name":"Romerillo","state_id":3451,"state_code":"CHP","country_id":142,"country_code":"MX","latitude":"16.76528000","longitude":"-92.56750000"},{"id":"73192","name":"Sabanilla","state_id":3451,"state_code":"CHP","country_id":142,"country_code":"MX","latitude":"17.30308000","longitude":"-92.58368000"},{"id":"73195","name":"Sabinalito","state_id":3451,"state_code":"CHP","country_id":142,"country_code":"MX","latitude":"15.70186000","longitude":"-91.98636000"},{"id":"73198","name":"Saclamant\u00f3n","state_id":3451,"state_code":"CHP","country_id":142,"country_code":"MX","latitude":"16.78833000","longitude":"-92.63500000"},{"id":"73225","name":"Saltillo","state_id":3451,"state_code":"CHP","country_id":142,"country_code":"MX","latitude":"16.39359000","longitude":"-91.94890000"},{"id":"73227","name":"Salto de Agua","state_id":3451,"state_code":"CHP","country_id":142,"country_code":"MX","latitude":"17.55435000","longitude":"-92.33941000"},{"id":"73230","name":"Salvador Urbina","state_id":3451,"state_code":"CHP","country_id":142,"country_code":"MX","latitude":"15.03535000","longitude":"-92.20805000"},{"id":"73278","name":"San Andr\u00e9s Duraznal","state_id":3451,"state_code":"CHP","country_id":142,"country_code":"MX","latitude":"17.15653000","longitude":"-92.79606000"},{"id":"73325","name":"San Antonio Buenavista","state_id":3451,"state_code":"CHP","country_id":142,"country_code":"MX","latitude":"16.15234000","longitude":"-91.65020000"},{"id":"73326","name":"San Antonio Bulujib","state_id":3451,"state_code":"CHP","country_id":142,"country_code":"MX","latitude":"16.99667000","longitude":"-92.29667000"},{"id":"73380","name":"San Antonio del Monte","state_id":3451,"state_code":"CHP","country_id":142,"country_code":"MX","latitude":"16.76028000","longitude":"-92.65306000"},{"id":"73455","name":"San Caralampio","state_id":3451,"state_code":"CHP","country_id":142,"country_code":"MX","latitude":"15.82935000","longitude":"-92.03555000"},{"id":"73466","name":"San Cayetano","state_id":3451,"state_code":"CHP","country_id":142,"country_code":"MX","latitude":"16.96119000","longitude":"-92.76016000"},{"id":"73483","name":"San Crist\u00f3bal de las Casas","state_id":3451,"state_code":"CHP","country_id":142,"country_code":"MX","latitude":"16.73176000","longitude":"-92.64126000"},{"id":"73526","name":"San Felipe Tizapa","state_id":3451,"state_code":"CHP","country_id":142,"country_code":"MX","latitude":"15.27616000","longitude":"-92.61300000"},{"id":"73535","name":"San Fernando","state_id":3451,"state_code":"CHP","country_id":142,"country_code":"MX","latitude":"16.87153000","longitude":"-93.20759000"},{"id":"73547","name":"San Francisco (El Calvito)","state_id":3451,"state_code":"CHP","country_id":142,"country_code":"MX","latitude":"16.32167000","longitude":"-92.56194000"},{"id":"73569","name":"San Francisco Jacon\u00e1","state_id":3451,"state_code":"CHP","country_id":142,"country_code":"MX","latitude":"17.26278000","longitude":"-93.03250000"},{"id":"73588","name":"San Francisco Pujiltic","state_id":3451,"state_code":"CHP","country_id":142,"country_code":"MX","latitude":"16.27922000","longitude":"-92.45319000"},{"id":"73665","name":"San Isidro","state_id":3451,"state_code":"CHP","country_id":142,"country_code":"MX","latitude":"15.74373000","longitude":"-93.35276000"},{"id":"73691","name":"San Isidro las Banderas","state_id":3451,"state_code":"CHP","country_id":142,"country_code":"MX","latitude":"17.23028000","longitude":"-93.06028000"},{"id":"73720","name":"San Jer\u00f3nimo Tulij\u00e1","state_id":3451,"state_code":"CHP","country_id":142,"country_code":"MX","latitude":"17.22361000","longitude":"-91.78972000"},{"id":"73756","name":"San Jos\u00e9 Chapayal","state_id":3451,"state_code":"CHP","country_id":142,"country_code":"MX","latitude":"17.30056000","longitude":"-92.89028000"},{"id":"73855","name":"San Jos\u00e9 las Chicharras","state_id":3451,"state_code":"CHP","country_id":142,"country_code":"MX","latitude":"15.64363000","longitude":"-92.20659000"},{"id":"73803","name":"San Jos\u00e9 Yashitin\u00edn","state_id":3451,"state_code":"CHP","country_id":142,"country_code":"MX","latitude":"16.65472000","longitude":"-92.44500000"},{"id":"73804","name":"San Jos\u00e9 Yocnajab","state_id":3451,"state_code":"CHP","country_id":142,"country_code":"MX","latitude":"16.25383000","longitude":"-92.08698000"},{"id":"74021","name":"San Lucas","state_id":3451,"state_code":"CHP","country_id":142,"country_code":"MX","latitude":"16.61167000","longitude":"-92.71806000"},{"id":"74061","name":"San Luque\u00f1o","state_id":3451,"state_code":"CHP","country_id":142,"country_code":"MX","latitude":"16.01278000","longitude":"-93.84583000"},{"id":"74150","name":"San Miguel","state_id":3451,"state_code":"CHP","country_id":142,"country_code":"MX","latitude":"17.36324000","longitude":"-92.00762000"},{"id":"74242","name":"San Miguel la Sardina","state_id":3451,"state_code":"CHP","country_id":142,"country_code":"MX","latitude":"17.29417000","longitude":"-93.35250000"},{"id":"74290","name":"San Pablo Huacano","state_id":3451,"state_code":"CHP","country_id":142,"country_code":"MX","latitude":"17.19583000","longitude":"-93.20750000"},{"id":"74321","name":"San Pedro Buenavista","state_id":3451,"state_code":"CHP","country_id":142,"country_code":"MX","latitude":"16.08333000","longitude":"-93.11667000"},{"id":"74362","name":"San Pedro Nichtalucum","state_id":3451,"state_code":"CHP","country_id":142,"country_code":"MX","latitude":"17.03444000","longitude":"-92.72694000"},{"id":"74420","name":"San Quint\u00edn","state_id":3451,"state_code":"CHP","country_id":142,"country_code":"MX","latitude":"16.40672000","longitude":"-91.34575000"},{"id":"74510","name":"San Vicente la Mesilla","state_id":3451,"state_code":"CHP","country_id":142,"country_code":"MX","latitude":"16.17861000","longitude":"-92.29333000"},{"id":"74653","name":"Santa Elena","state_id":3451,"state_code":"CHP","country_id":142,"country_code":"MX","latitude":"16.89267000","longitude":"-91.58987000"},{"id":"74704","name":"Santa Mar\u00eda","state_id":3451,"state_code":"CHP","country_id":142,"country_code":"MX","latitude":"17.35230000","longitude":"-92.07679000"},{"id":"74829","name":"Santa Rita","state_id":3451,"state_code":"CHP","country_id":142,"country_code":"MX","latitude":"16.13167000","longitude":"-91.97500000"},{"id":"74989","name":"Santiago el Pinar","state_id":3451,"state_code":"CHP","country_id":142,"country_code":"MX","latitude":"16.94838000","longitude":"-92.72074000"},{"id":"74936","name":"Santiago Pojcol","state_id":3451,"state_code":"CHP","country_id":142,"country_code":"MX","latitude":"16.99148000","longitude":"-91.98071000"},{"id":"74993","name":"Santo Domingo","state_id":3451,"state_code":"CHP","country_id":142,"country_code":"MX","latitude":"15.03067000","longitude":"-92.10361000"},{"id":"75019","name":"Santo Domingo de las Palmas","state_id":3451,"state_code":"CHP","country_id":142,"country_code":"MX","latitude":"16.13667000","longitude":"-91.32194000"},{"id":"75068","name":"Se\u00f1or del Pozo","state_id":3451,"state_code":"CHP","country_id":142,"country_code":"MX","latitude":"16.29625000","longitude":"-92.11165000"},{"id":"75069","name":"Shoctic","state_id":3451,"state_code":"CHP","country_id":142,"country_code":"MX","latitude":"17.22361000","longitude":"-92.48806000"},{"id":"75070","name":"Sibac\u00e1","state_id":3451,"state_code":"CHP","country_id":142,"country_code":"MX","latitude":"16.93093000","longitude":"-92.14006000"},{"id":"75071","name":"Sibanilj\u00e1 Pocolum","state_id":3451,"state_code":"CHP","country_id":142,"country_code":"MX","latitude":"16.87639000","longitude":"-92.46111000"},{"id":"75081","name":"Siltepec","state_id":3451,"state_code":"CHP","country_id":142,"country_code":"MX","latitude":"15.55717000","longitude":"-92.32314000"},{"id":"75084","name":"Simojovel","state_id":3451,"state_code":"CHP","country_id":142,"country_code":"MX","latitude":"17.14736000","longitude":"-92.67154000"},{"id":"75085","name":"Simojovel de Allende","state_id":3451,"state_code":"CHP","country_id":142,"country_code":"MX","latitude":"17.14036000","longitude":"-92.71394000"},{"id":"75089","name":"Sinaloa","state_id":3451,"state_code":"CHP","country_id":142,"country_code":"MX","latitude":"15.89261000","longitude":"-92.12896000"},{"id":"75099","name":"Sital\u00e1","state_id":3451,"state_code":"CHP","country_id":142,"country_code":"MX","latitude":"17.02417000","longitude":"-92.30694000"},{"id":"75107","name":"Socoltenango","state_id":3451,"state_code":"CHP","country_id":142,"country_code":"MX","latitude":"16.17412000","longitude":"-92.36658000"},{"id":"75109","name":"Soconusco","state_id":3451,"state_code":"CHP","country_id":142,"country_code":"MX","latitude":"15.31502000","longitude":"-92.72645000"},{"id":"75119","name":"Solosuchiapa","state_id":3451,"state_code":"CHP","country_id":142,"country_code":"MX","latitude":"17.39364000","longitude":"-93.01301000"},{"id":"75129","name":"Soyal\u00f3","state_id":3451,"state_code":"CHP","country_id":142,"country_code":"MX","latitude":"16.91352000","longitude":"-92.96579000"},{"id":"75133","name":"Soyatit\u00e1n","state_id":3451,"state_code":"CHP","country_id":142,"country_code":"MX","latitude":"16.29427000","longitude":"-92.42402000"},{"id":"75138","name":"Suchiapa","state_id":3451,"state_code":"CHP","country_id":142,"country_code":"MX","latitude":"16.60775000","longitude":"-93.10003000"},{"id":"75139","name":"Suchiate","state_id":3451,"state_code":"CHP","country_id":142,"country_code":"MX","latitude":"14.64138000","longitude":"-92.22252000"},{"id":"75161","name":"Tacuba Nueva","state_id":3451,"state_code":"CHP","country_id":142,"country_code":"MX","latitude":"17.09028000","longitude":"-92.37028000"},{"id":"75172","name":"Talism\u00e1n","state_id":3451,"state_code":"CHP","country_id":142,"country_code":"MX","latitude":"14.96333000","longitude":"-92.14722000"},{"id":"75176","name":"Tamaulipas","state_id":3451,"state_code":"CHP","country_id":142,"country_code":"MX","latitude":"15.77189000","longitude":"-93.40718000"},{"id":"75214","name":"Taniperla","state_id":3451,"state_code":"CHP","country_id":142,"country_code":"MX","latitude":"16.82222000","longitude":"-91.52333000"},{"id":"75221","name":"Tapachula","state_id":3451,"state_code":"CHP","country_id":142,"country_code":"MX","latitude":"14.90385000","longitude":"-92.25749000"},{"id":"75222","name":"Tapalapa","state_id":3451,"state_code":"CHP","country_id":142,"country_code":"MX","latitude":"17.22618000","longitude":"-93.11552000"},{"id":"75227","name":"Tapilula","state_id":3451,"state_code":"CHP","country_id":142,"country_code":"MX","latitude":"17.25355000","longitude":"-93.00933000"},{"id":"75288","name":"Tecpat\u00e1n","state_id":3451,"state_code":"CHP","country_id":142,"country_code":"MX","latitude":"17.13676000","longitude":"-93.31133000"},{"id":"75352","name":"Tenango","state_id":3451,"state_code":"CHP","country_id":142,"country_code":"MX","latitude":"16.96667000","longitude":"-92.41667000"},{"id":"75371","name":"Tentic","state_id":3451,"state_code":"CHP","country_id":142,"country_code":"MX","latitude":"16.86333000","longitude":"-92.68222000"},{"id":"75381","name":"Teopisca","state_id":3451,"state_code":"CHP","country_id":142,"country_code":"MX","latitude":"16.54182000","longitude":"-92.47405000"},{"id":"75506","name":"Texcaltic","state_id":3451,"state_code":"CHP","country_id":142,"country_code":"MX","latitude":"14.79550000","longitude":"-92.18737000"},{"id":"75556","name":"Tierra y Libertad","state_id":3451,"state_code":"CHP","country_id":142,"country_code":"MX","latitude":"16.37889000","longitude":"-93.86056000"},{"id":"75565","name":"Tila","state_id":3451,"state_code":"CHP","country_id":142,"country_code":"MX","latitude":"17.30054000","longitude":"-92.42730000"},{"id":"75569","name":"Tiltepec","state_id":3451,"state_code":"CHP","country_id":142,"country_code":"MX","latitude":"16.39389000","longitude":"-93.86972000"},{"id":"75574","name":"Tinajas 1ra. Secci\u00f3n","state_id":3451,"state_code":"CHP","country_id":142,"country_code":"MX","latitude":"14.71750000","longitude":"-92.32861000"},{"id":"75715","name":"Tocob Leglemal","state_id":3451,"state_code":"CHP","country_id":142,"country_code":"MX","latitude":"17.23389000","longitude":"-92.37833000"},{"id":"75738","name":"Tonal\u00e1","state_id":3451,"state_code":"CHP","country_id":142,"country_code":"MX","latitude":"16.08977000","longitude":"-93.75489000"},{"id":"75750","name":"Totolapa","state_id":3451,"state_code":"CHP","country_id":142,"country_code":"MX","latitude":"16.54357000","longitude":"-92.68019000"},{"id":"75771","name":"Tres Cerros","state_id":3451,"state_code":"CHP","country_id":142,"country_code":"MX","latitude":"16.91556000","longitude":"-92.47278000"},{"id":"75777","name":"Tres Picos","state_id":3451,"state_code":"CHP","country_id":142,"country_code":"MX","latitude":"15.88209000","longitude":"-93.52867000"},{"id":"75805","name":"Tumbala","state_id":3451,"state_code":"CHP","country_id":142,"country_code":"MX","latitude":"17.27746000","longitude":"-92.31700000"},{"id":"75825","name":"Tuxtla","state_id":3451,"state_code":"CHP","country_id":142,"country_code":"MX","latitude":"16.75973000","longitude":"-93.11308000"},{"id":"75827","name":"Tuxtla Chico","state_id":3451,"state_code":"CHP","country_id":142,"country_code":"MX","latitude":"14.93945000","longitude":"-92.16730000"},{"id":"75831","name":"Tuzant\u00e1n","state_id":3451,"state_code":"CHP","country_id":142,"country_code":"MX","latitude":"15.14711000","longitude":"-92.42237000"},{"id":"75833","name":"Tz'Aquiviljok","state_id":3451,"state_code":"CHP","country_id":142,"country_code":"MX","latitude":"16.85528000","longitude":"-92.45972000"},{"id":"75835","name":"Tzajal\u00e1","state_id":3451,"state_code":"CHP","country_id":142,"country_code":"MX","latitude":"17.13559000","longitude":"-92.39328000"},{"id":"75834","name":"Tzajalch\u00e9n","state_id":3451,"state_code":"CHP","country_id":142,"country_code":"MX","latitude":"16.84165000","longitude":"-92.46014000"},{"id":"75836","name":"Tzeltal","state_id":3451,"state_code":"CHP","country_id":142,"country_code":"MX","latitude":"16.93944000","longitude":"-92.47778000"},{"id":"75840","name":"Tzimol","state_id":3451,"state_code":"CHP","country_id":142,"country_code":"MX","latitude":"16.18356000","longitude":"-92.18934000"},{"id":"75842","name":"Tzinil","state_id":3451,"state_code":"CHP","country_id":142,"country_code":"MX","latitude":"16.25778000","longitude":"-92.32222000"},{"id":"75848","name":"Tziscao","state_id":3451,"state_code":"CHP","country_id":142,"country_code":"MX","latitude":"16.08155000","longitude":"-91.66641000"},{"id":"75850","name":"Tzoeptic","state_id":3451,"state_code":"CHP","country_id":142,"country_code":"MX","latitude":"16.88278000","longitude":"-92.56806000"},{"id":"75852","name":"Tzontehuitz","state_id":3451,"state_code":"CHP","country_id":142,"country_code":"MX","latitude":"16.83314000","longitude":"-92.57965000"},{"id":"75853","name":"Tzopilja","state_id":3451,"state_code":"CHP","country_id":142,"country_code":"MX","latitude":"16.73972000","longitude":"-92.30917000"},{"id":"75860","name":"Ubilio Garc\u00eda","state_id":3451,"state_code":"CHP","country_id":142,"country_code":"MX","latitude":"17.08405000","longitude":"-91.47241000"},{"id":"75881","name":"Uni\u00f3n Buena Vista","state_id":3451,"state_code":"CHP","country_id":142,"country_code":"MX","latitude":"16.48582000","longitude":"-92.81823000"},{"id":"75882","name":"Uni\u00f3n Buenavista","state_id":3451,"state_code":"CHP","country_id":142,"country_code":"MX","latitude":"15.79527000","longitude":"-92.54417000"},{"id":"75885","name":"Uni\u00f3n Ju\u00e1rez","state_id":3451,"state_code":"CHP","country_id":142,"country_code":"MX","latitude":"17.28083000","longitude":"-92.39972000"},{"id":"75886","name":"Uni\u00f3n Roja","state_id":3451,"state_code":"CHP","country_id":142,"country_code":"MX","latitude":"15.04658000","longitude":"-92.21653000"},{"id":"75901","name":"Usipa","state_id":3451,"state_code":"CHP","country_id":142,"country_code":"MX","latitude":"17.50028000","longitude":"-92.43806000"},{"id":"75940","name":"Vega del Rosario","state_id":3451,"state_code":"CHP","country_id":142,"country_code":"MX","latitude":"15.52083000","longitude":"-92.30720000"},{"id":"75943","name":"Veinte de Noviembre","state_id":3451,"state_code":"CHP","country_id":142,"country_code":"MX","latitude":"14.97730000","longitude":"-92.26509000"},{"id":"75963","name":"Venustiano Carranza","state_id":3451,"state_code":"CHP","country_id":142,"country_code":"MX","latitude":"16.32314000","longitude":"-92.55844000"},{"id":"75966","name":"Veracruz","state_id":3451,"state_code":"CHP","country_id":142,"country_code":"MX","latitude":"16.40417000","longitude":"-91.99944000"},{"id":"75967","name":"Verapaz","state_id":3451,"state_code":"CHP","country_id":142,"country_code":"MX","latitude":"15.71166000","longitude":"-92.06199000"},{"id":"75973","name":"Vicente Guerrero","state_id":3451,"state_code":"CHP","country_id":142,"country_code":"MX","latitude":"16.66028000","longitude":"-93.58306000"},{"id":"75986","name":"Vida Mejor I","state_id":3451,"state_code":"CHP","country_id":142,"country_code":"MX","latitude":"14.86972000","longitude":"-92.30778000"},{"id":"75995","name":"Villa Comaltitl\u00e1n","state_id":3451,"state_code":"CHP","country_id":142,"country_code":"MX","latitude":"15.18645000","longitude":"-92.59053000"},{"id":"75996","name":"Villa Corzo","state_id":3451,"state_code":"CHP","country_id":142,"country_code":"MX","latitude":"16.18510000","longitude":"-93.26881000"},{"id":"76010","name":"Villa Hidalgo","state_id":3451,"state_code":"CHP","country_id":142,"country_code":"MX","latitude":"16.30457000","longitude":"-93.15466000"},{"id":"76077","name":"Villaflores","state_id":3451,"state_code":"CHP","country_id":142,"country_code":"MX","latitude":"16.34149000","longitude":"-93.33191000"},{"id":"76081","name":"Villahermosa Yaluma","state_id":3451,"state_code":"CHP","country_id":142,"country_code":"MX","latitude":"16.33366000","longitude":"-92.07771000"},{"id":"76084","name":"Villamorelos","state_id":3451,"state_code":"CHP","country_id":142,"country_code":"MX","latitude":"16.48000000","longitude":"-93.92778000"},{"id":"76100","name":"Viva C\u00e1rdenas","state_id":3451,"state_code":"CHP","country_id":142,"country_code":"MX","latitude":"16.83570000","longitude":"-93.19333000"},{"id":"76101","name":"Viva M\u00e9xico","state_id":3451,"state_code":"CHP","country_id":142,"country_code":"MX","latitude":"14.91008000","longitude":"-92.32609000"},{"id":"76163","name":"Xochiltepec","state_id":3451,"state_code":"CHP","country_id":142,"country_code":"MX","latitude":"15.12780000","longitude":"-92.43388000"},{"id":"76211","name":"Yajal\u00f3n","state_id":3451,"state_code":"CHP","country_id":142,"country_code":"MX","latitude":"17.18519000","longitude":"-92.32715000"},{"id":"76214","name":"Yaltem","state_id":3451,"state_code":"CHP","country_id":142,"country_code":"MX","latitude":"16.84402000","longitude":"-92.79057000"},{"id":"76217","name":"Yasha","state_id":3451,"state_code":"CHP","country_id":142,"country_code":"MX","latitude":"16.39141000","longitude":"-92.06878000"},{"id":"76218","name":"Yashanal","state_id":3451,"state_code":"CHP","country_id":142,"country_code":"MX","latitude":"16.82889000","longitude":"-92.45194000"},{"id":"76238","name":"Yibeljoj","state_id":3451,"state_code":"CHP","country_id":142,"country_code":"MX","latitude":"16.95750000","longitude":"-92.50361000"},{"id":"76244","name":"Yoshib","state_id":3451,"state_code":"CHP","country_id":142,"country_code":"MX","latitude":"16.84528000","longitude":"-92.44611000"},{"id":"76278","name":"Zacatonal de Ju\u00e1rez","state_id":3451,"state_code":"CHP","country_id":142,"country_code":"MX","latitude":"17.27097000","longitude":"-92.79936000"},{"id":"76282","name":"Zacualpa","state_id":3451,"state_code":"CHP","country_id":142,"country_code":"MX","latitude":"15.16820000","longitude":"-92.62705000"},{"id":"76295","name":"Zamora Pico de Oro","state_id":3451,"state_code":"CHP","country_id":142,"country_code":"MX","latitude":"16.33205000","longitude":"-90.76560000"},{"id":"76317","name":"Zaragoza","state_id":3451,"state_code":"CHP","country_id":142,"country_code":"MX","latitude":"17.00906000","longitude":"-91.64033000"},{"id":"76323","name":"Zaragoza la Monta\u00f1a","state_id":3451,"state_code":"CHP","country_id":142,"country_code":"MX","latitude":"16.41653000","longitude":"-92.20512000"},{"id":"76331","name":"Zequentic","state_id":3451,"state_code":"CHP","country_id":142,"country_code":"MX","latitude":"16.71694000","longitude":"-92.82667000"},{"id":"76340","name":"Zinacant\u00e1n","state_id":3451,"state_code":"CHP","country_id":142,"country_code":"MX","latitude":"16.76020000","longitude":"-92.72257000"}]