[{"id":"68123","name":"Agualeguas","state_id":3452,"state_code":"NLE","country_id":142,"country_code":"MX","latitude":"26.31362000","longitude":"-99.53728000"},{"id":"68203","name":"Alianza Real","state_id":3452,"state_code":"NLE","country_id":142,"country_code":"MX","latitude":"25.85139000","longitude":"-100.38278000"},{"id":"68285","name":"An\u00e1huac","state_id":3452,"state_code":"NLE","country_id":142,"country_code":"MX","latitude":"27.24457000","longitude":"-100.13229000"},{"id":"68328","name":"Aramberri","state_id":3452,"state_code":"NLE","country_id":142,"country_code":"MX","latitude":"24.09984000","longitude":"-99.81729000"},{"id":"68375","name":"Artemio Trevi\u00f1o","state_id":3452,"state_code":"NLE","country_id":142,"country_code":"MX","latitude":"25.83528000","longitude":"-100.14278000"},{"id":"68644","name":"Bosques de San Pedro","state_id":3452,"state_code":"NLE","country_id":142,"country_code":"MX","latitude":"25.60139000","longitude":"-100.17972000"},{"id":"68661","name":"Buena Vista","state_id":3452,"state_code":"NLE","country_id":142,"country_code":"MX","latitude":"25.85222000","longitude":"-100.36000000"},{"id":"68694","name":"Bustamante","state_id":3452,"state_code":"NLE","country_id":142,"country_code":"MX","latitude":"26.55567000","longitude":"-100.50603000"},{"id":"68717","name":"Cadereyta","state_id":3452,"state_code":"NLE","country_id":142,"country_code":"MX","latitude":"25.58333000","longitude":"-99.98333000"},{"id":"68718","name":"Cadereyta Jim\u00e9nez","state_id":3452,"state_code":"NLE","country_id":142,"country_code":"MX","latitude":"25.58896000","longitude":"-100.00156000"},{"id":"68826","name":"Carmen","state_id":3452,"state_code":"NLE","country_id":142,"country_code":"MX","latitude":"25.93650000","longitude":"-100.36396000"},{"id":"68861","name":"Catarino Rodr\u00edguez","state_id":3452,"state_code":"NLE","country_id":142,"country_code":"MX","latitude":"24.84542000","longitude":"-100.32046000"},{"id":"68908","name":"Cerralvo","state_id":3452,"state_code":"NLE","country_id":142,"country_code":"MX","latitude":"26.09766000","longitude":"-99.65340000"},{"id":"69080","name":"China","state_id":3452,"state_code":"NLE","country_id":142,"country_code":"MX","latitude":"25.69997000","longitude":"-99.23454000"},{"id":"69198","name":"Ci\u00e9nega de Flores","state_id":3452,"state_code":"NLE","country_id":142,"country_code":"MX","latitude":"25.95467000","longitude":"-100.16695000"},{"id":"69144","name":"Ciudad Apodaca","state_id":3452,"state_code":"NLE","country_id":142,"country_code":"MX","latitude":"25.78195000","longitude":"-100.18839000"},{"id":"69146","name":"Ciudad Benito Ju\u00e1rez","state_id":3452,"state_code":"NLE","country_id":142,"country_code":"MX","latitude":"25.64724000","longitude":"-100.09582000"},{"id":"69148","name":"Ciudad Cerralvo","state_id":3452,"state_code":"NLE","country_id":142,"country_code":"MX","latitude":"26.08499000","longitude":"-99.61508000"},{"id":"69185","name":"Ciudad de Allende","state_id":3452,"state_code":"NLE","country_id":142,"country_code":"MX","latitude":"25.27673000","longitude":"-100.01442000"},{"id":"69194","name":"Ciudad de Villaldama","state_id":3452,"state_code":"NLE","country_id":142,"country_code":"MX","latitude":"26.49952000","longitude":"-100.42508000"},{"id":"69156","name":"Ciudad General Escobedo","state_id":3452,"state_code":"NLE","country_id":142,"country_code":"MX","latitude":"25.79698000","longitude":"-100.31791000"},{"id":"69157","name":"Ciudad General Ter\u00e1n","state_id":3452,"state_code":"NLE","country_id":142,"country_code":"MX","latitude":"25.25857000","longitude":"-99.68371000"},{"id":"69177","name":"Ciudad Sabinas Hidalgo","state_id":3452,"state_code":"NLE","country_id":142,"country_code":"MX","latitude":"26.50358000","longitude":"-100.18187000"},{"id":"69180","name":"Ciudad Sat\u00e9lite del Norte","state_id":3452,"state_code":"NLE","country_id":142,"country_code":"MX","latitude":"25.91448000","longitude":"-100.26542000"},{"id":"69259","name":"Colinas del Aeropuerto","state_id":3452,"state_code":"NLE","country_id":142,"country_code":"MX","latitude":"25.81705000","longitude":"-100.10258000"},{"id":"69450","name":"Congregaci\u00f3n Calles","state_id":3452,"state_code":"NLE","country_id":142,"country_code":"MX","latitude":"25.22528000","longitude":"-99.93472000"},{"id":"69692","name":"Doctor Arroyo","state_id":3452,"state_code":"NLE","country_id":142,"country_code":"MX","latitude":"23.67211000","longitude":"-100.18134000"},{"id":"69694","name":"Doctor Coss","state_id":3452,"state_code":"NLE","country_id":142,"country_code":"MX","latitude":"25.92492000","longitude":"-99.18316000"},{"id":"69696","name":"Doctor Gonz\u00e1lez","state_id":3452,"state_code":"NLE","country_id":142,"country_code":"MX","latitude":"25.85983000","longitude":"-99.94409000"},{"id":"70288","name":"Emiliano Zapata","state_id":3452,"state_code":"NLE","country_id":142,"country_code":"MX","latitude":"25.91028000","longitude":"-100.28056000"},{"id":"70308","name":"Entronque Laredo-Salinas Victoria","state_id":3452,"state_code":"NLE","country_id":142,"country_code":"MX","latitude":"25.85500000","longitude":"-100.24722000"},{"id":"70417","name":"Fraccionamiento Cosm\u00f3polis Octavo Sector","state_id":3452,"state_code":"NLE","country_id":142,"country_code":"MX","latitude":"25.82528000","longitude":"-100.24611000"},{"id":"70427","name":"Fraccionamiento Misi\u00f3n de San Javier","state_id":3452,"state_code":"NLE","country_id":142,"country_code":"MX","latitude":"25.74556000","longitude":"-100.15194000"},{"id":"70435","name":"Fraccionamiento Real Palmas","state_id":3452,"state_code":"NLE","country_id":142,"country_code":"MX","latitude":"25.90417000","longitude":"-100.15972000"},{"id":"70509","name":"Galeana","state_id":3452,"state_code":"NLE","country_id":142,"country_code":"MX","latitude":"24.82455000","longitude":"-100.07601000"},{"id":"70520","name":"Garc\u00eda","state_id":3452,"state_code":"NLE","country_id":142,"country_code":"MX","latitude":"25.81201000","longitude":"-100.59874000"},{"id":"70526","name":"General Bravo","state_id":3452,"state_code":"NLE","country_id":142,"country_code":"MX","latitude":"25.79239000","longitude":"-99.18147000"},{"id":"70546","name":"General Zuazua","state_id":3452,"state_code":"NLE","country_id":142,"country_code":"MX","latitude":"25.89491000","longitude":"-100.10800000"},{"id":"70573","name":"Guadalupe","state_id":3452,"state_code":"NLE","country_id":142,"country_code":"MX","latitude":"25.67678000","longitude":"-100.25646000"},{"id":"70653","name":"Hacienda San Pedro","state_id":3452,"state_code":"NLE","country_id":142,"country_code":"MX","latitude":"25.91472000","longitude":"-100.16278000"},{"id":"70827","name":"H\u00e9ctor Caballero","state_id":3452,"state_code":"NLE","country_id":142,"country_code":"MX","latitude":"25.63556000","longitude":"-100.12667000"},{"id":"70724","name":"Hualahuises","state_id":3452,"state_code":"NLE","country_id":142,"country_code":"MX","latitude":"24.88295000","longitude":"-99.67490000"},{"id":"70893","name":"Iturbide","state_id":3452,"state_code":"NLE","country_id":142,"country_code":"MX","latitude":"24.72596000","longitude":"-99.90406000"},{"id":"71005","name":"Jardines de la Silla (Jardines)","state_id":3452,"state_code":"NLE","country_id":142,"country_code":"MX","latitude":"25.62944000","longitude":"-100.18778000"},{"id":"71176","name":"La Ascensi\u00f3n","state_id":3452,"state_code":"NLE","country_id":142,"country_code":"MX","latitude":"24.32392000","longitude":"-99.91410000"},{"id":"71542","name":"Ladrillera (Entronque Pesquer\u00eda)","state_id":3452,"state_code":"NLE","country_id":142,"country_code":"MX","latitude":"25.80306000","longitude":"-100.10111000"},{"id":"71567","name":"Lampazos de Naranjo","state_id":3452,"state_code":"NLE","country_id":142,"country_code":"MX","latitude":"27.02549000","longitude":"-100.50528000"},{"id":"71643","name":"Las Torres","state_id":3452,"state_code":"NLE","country_id":142,"country_code":"MX","latitude":"25.95167000","longitude":"-100.31806000"},{"id":"71644","name":"Las Torres de Guadalupe","state_id":3452,"state_code":"NLE","country_id":142,"country_code":"MX","latitude":"25.80611000","longitude":"-100.62250000"},{"id":"71679","name":"Linares","state_id":3452,"state_code":"NLE","country_id":142,"country_code":"MX","latitude":"24.85798000","longitude":"-99.56768000"},{"id":"71740","name":"Loma la Paz","state_id":3452,"state_code":"NLE","country_id":142,"country_code":"MX","latitude":"25.71111000","longitude":"-100.13472000"},{"id":"71750","name":"Lomas de San Mart\u00edn","state_id":3452,"state_code":"NLE","country_id":142,"country_code":"MX","latitude":"25.74722000","longitude":"-100.11972000"},{"id":"71828","name":"Los Parques","state_id":3452,"state_code":"NLE","country_id":142,"country_code":"MX","latitude":"25.79073000","longitude":"-100.46992000"},{"id":"71839","name":"Los Ramones","state_id":3452,"state_code":"NLE","country_id":142,"country_code":"MX","latitude":"25.69716000","longitude":"-99.62529000"},{"id":"72007","name":"Mar\u00edn","state_id":3452,"state_code":"NLE","country_id":142,"country_code":"MX","latitude":"25.87946000","longitude":"-100.03028000"},{"id":"72045","name":"Mazatlan","state_id":3452,"state_code":"NLE","country_id":142,"country_code":"MX","latitude":"25.18909000","longitude":"-99.82865000"},{"id":"72141","name":"Mina","state_id":3452,"state_code":"NLE","country_id":142,"country_code":"MX","latitude":"26.00110000","longitude":"-100.52988000"},{"id":"72159","name":"Misi\u00f3n San Pablo","state_id":3452,"state_code":"NLE","country_id":142,"country_code":"MX","latitude":"25.74000000","longitude":"-100.14417000"},{"id":"72162","name":"Mitras Poniente","state_id":3452,"state_code":"NLE","country_id":142,"country_code":"MX","latitude":"25.77583000","longitude":"-100.42583000"},{"id":"72192","name":"Monclova Primer Sector","state_id":3452,"state_code":"NLE","country_id":142,"country_code":"MX","latitude":"25.81472000","longitude":"-100.40306000"},{"id":"72193","name":"Monclova Segundo Sector","state_id":3452,"state_code":"NLE","country_id":142,"country_code":"MX","latitude":"25.81531000","longitude":"-100.39682000"},{"id":"72202","name":"Monte Kristal","state_id":3452,"state_code":"NLE","country_id":142,"country_code":"MX","latitude":"25.62611000","longitude":"-100.15694000"},{"id":"72215","name":"Montemorelos","state_id":3452,"state_code":"NLE","country_id":142,"country_code":"MX","latitude":"25.16697000","longitude":"-99.84430000"},{"id":"72219","name":"Monterrey","state_id":3452,"state_code":"NLE","country_id":142,"country_code":"MX","latitude":"25.67507000","longitude":"-100.31847000"},{"id":"72664","name":"Par\u00e1s","state_id":3452,"state_code":"NLE","country_id":142,"country_code":"MX","latitude":"26.50013000","longitude":"-99.52156000"},{"id":"72657","name":"Parque Industrial Ciudad Mitras","state_id":3452,"state_code":"NLE","country_id":142,"country_code":"MX","latitude":"25.78861000","longitude":"-100.44778000"},{"id":"72668","name":"Paseo de San Javier","state_id":3452,"state_code":"NLE","country_id":142,"country_code":"MX","latitude":"25.73972000","longitude":"-100.13444000"},{"id":"72740","name":"Pesquer\u00eda","state_id":3452,"state_code":"NLE","country_id":142,"country_code":"MX","latitude":"25.78543000","longitude":"-100.05098000"},{"id":"72854","name":"Portal de las Salinas","state_id":3452,"state_code":"NLE","country_id":142,"country_code":"MX","latitude":"25.98222000","longitude":"-100.14333000"},{"id":"72878","name":"Praderas de San Francisco","state_id":3452,"state_code":"NLE","country_id":142,"country_code":"MX","latitude":"25.81833000","longitude":"-100.40250000"},{"id":"72882","name":"Prados de Santa Rosa","state_id":3452,"state_code":"NLE","country_id":142,"country_code":"MX","latitude":"25.79808000","longitude":"-100.22687000"},{"id":"72937","name":"Pueblo Nuevo","state_id":3452,"state_code":"NLE","country_id":142,"country_code":"MX","latitude":"25.48409000","longitude":"-99.75987000"},{"id":"73085","name":"Rayones","state_id":3452,"state_code":"NLE","country_id":142,"country_code":"MX","latitude":"25.01799000","longitude":"-100.07362000"},{"id":"73185","name":"R\u00edo Verde","state_id":3452,"state_code":"NLE","country_id":142,"country_code":"MX","latitude":"24.90081000","longitude":"-99.54345000"},{"id":"73091","name":"Real del Sol","state_id":3452,"state_code":"NLE","country_id":142,"country_code":"MX","latitude":"25.93833000","longitude":"-100.18111000"},{"id":"73215","name":"Salinas Victoria","state_id":3452,"state_code":"NLE","country_id":142,"country_code":"MX","latitude":"25.96329000","longitude":"-100.29091000"},{"id":"73316","name":"San Antonio","state_id":3452,"state_code":"NLE","country_id":142,"country_code":"MX","latitude":"25.63868000","longitude":"-100.05844000"},{"id":"73825","name":"San Jos\u00e9 de Ra\u00edces","state_id":3452,"state_code":"NLE","country_id":142,"country_code":"MX","latitude":"24.57145000","longitude":"-100.24002000"},{"id":"73858","name":"San Juan","state_id":3452,"state_code":"NLE","country_id":142,"country_code":"MX","latitude":"25.54280000","longitude":"-99.84091000"},{"id":"74273","name":"San Nicol\u00e1s de los Garza","state_id":3452,"state_code":"NLE","country_id":142,"country_code":"MX","latitude":"25.74167000","longitude":"-100.30222000"},{"id":"74336","name":"San Pedro Garza Garc\u00eda","state_id":3452,"state_code":"NLE","country_id":142,"country_code":"MX","latitude":"25.66040000","longitude":"-100.40651000"},{"id":"74335","name":"San Pedro Garza Garcia","state_id":3452,"state_code":"NLE","country_id":142,"country_code":"MX","latitude":"25.65716000","longitude":"-100.40268000"},{"id":"74427","name":"San Rafael","state_id":3452,"state_code":"NLE","country_id":142,"country_code":"MX","latitude":"25.03060000","longitude":"-100.55139000"},{"id":"74837","name":"Santa Rosa","state_id":3452,"state_code":"NLE","country_id":142,"country_code":"MX","latitude":"25.82463000","longitude":"-100.22164000"},{"id":"74868","name":"Santiago","state_id":3452,"state_code":"NLE","country_id":142,"country_code":"MX","latitude":"25.42533000","longitude":"-100.15205000"},{"id":"75083","name":"Simeprodeso (Colectivo Nuevo)","state_id":3452,"state_code":"NLE","country_id":142,"country_code":"MX","latitude":"25.85306000","longitude":"-100.29167000"},{"id":"75880","name":"Uni\u00f3n Agropecuarios L\u00e1zaro C\u00e1rdenas del Norte","state_id":3452,"state_code":"NLE","country_id":142,"country_code":"MX","latitude":"25.83222000","longitude":"-100.38417000"},{"id":"75922","name":"Valle de Ju\u00e1rez","state_id":3452,"state_code":"NLE","country_id":142,"country_code":"MX","latitude":"25.63778000","longitude":"-100.15833000"},{"id":"75923","name":"Valle de Lincoln","state_id":3452,"state_code":"NLE","country_id":142,"country_code":"MX","latitude":"25.79333000","longitude":"-100.47778000"},{"id":"75925","name":"Valle de Vaquer\u00edas","state_id":3452,"state_code":"NLE","country_id":142,"country_code":"MX","latitude":"25.63250000","longitude":"-100.14694000"},{"id":"75930","name":"Vallecillo","state_id":3452,"state_code":"NLE","country_id":142,"country_code":"MX","latitude":"26.66033000","longitude":"-99.98744000"},{"id":"76082","name":"Villaldama","state_id":3452,"state_code":"NLE","country_id":142,"country_code":"MX","latitude":"26.47039000","longitude":"-100.38726000"},{"id":"76087","name":"Villas de Alcal\u00e1","state_id":3452,"state_code":"NLE","country_id":142,"country_code":"MX","latitude":"25.91528000","longitude":"-100.18528000"}]