[{"id":"68017","name":"Abasolo del Valle","state_id":3464,"state_code":"VER","country_id":142,"country_code":"MX","latitude":"17.78306000","longitude":"-95.54556000"},{"id":"68021","name":"Abrevadero","state_id":3464,"state_code":"VER","country_id":142,"country_code":"MX","latitude":"18.28222000","longitude":"-95.21444000"},{"id":"68028","name":"Acajete","state_id":3464,"state_code":"VER","country_id":142,"country_code":"MX","latitude":"19.56815000","longitude":"-97.03333000"},{"id":"68046","name":"Acatla","state_id":3464,"state_code":"VER","country_id":142,"country_code":"MX","latitude":"18.74944000","longitude":"-97.21833000"},{"id":"68050","name":"Acatl\u00e1n","state_id":3464,"state_code":"VER","country_id":142,"country_code":"MX","latitude":"19.69648000","longitude":"-96.84367000"},{"id":"68058","name":"Acayucan","state_id":3464,"state_code":"VER","country_id":142,"country_code":"MX","latitude":"17.94979000","longitude":"-94.91386000"},{"id":"68059","name":"Acaz\u00f3nica","state_id":3464,"state_code":"VER","country_id":142,"country_code":"MX","latitude":"19.21284000","longitude":"-96.58978000"},{"id":"68061","name":"Achotal de Moreno","state_id":3464,"state_code":"VER","country_id":142,"country_code":"MX","latitude":"17.73652000","longitude":"-95.13395000"},{"id":"68065","name":"Acontitla","state_id":3464,"state_code":"VER","country_id":142,"country_code":"MX","latitude":"20.68206000","longitude":"-97.38469000"},{"id":"68072","name":"Actopan","state_id":3464,"state_code":"VER","country_id":142,"country_code":"MX","latitude":"19.50427000","longitude":"-96.61668000"},{"id":"68081","name":"Acula","state_id":3464,"state_code":"VER","country_id":142,"country_code":"MX","latitude":"18.50563000","longitude":"-95.77427000"},{"id":"68083","name":"Acultzingo","state_id":3464,"state_code":"VER","country_id":142,"country_code":"MX","latitude":"18.71894000","longitude":"-97.30367000"},{"id":"68093","name":"Adolfo Moreno","state_id":3464,"state_code":"VER","country_id":142,"country_code":"MX","latitude":"19.72472000","longitude":"-97.23806000"},{"id":"68095","name":"Adolfo Ru\u00edz Cortines","state_id":3464,"state_code":"VER","country_id":142,"country_code":"MX","latitude":"20.59585000","longitude":"-97.30585000"},{"id":"68100","name":"Agr\u00edcola L\u00e1zaro C\u00e1rdenas","state_id":3464,"state_code":"VER","country_id":142,"country_code":"MX","latitude":"18.81361000","longitude":"-97.19833000"},{"id":"68110","name":"Agua Dulce","state_id":3464,"state_code":"VER","country_id":142,"country_code":"MX","latitude":"18.13909000","longitude":"-94.14527000"},{"id":"68128","name":"Aguilera","state_id":3464,"state_code":"VER","country_id":142,"country_code":"MX","latitude":"17.81083000","longitude":"-95.01500000"},{"id":"68139","name":"Ahuacat\u00e1n","state_id":3464,"state_code":"VER","country_id":142,"country_code":"MX","latitude":"19.78351000","longitude":"-97.29780000"},{"id":"68144","name":"Ahuateno","state_id":3464,"state_code":"VER","country_id":142,"country_code":"MX","latitude":"21.00245000","longitude":"-98.15055000"},{"id":"68159","name":"Ahueyahualco","state_id":3464,"state_code":"VER","country_id":142,"country_code":"MX","latitude":"19.71974000","longitude":"-97.25984000"},{"id":"68177","name":"Alborada","state_id":3464,"state_code":"VER","country_id":142,"country_code":"MX","latitude":"19.44851000","longitude":"-96.87109000"},{"id":"68205","name":"Allende","state_id":3464,"state_code":"VER","country_id":142,"country_code":"MX","latitude":"18.15514000","longitude":"-94.39289000"},{"id":"68209","name":"Almagres","state_id":3464,"state_code":"VER","country_id":142,"country_code":"MX","latitude":"17.80750000","longitude":"-94.91750000"},{"id":"68217","name":"Alpatl\u00e1huac","state_id":3464,"state_code":"VER","country_id":142,"country_code":"MX","latitude":"19.10155000","longitude":"-97.12174000"},{"id":"68227","name":"Alto Lucero","state_id":3464,"state_code":"VER","country_id":142,"country_code":"MX","latitude":"20.95361000","longitude":"-97.44194000"},{"id":"68228","name":"Altotonga","state_id":3464,"state_code":"VER","country_id":142,"country_code":"MX","latitude":"19.76613000","longitude":"-97.24514000"},{"id":"68230","name":"Alvarado","state_id":3464,"state_code":"VER","country_id":142,"country_code":"MX","latitude":"18.77143000","longitude":"-95.76181000"},{"id":"68241","name":"Amatitl\u00e1n","state_id":3464,"state_code":"VER","country_id":142,"country_code":"MX","latitude":"18.43371000","longitude":"-95.68388000"},{"id":"68243","name":"Amatl\u00e1n","state_id":3464,"state_code":"VER","country_id":142,"country_code":"MX","latitude":"21.33519000","longitude":"-97.75704000"},{"id":"68246","name":"Amatl\u00e1n de los Reyes","state_id":3464,"state_code":"VER","country_id":142,"country_code":"MX","latitude":"18.84658000","longitude":"-96.91595000"},{"id":"68267","name":"Anahuac","state_id":3464,"state_code":"VER","country_id":142,"country_code":"MX","latitude":"22.20275000","longitude":"-97.85506000"},{"id":"68273","name":"Angel R. Cabada","state_id":3464,"state_code":"VER","country_id":142,"country_code":"MX","latitude":"18.60798000","longitude":"-95.39724000"},{"id":"68281","name":"Ant\u00f3n Lizardo","state_id":3464,"state_code":"VER","country_id":142,"country_code":"MX","latitude":"19.05962000","longitude":"-95.99272000"},{"id":"68279","name":"Antonio J Berm\u00fadez","state_id":3464,"state_code":"VER","country_id":142,"country_code":"MX","latitude":"22.15046000","longitude":"-98.15873000"},{"id":"68304","name":"Apazapan","state_id":3464,"state_code":"VER","country_id":142,"country_code":"MX","latitude":"19.33175000","longitude":"-96.65058000"},{"id":"68316","name":"Aquila","state_id":3464,"state_code":"VER","country_id":142,"country_code":"MX","latitude":"18.78958000","longitude":"-97.32319000"},{"id":"68319","name":"Aquiles Serd\u00e1n","state_id":3464,"state_code":"VER","country_id":142,"country_code":"MX","latitude":"21.87206000","longitude":"-98.14794000"},{"id":"68335","name":"Arboledas","state_id":3464,"state_code":"VER","country_id":142,"country_code":"MX","latitude":"19.20722000","longitude":"-96.21444000"},{"id":"68337","name":"Arbolillo","state_id":3464,"state_code":"VER","country_id":142,"country_code":"MX","latitude":"18.81631000","longitude":"-95.83601000"},{"id":"68347","name":"Arenal Santa Ana","state_id":3464,"state_code":"VER","country_id":142,"country_code":"MX","latitude":"17.78951000","longitude":"-95.76970000"},{"id":"68370","name":"Arroyo del Ma\u00edz Uno","state_id":3464,"state_code":"VER","country_id":142,"country_code":"MX","latitude":"20.53667000","longitude":"-97.41528000"},{"id":"68371","name":"Arroyo del Potrero","state_id":3464,"state_code":"VER","country_id":142,"country_code":"MX","latitude":"20.14554000","longitude":"-97.06520000"},{"id":"68360","name":"Arroyo Hondo","state_id":3464,"state_code":"VER","country_id":142,"country_code":"MX","latitude":"20.02317000","longitude":"-96.87372000"},{"id":"68364","name":"Arroyo San Isidro","state_id":3464,"state_code":"VER","country_id":142,"country_code":"MX","latitude":"18.48667000","longitude":"-95.41333000"},{"id":"76408","name":"\u00darsulo Galv\u00e1n","state_id":3464,"state_code":"VER","country_id":142,"country_code":"MX","latitude":"19.40531000","longitude":"-96.36090000"},{"id":"68381","name":"Astacinga","state_id":3464,"state_code":"VER","country_id":142,"country_code":"MX","latitude":"18.56900000","longitude":"-97.10376000"},{"id":"68412","name":"Atlahuilco","state_id":3464,"state_code":"VER","country_id":142,"country_code":"MX","latitude":"18.68308000","longitude":"-97.11553000"},{"id":"68433","name":"Atoyac","state_id":3464,"state_code":"VER","country_id":142,"country_code":"MX","latitude":"18.93182000","longitude":"-96.80203000"},{"id":"68436","name":"Atzacan","state_id":3464,"state_code":"VER","country_id":142,"country_code":"MX","latitude":"18.90724000","longitude":"-97.08307000"},{"id":"68439","name":"Atzalan","state_id":3464,"state_code":"VER","country_id":142,"country_code":"MX","latitude":"19.78864000","longitude":"-97.24195000"},{"id":"68452","name":"Axoch\u00edo","state_id":3464,"state_code":"VER","country_id":142,"country_code":"MX","latitude":"18.37175000","longitude":"-95.29985000"},{"id":"68458","name":"Ayahualulco","state_id":3464,"state_code":"VER","country_id":142,"country_code":"MX","latitude":"19.38613000","longitude":"-97.14853000"},{"id":"68466","name":"Ayotuxtla","state_id":3464,"state_code":"VER","country_id":142,"country_code":"MX","latitude":"20.64885000","longitude":"-98.30264000"},{"id":"76390","name":"\u00c1lamo","state_id":3464,"state_code":"VER","country_id":142,"country_code":"MX","latitude":"20.91154000","longitude":"-97.67554000"},{"id":"76391","name":"\u00c1lamo Temapache","state_id":3464,"state_code":"VER","country_id":142,"country_code":"MX","latitude":"20.98922000","longitude":"-97.70592000"},{"id":"76406","name":"\u00c1ngel R. Cabada","state_id":3464,"state_code":"VER","country_id":142,"country_code":"MX","latitude":"18.59601000","longitude":"-95.44580000"},{"id":"68511","name":"Banderas","state_id":3464,"state_code":"VER","country_id":142,"country_code":"MX","latitude":"20.99083000","longitude":"-97.39361000"},{"id":"68514","name":"Banderilla","state_id":3464,"state_code":"VER","country_id":142,"country_code":"MX","latitude":"19.58893000","longitude":"-96.93727000"},{"id":"68516","name":"Bara de Chachalacas","state_id":3464,"state_code":"VER","country_id":142,"country_code":"MX","latitude":"19.40643000","longitude":"-96.34159000"},{"id":"68518","name":"Barra de Cazones","state_id":3464,"state_code":"VER","country_id":142,"country_code":"MX","latitude":"20.72307000","longitude":"-97.20320000"},{"id":"68520","name":"Barrancas","state_id":3464,"state_code":"VER","country_id":142,"country_code":"MX","latitude":"18.06918000","longitude":"-94.58691000"},{"id":"68550","name":"Barrio de San Miguel","state_id":3464,"state_code":"VER","country_id":142,"country_code":"MX","latitude":"19.64333000","longitude":"-97.12389000"},{"id":"68575","name":"Bella Esperanza","state_id":3464,"state_code":"VER","country_id":142,"country_code":"MX","latitude":"19.43329000","longitude":"-96.86648000"},{"id":"68594","name":"Benito Ju\u00e1rez","state_id":3464,"state_code":"VER","country_id":142,"country_code":"MX","latitude":"20.88635000","longitude":"-98.20594000"},{"id":"68617","name":"Blanca Espuma","state_id":3464,"state_code":"VER","country_id":142,"country_code":"MX","latitude":"19.58117000","longitude":"-96.68819000"},{"id":"68621","name":"Boca del Monte","state_id":3464,"state_code":"VER","country_id":142,"country_code":"MX","latitude":"19.15451000","longitude":"-96.83270000"},{"id":"68622","name":"Boca del Rio","state_id":3464,"state_code":"VER","country_id":142,"country_code":"MX","latitude":"19.10464000","longitude":"-96.10405000"},{"id":"68659","name":"Buena Vista","state_id":3464,"state_code":"VER","country_id":142,"country_code":"MX","latitude":"19.04278000","longitude":"-96.85667000"},{"id":"68669","name":"Buenavista","state_id":3464,"state_code":"VER","country_id":142,"country_code":"MX","latitude":"18.89306000","longitude":"-97.03694000"},{"id":"68685","name":"Buenos Aires","state_id":3464,"state_code":"VER","country_id":142,"country_code":"MX","latitude":"18.46463000","longitude":"-95.24879000"},{"id":"68691","name":"Buenos Aires (San Isidro)","state_id":3464,"state_code":"VER","country_id":142,"country_code":"MX","latitude":"20.84028000","longitude":"-97.60139000"},{"id":"68703","name":"Cabezas","state_id":3464,"state_code":"VER","country_id":142,"country_code":"MX","latitude":"19.37167000","longitude":"-96.38278000"},{"id":"68706","name":"Cacahuatal","state_id":3464,"state_code":"VER","country_id":142,"country_code":"MX","latitude":"18.83098000","longitude":"-96.84192000"},{"id":"68728","name":"Calcahualco","state_id":3464,"state_code":"VER","country_id":142,"country_code":"MX","latitude":"19.13698000","longitude":"-97.14201000"},{"id":"68734","name":"Caler\u00eda","state_id":3464,"state_code":"VER","country_id":142,"country_code":"MX","latitude":"18.42883000","longitude":"-95.17737000"},{"id":"68735","name":"Calichar Palma Sola","state_id":3464,"state_code":"VER","country_id":142,"country_code":"MX","latitude":"20.44155000","longitude":"-97.55103000"},{"id":"68755","name":"Calzadas","state_id":3464,"state_code":"VER","country_id":142,"country_code":"MX","latitude":"18.10121000","longitude":"-94.45524000"},{"id":"68760","name":"Camar\u00f3n de Tejeda","state_id":3464,"state_code":"VER","country_id":142,"country_code":"MX","latitude":"19.00810000","longitude":"-96.56807000"},{"id":"68763","name":"Camerino Z. Mendoza","state_id":3464,"state_code":"VER","country_id":142,"country_code":"MX","latitude":"18.78246000","longitude":"-97.16016000"},{"id":"68776","name":"Campo Chico","state_id":3464,"state_code":"VER","country_id":142,"country_code":"MX","latitude":"18.83639000","longitude":"-97.02802000"},{"id":"68780","name":"Campo de \u00c1guila","state_id":3464,"state_code":"VER","country_id":142,"country_code":"MX","latitude":"18.06750000","longitude":"-94.98611000"},{"id":"68777","name":"Campo Grande","state_id":3464,"state_code":"VER","country_id":142,"country_code":"MX","latitude":"18.82296000","longitude":"-97.01265000"},{"id":"68807","name":"Capoluca","state_id":3464,"state_code":"VER","country_id":142,"country_code":"MX","latitude":"18.80639000","longitude":"-97.02722000"},{"id":"68823","name":"Caristay","state_id":3464,"state_code":"VER","country_id":142,"country_code":"MX","latitude":"20.64538000","longitude":"-97.30593000"},{"id":"68824","name":"Carlos A. Carrillo","state_id":3464,"state_code":"VER","country_id":142,"country_code":"MX","latitude":"18.37477000","longitude":"-95.75444000"},{"id":"68840","name":"Carrillo Puerto","state_id":3464,"state_code":"VER","country_id":142,"country_code":"MX","latitude":"18.81314000","longitude":"-96.58230000"},{"id":"68841","name":"Carrizal","state_id":3464,"state_code":"VER","country_id":142,"country_code":"MX","latitude":"20.59552000","longitude":"-97.25676000"},{"id":"68857","name":"Casitas","state_id":3464,"state_code":"VER","country_id":142,"country_code":"MX","latitude":"20.25532000","longitude":"-96.80114000"},{"id":"68860","name":"Castillo de Teayo","state_id":3464,"state_code":"VER","country_id":142,"country_code":"MX","latitude":"20.74927000","longitude":"-97.63030000"},{"id":"68863","name":"Catemaco","state_id":3464,"state_code":"VER","country_id":142,"country_code":"MX","latitude":"18.42131000","longitude":"-95.11398000"},{"id":"68867","name":"Caxapa","state_id":3464,"state_code":"VER","country_id":142,"country_code":"MX","latitude":"18.43103000","longitude":"-96.77456000"},{"id":"68872","name":"Cazones de Herrera","state_id":3464,"state_code":"VER","country_id":142,"country_code":"MX","latitude":"20.70423000","longitude":"-97.30994000"},{"id":"69661","name":"C\u00f3rdoba","state_id":3464,"state_code":"VER","country_id":142,"country_code":"MX","latitude":"18.88420000","longitude":"-96.92559000"},{"id":"69662","name":"C\u00f3rdoba (Santa Leticia)","state_id":3464,"state_code":"VER","country_id":142,"country_code":"MX","latitude":"18.90861000","longitude":"-96.97889000"},{"id":"68886","name":"Cecilio Ter\u00e1n","state_id":3464,"state_code":"VER","country_id":142,"country_code":"MX","latitude":"18.81480000","longitude":"-97.22526000"},{"id":"68894","name":"Cementeras del Pital","state_id":3464,"state_code":"VER","country_id":142,"country_code":"MX","latitude":"20.17694000","longitude":"-96.89583000"},{"id":"68901","name":"Centro de Readaptaci\u00f3n Social","state_id":3464,"state_code":"VER","country_id":142,"country_code":"MX","latitude":"19.62500000","longitude":"-97.22028000"},{"id":"68914","name":"Cerritos","state_id":3464,"state_code":"VER","country_id":142,"country_code":"MX","latitude":"19.13329000","longitude":"-96.60931000"},{"id":"68922","name":"Cerro Azul","state_id":3464,"state_code":"VER","country_id":142,"country_code":"MX","latitude":"21.19200000","longitude":"-97.74088000"},{"id":"68925","name":"Cerro Gordo","state_id":3464,"state_code":"VER","country_id":142,"country_code":"MX","latitude":"19.56951000","longitude":"-96.64835000"},{"id":"68929","name":"Cerro Grande","state_id":3464,"state_code":"VER","country_id":142,"country_code":"MX","latitude":"20.23861000","longitude":"-97.68194000"},{"id":"68930","name":"Cerro Guzm\u00e1n","state_id":3464,"state_code":"VER","country_id":142,"country_code":"MX","latitude":"19.23543000","longitude":"-96.37856000"},{"id":"68940","name":"Cerro las Iguanas","state_id":3464,"state_code":"VER","country_id":142,"country_code":"MX","latitude":"18.41083000","longitude":"-95.19972000"},{"id":"68945","name":"Chacalapa","state_id":3464,"state_code":"VER","country_id":142,"country_code":"MX","latitude":"18.07860000","longitude":"-94.70280000"},{"id":"68947","name":"Chacaltianguis","state_id":3464,"state_code":"VER","country_id":142,"country_code":"MX","latitude":"18.30528000","longitude":"-95.84167000"},{"id":"68964","name":"Chalma","state_id":3464,"state_code":"VER","country_id":142,"country_code":"MX","latitude":"21.20799000","longitude":"-98.37526000"},{"id":"68984","name":"Chapopote Chico","state_id":3464,"state_code":"VER","country_id":142,"country_code":"MX","latitude":"21.13704000","longitude":"-98.24780000"},{"id":"68985","name":"Chapopote N\u00fa\u00f1ez","state_id":3464,"state_code":"VER","country_id":142,"country_code":"MX","latitude":"20.93167000","longitude":"-97.68274000"},{"id":"69001","name":"Chavarrillo","state_id":3464,"state_code":"VER","country_id":142,"country_code":"MX","latitude":"19.42551000","longitude":"-96.79458000"},{"id":"69003","name":"Chavaxtla","state_id":3464,"state_code":"VER","country_id":142,"country_code":"MX","latitude":"19.13016000","longitude":"-96.83054000"},{"id":"69024","name":"Chichicaxtle","state_id":3464,"state_code":"VER","country_id":142,"country_code":"MX","latitude":"19.34306000","longitude":"-96.46861000"},{"id":"69035","name":"Chicola","state_id":3464,"state_code":"VER","country_id":142,"country_code":"MX","latitude":"18.90139000","longitude":"-97.10806000"},{"id":"69039","name":"Chiconamel","state_id":3464,"state_code":"VER","country_id":142,"country_code":"MX","latitude":"21.24326000","longitude":"-98.45426000"},{"id":"69043","name":"Chiconquiaco","state_id":3464,"state_code":"VER","country_id":142,"country_code":"MX","latitude":"19.74208000","longitude":"-96.81851000"},{"id":"69044","name":"Chicontepec","state_id":3464,"state_code":"VER","country_id":142,"country_code":"MX","latitude":"20.97214000","longitude":"-98.17239000"},{"id":"69046","name":"Chicualoque","state_id":3464,"state_code":"VER","country_id":142,"country_code":"MX","latitude":"20.38272000","longitude":"-97.66163000"},{"id":"69047","name":"Chicuasen","state_id":3464,"state_code":"VER","country_id":142,"country_code":"MX","latitude":"19.52785000","longitude":"-96.67224000"},{"id":"69063","name":"Chilapa","state_id":3464,"state_code":"VER","country_id":142,"country_code":"MX","latitude":"18.98861000","longitude":"-97.15417000"},{"id":"69074","name":"Chiltoyac","state_id":3464,"state_code":"VER","country_id":142,"country_code":"MX","latitude":"19.57708000","longitude":"-96.86660000"},{"id":"69082","name":"Chinameca","state_id":3464,"state_code":"VER","country_id":142,"country_code":"MX","latitude":"18.02195000","longitude":"-94.67945000"},{"id":"69083","name":"Chinampa de Gorostiza","state_id":3464,"state_code":"VER","country_id":142,"country_code":"MX","latitude":"21.35959000","longitude":"-97.73484000"},{"id":"69097","name":"Chocam\u00e1n","state_id":3464,"state_code":"VER","country_id":142,"country_code":"MX","latitude":"19.01214000","longitude":"-97.03291000"},{"id":"69104","name":"Chonegal","state_id":3464,"state_code":"VER","country_id":142,"country_code":"MX","latitude":"18.57523000","longitude":"-95.39347000"},{"id":"69107","name":"Chontla","state_id":3464,"state_code":"VER","country_id":142,"country_code":"MX","latitude":"21.39198000","longitude":"-97.97877000"},{"id":"69115","name":"Chumatl\u00e1n","state_id":3464,"state_code":"VER","country_id":142,"country_code":"MX","latitude":"20.20574000","longitude":"-97.59402000"},{"id":"69120","name":"Chuniapan de Arriba","state_id":3464,"state_code":"VER","country_id":142,"country_code":"MX","latitude":"18.34803000","longitude":"-95.18156000"},{"id":"69140","name":"Citlalt\u00e9pec","state_id":3464,"state_code":"VER","country_id":142,"country_code":"MX","latitude":"21.32912000","longitude":"-97.87861000"},{"id":"69141","name":"Citlalt\u00e9petl","state_id":3464,"state_code":"VER","country_id":142,"country_code":"MX","latitude":"21.34351000","longitude":"-97.89201000"},{"id":"69152","name":"Ciudad Cuauht\u00e9moc","state_id":3464,"state_code":"VER","country_id":142,"country_code":"MX","latitude":"22.18439000","longitude":"-97.83472000"},{"id":"69170","name":"Ciudad Mendoza","state_id":3464,"state_code":"VER","country_id":142,"country_code":"MX","latitude":"18.80645000","longitude":"-97.17870000"},{"id":"69206","name":"Coacoatzintla","state_id":3464,"state_code":"VER","country_id":142,"country_code":"MX","latitude":"19.65163000","longitude":"-96.94043000"},{"id":"69207","name":"Coacotla","state_id":3464,"state_code":"VER","country_id":142,"country_code":"MX","latitude":"17.93656000","longitude":"-94.66711000"},{"id":"69216","name":"Coahuitl\u00e1n","state_id":3464,"state_code":"VER","country_id":142,"country_code":"MX","latitude":"20.27543000","longitude":"-97.70022000"},{"id":"69224","name":"Coatepec","state_id":3464,"state_code":"VER","country_id":142,"country_code":"MX","latitude":"19.45229000","longitude":"-96.96148000"},{"id":"69231","name":"Coatzacoalcos","state_id":3464,"state_code":"VER","country_id":142,"country_code":"MX","latitude":"18.14905000","longitude":"-94.44470000"},{"id":"69233","name":"Coatzintla","state_id":3464,"state_code":"VER","country_id":142,"country_code":"MX","latitude":"20.48699000","longitude":"-97.46823000"},{"id":"69246","name":"Coetzala","state_id":3464,"state_code":"VER","country_id":142,"country_code":"MX","latitude":"18.78521000","longitude":"-96.91697000"},{"id":"69256","name":"Colatl\u00e1n","state_id":3464,"state_code":"VER","country_id":142,"country_code":"MX","latitude":"20.81642000","longitude":"-98.09697000"},{"id":"69261","name":"Colipa","state_id":3464,"state_code":"VER","country_id":142,"country_code":"MX","latitude":"19.92323000","longitude":"-96.72713000"},{"id":"69272","name":"Colonia Adolfo Ruiz Cortines (Colonia Obrera)","state_id":3464,"state_code":"VER","country_id":142,"country_code":"MX","latitude":"18.25694000","longitude":"-96.16139000"},{"id":"69407","name":"Colonia \u00darsulo Galv\u00e1n","state_id":3464,"state_code":"VER","country_id":142,"country_code":"MX","latitude":"19.42862000","longitude":"-96.97842000"},{"id":"69287","name":"Colonia Chalchihuecan","state_id":3464,"state_code":"VER","country_id":142,"country_code":"MX","latitude":"19.21417000","longitude":"-96.21444000"},{"id":"69390","name":"Colonia el Renacimiento","state_id":3464,"state_code":"VER","country_id":142,"country_code":"MX","latitude":"19.21889000","longitude":"-96.21639000"},{"id":"69397","name":"Colonia las Flores","state_id":3464,"state_code":"VER","country_id":142,"country_code":"MX","latitude":"21.36167000","longitude":"-97.69306000"},{"id":"69320","name":"Colonia Lealtad","state_id":3464,"state_code":"VER","country_id":142,"country_code":"MX","latitude":"17.96306000","longitude":"-94.90250000"},{"id":"69321","name":"Colonia Libertad","state_id":3464,"state_code":"VER","country_id":142,"country_code":"MX","latitude":"19.67734000","longitude":"-97.21262000"},{"id":"69327","name":"Colonia Manuel Gonz\u00e1lez","state_id":3464,"state_code":"VER","country_id":142,"country_code":"MX","latitude":"19.11495000","longitude":"-96.85939000"},{"id":"69369","name":"Colonia Santa B\u00e1rbara","state_id":3464,"state_code":"VER","country_id":142,"country_code":"MX","latitude":"19.50191000","longitude":"-96.87817000"},{"id":"69408","name":"Colonias Pedernales","state_id":3464,"state_code":"VER","country_id":142,"country_code":"MX","latitude":"20.04583000","longitude":"-97.05139000"},{"id":"69410","name":"Colorines","state_id":3464,"state_code":"VER","country_id":142,"country_code":"MX","latitude":"18.88472000","longitude":"-96.97833000"},{"id":"69423","name":"Comapa","state_id":3464,"state_code":"VER","country_id":142,"country_code":"MX","latitude":"19.13889000","longitude":"-96.71374000"},{"id":"69424","name":"Comej\u00e9n","state_id":3464,"state_code":"VER","country_id":142,"country_code":"MX","latitude":"18.06126000","longitude":"-94.88552000"},{"id":"69426","name":"Comoapan","state_id":3464,"state_code":"VER","country_id":142,"country_code":"MX","latitude":"18.40684000","longitude":"-95.17415000"},{"id":"69454","name":"Congregaci\u00f3n el Taj\u00edn","state_id":3464,"state_code":"VER","country_id":142,"country_code":"MX","latitude":"20.43047000","longitude":"-97.38183000"},{"id":"69451","name":"Congregaci\u00f3n Hidalgo","state_id":3464,"state_code":"VER","country_id":142,"country_code":"MX","latitude":"17.93750000","longitude":"-94.97056000"},{"id":"69483","name":"Corozal","state_id":3464,"state_code":"VER","country_id":142,"country_code":"MX","latitude":"21.54627000","longitude":"-98.55444000"},{"id":"69485","name":"Corral Nuevo","state_id":3464,"state_code":"VER","country_id":142,"country_code":"MX","latitude":"18.11461000","longitude":"-95.11542000"},{"id":"69492","name":"Corralillos","state_id":3464,"state_code":"VER","country_id":142,"country_code":"MX","latitude":"20.48273000","longitude":"-97.52582000"},{"id":"69497","name":"Cosamaloapan","state_id":3464,"state_code":"VER","country_id":142,"country_code":"MX","latitude":"18.36759000","longitude":"-95.79857000"},{"id":"69498","name":"Cosamaloapan de Carpio","state_id":3464,"state_code":"VER","country_id":142,"country_code":"MX","latitude":"18.30163000","longitude":"-95.95967000"},{"id":"69499","name":"Cosautl\u00e1n","state_id":3464,"state_code":"VER","country_id":142,"country_code":"MX","latitude":"19.33196000","longitude":"-96.99030000"},{"id":"69500","name":"Cosautl\u00e1n de Carvajal","state_id":3464,"state_code":"VER","country_id":142,"country_code":"MX","latitude":"19.32878000","longitude":"-96.97719000"},{"id":"69502","name":"Coscomatepec de Bravo","state_id":3464,"state_code":"VER","country_id":142,"country_code":"MX","latitude":"19.07275000","longitude":"-97.04685000"},{"id":"69503","name":"Cosolapa","state_id":3464,"state_code":"VER","country_id":142,"country_code":"MX","latitude":"18.60055000","longitude":"-96.68524000"},{"id":"69504","name":"Cosoleacaque","state_id":3464,"state_code":"VER","country_id":142,"country_code":"MX","latitude":"17.99913000","longitude":"-94.63590000"},{"id":"69508","name":"Cotaxtla","state_id":3464,"state_code":"VER","country_id":142,"country_code":"MX","latitude":"18.83555000","longitude":"-96.39640000"},{"id":"69513","name":"Coxquihui","state_id":3464,"state_code":"VER","country_id":142,"country_code":"MX","latitude":"20.18398000","longitude":"-97.58568000"},{"id":"69518","name":"Coyolito","state_id":3464,"state_code":"VER","country_id":142,"country_code":"MX","latitude":"19.22777000","longitude":"-96.87039000"},{"id":"69529","name":"Coyutla","state_id":3464,"state_code":"VER","country_id":142,"country_code":"MX","latitude":"20.24720000","longitude":"-97.65824000"},{"id":"69541","name":"Cruz Blanca","state_id":3464,"state_code":"VER","country_id":142,"country_code":"MX","latitude":"19.63744000","longitude":"-97.16691000"},{"id":"69547","name":"Cruz del Milagro","state_id":3464,"state_code":"VER","country_id":142,"country_code":"MX","latitude":"17.90833000","longitude":"-95.01083000"},{"id":"69545","name":"Cruz Verde","state_id":3464,"state_code":"VER","country_id":142,"country_code":"MX","latitude":"19.13750000","longitude":"-97.10861000"},{"id":"69574","name":"Cuauhtamingo","state_id":3464,"state_code":"VER","country_id":142,"country_code":"MX","latitude":"19.76472000","longitude":"-97.31417000"},{"id":"69594","name":"Cuautlap\u00e1n","state_id":3464,"state_code":"VER","country_id":142,"country_code":"MX","latitude":"18.87747000","longitude":"-97.02291000"},{"id":"69604","name":"Cucharas","state_id":3464,"state_code":"VER","country_id":142,"country_code":"MX","latitude":"21.61568000","longitude":"-97.66099000"},{"id":"69617","name":"Cuesta Amarilla","state_id":3464,"state_code":"VER","country_id":142,"country_code":"MX","latitude":"18.34667000","longitude":"-95.23389000"},{"id":"69619","name":"Cuesta de Laja","state_id":3464,"state_code":"VER","country_id":142,"country_code":"MX","latitude":"18.29333000","longitude":"-95.22111000"},{"id":"69626","name":"Cuichapa","state_id":3464,"state_code":"VER","country_id":142,"country_code":"MX","latitude":"17.93889000","longitude":"-94.28000000"},{"id":"69628","name":"Cuitl\u00e1huac","state_id":3464,"state_code":"VER","country_id":142,"country_code":"MX","latitude":"18.81429000","longitude":"-96.72281000"},{"id":"69630","name":"Cuiyachapa","state_id":3464,"state_code":"VER","country_id":142,"country_code":"MX","latitude":"19.04569000","longitude":"-97.17436000"},{"id":"69671","name":"Dehesa","state_id":3464,"state_code":"VER","country_id":142,"country_code":"MX","latitude":"17.94167000","longitude":"-94.99806000"},{"id":"69673","name":"Delfino Victoria (Santa Fe)","state_id":3464,"state_code":"VER","country_id":142,"country_code":"MX","latitude":"19.20750000","longitude":"-96.27333000"},{"id":"69698","name":"Doctor Montes de Oca","state_id":3464,"state_code":"VER","country_id":142,"country_code":"MX","latitude":"20.93477000","longitude":"-97.55585000"},{"id":"69717","name":"Dos Bocas","state_id":3464,"state_code":"VER","country_id":142,"country_code":"MX","latitude":"18.41087000","longitude":"-95.70732000"},{"id":"69720","name":"Dos R\u00edos","state_id":3464,"state_code":"VER","country_id":142,"country_code":"MX","latitude":"19.48417000","longitude":"-96.79944000"},{"id":"69757","name":"Ejidal","state_id":3464,"state_code":"VER","country_id":142,"country_code":"MX","latitude":"18.90380000","longitude":"-96.22583000"},{"id":"69816","name":"Ejido la Pi\u00f1a (Maromilla)","state_id":3464,"state_code":"VER","country_id":142,"country_code":"MX","latitude":"19.02861000","longitude":"-96.78361000"},{"id":"69825","name":"El Aguacate","state_id":3464,"state_code":"VER","country_id":142,"country_code":"MX","latitude":"18.19808000","longitude":"-94.97053000"},{"id":"69829","name":"El Anono","state_id":3464,"state_code":"VER","country_id":142,"country_code":"MX","latitude":"21.25559000","longitude":"-97.65648000"},{"id":"69834","name":"El Arenal","state_id":3464,"state_code":"VER","country_id":142,"country_code":"MX","latitude":"20.26829000","longitude":"-97.59250000"},{"id":"70265","name":"El \u00c1guila","state_id":3464,"state_code":"VER","country_id":142,"country_code":"MX","latitude":"20.63072000","longitude":"-97.45632000"},{"id":"69846","name":"El Blanco","state_id":3464,"state_code":"VER","country_id":142,"country_code":"MX","latitude":"18.07418000","longitude":"-95.28053000"},{"id":"69886","name":"El Castillo","state_id":3464,"state_code":"VER","country_id":142,"country_code":"MX","latitude":"19.54661000","longitude":"-96.86425000"},{"id":"69900","name":"El Chico","state_id":3464,"state_code":"VER","country_id":142,"country_code":"MX","latitude":"19.46570000","longitude":"-96.83642000"},{"id":"69903","name":"El Chote","state_id":3464,"state_code":"VER","country_id":142,"country_code":"MX","latitude":"20.40167000","longitude":"-97.34389000"},{"id":"69908","name":"El Cocuite","state_id":3464,"state_code":"VER","country_id":142,"country_code":"MX","latitude":"18.71765000","longitude":"-96.08442000"},{"id":"69917","name":"El Conejo","state_id":3464,"state_code":"VER","country_id":142,"country_code":"MX","latitude":"19.53140000","longitude":"-97.15383000"},{"id":"69927","name":"El Corte","state_id":3464,"state_code":"VER","country_id":142,"country_code":"MX","latitude":"18.45226000","longitude":"-95.73510000"},{"id":"69955","name":"El Escobillo","state_id":3464,"state_code":"VER","country_id":142,"country_code":"MX","latitude":"19.51450000","longitude":"-97.19791000"},{"id":"69961","name":"El Espinal","state_id":3464,"state_code":"VER","country_id":142,"country_code":"MX","latitude":"19.62444000","longitude":"-96.87250000"},{"id":"69981","name":"El Hatito","state_id":3464,"state_code":"VER","country_id":142,"country_code":"MX","latitude":"19.27750000","longitude":"-96.39361000"},{"id":"69983","name":"El Higo","state_id":3464,"state_code":"VER","country_id":142,"country_code":"MX","latitude":"21.76708000","longitude":"-98.45186000"},{"id":"69994","name":"El Hu\u00e9rfano","state_id":3464,"state_code":"VER","country_id":142,"country_code":"MX","latitude":"19.74082000","longitude":"-96.74528000"},{"id":"69989","name":"El Huidero","state_id":3464,"state_code":"VER","country_id":142,"country_code":"MX","latitude":"18.38750000","longitude":"-95.17917000"},{"id":"69993","name":"El Humo","state_id":3464,"state_code":"VER","country_id":142,"country_code":"MX","latitude":"21.17568000","longitude":"-97.94169000"},{"id":"70006","name":"El Jobo","state_id":3464,"state_code":"VER","country_id":142,"country_code":"MX","latitude":"20.01405000","longitude":"-97.16461000"},{"id":"70008","name":"El Juile","state_id":3464,"state_code":"VER","country_id":142,"country_code":"MX","latitude":"17.74412000","longitude":"-94.98946000"},{"id":"70010","name":"El Laurel","state_id":3464,"state_code":"VER","country_id":142,"country_code":"MX","latitude":"18.27409000","longitude":"-95.32900000"},{"id":"70011","name":"El Lencero","state_id":3464,"state_code":"VER","country_id":142,"country_code":"MX","latitude":"19.48897000","longitude":"-96.81622000"},{"id":"70019","name":"El Lindero","state_id":3464,"state_code":"VER","country_id":142,"country_code":"MX","latitude":"21.31278000","longitude":"-98.22000000"},{"id":"70028","name":"El Maguey","state_id":3464,"state_code":"VER","country_id":142,"country_code":"MX","latitude":"18.83295000","longitude":"-96.73434000"},{"id":"70038","name":"El Mirador","state_id":3464,"state_code":"VER","country_id":142,"country_code":"MX","latitude":"21.01168000","longitude":"-97.94387000"},{"id":"70043","name":"El Molino","state_id":3464,"state_code":"VER","country_id":142,"country_code":"MX","latitude":"21.91602000","longitude":"-98.29885000"},{"id":"70048","name":"El Mollejon","state_id":3464,"state_code":"VER","country_id":142,"country_code":"MX","latitude":"20.54222000","longitude":"-97.41111000"},{"id":"70056","name":"El Naranjito","state_id":3464,"state_code":"VER","country_id":142,"country_code":"MX","latitude":"17.99785000","longitude":"-94.60666000"},{"id":"70062","name":"El Nigromante","state_id":3464,"state_code":"VER","country_id":142,"country_code":"MX","latitude":"17.76472000","longitude":"-95.75722000"},{"id":"70079","name":"El Palmar","state_id":3464,"state_code":"VER","country_id":142,"country_code":"MX","latitude":"18.80330000","longitude":"-96.66560000"},{"id":"70085","name":"El Panorama","state_id":3464,"state_code":"VER","country_id":142,"country_code":"MX","latitude":"20.28918000","longitude":"-97.63554000"},{"id":"70088","name":"El Para\u00edso","state_id":3464,"state_code":"VER","country_id":142,"country_code":"MX","latitude":"17.51592000","longitude":"-95.14271000"},{"id":"70092","name":"El Para\u00edso (La Charca)","state_id":3464,"state_code":"VER","country_id":142,"country_code":"MX","latitude":"19.42889000","longitude":"-96.35500000"},{"id":"70108","name":"El Pital","state_id":3464,"state_code":"VER","country_id":142,"country_code":"MX","latitude":"20.15695000","longitude":"-96.89805000"},{"id":"70117","name":"El Porvenir","state_id":3464,"state_code":"VER","country_id":142,"country_code":"MX","latitude":"18.92083000","longitude":"-96.92583000"},{"id":"70125","name":"El Potrero","state_id":3464,"state_code":"VER","country_id":142,"country_code":"MX","latitude":"18.67822000","longitude":"-97.25499000"},{"id":"70134","name":"El Progreso","state_id":3464,"state_code":"VER","country_id":142,"country_code":"MX","latitude":"20.11417000","longitude":"-97.01444000"},{"id":"70137","name":"El Pueblito","state_id":3464,"state_code":"VER","country_id":142,"country_code":"MX","latitude":"18.88639000","longitude":"-96.96946000"},{"id":"70138","name":"El Pueblito (Garbanzal)","state_id":3464,"state_code":"VER","country_id":142,"country_code":"MX","latitude":"19.59389000","longitude":"-96.92417000"},{"id":"70157","name":"El Remolino","state_id":3464,"state_code":"VER","country_id":142,"country_code":"MX","latitude":"20.38921000","longitude":"-97.21213000"},{"id":"70193","name":"El Salto de Eyipantla","state_id":3464,"state_code":"VER","country_id":142,"country_code":"MX","latitude":"18.38954000","longitude":"-95.20285000"},{"id":"70213","name":"El Tejar","state_id":3464,"state_code":"VER","country_id":142,"country_code":"MX","latitude":"19.07433000","longitude":"-96.16097000"},{"id":"70222","name":"El Terrero","state_id":3464,"state_code":"VER","country_id":142,"country_code":"MX","latitude":"19.53709000","longitude":"-96.79907000"},{"id":"70236","name":"El Triunfo","state_id":3464,"state_code":"VER","country_id":142,"country_code":"MX","latitude":"19.42136000","longitude":"-97.22002000"},{"id":"70243","name":"El Tul\u00edn","state_id":3464,"state_code":"VER","country_id":142,"country_code":"MX","latitude":"18.24750000","longitude":"-94.95373000"},{"id":"70258","name":"El Volador","state_id":3464,"state_code":"VER","country_id":142,"country_code":"MX","latitude":"20.64294000","longitude":"-97.24885000"},{"id":"70262","name":"El Zapote Bravo","state_id":3464,"state_code":"VER","country_id":142,"country_code":"MX","latitude":"20.66200000","longitude":"-97.99907000"},{"id":"70271","name":"Elotepec","state_id":3464,"state_code":"VER","country_id":142,"country_code":"MX","latitude":"19.18820000","longitude":"-97.03768000"},{"id":"70290","name":"Emiliano Zapata","state_id":3464,"state_code":"VER","country_id":142,"country_code":"MX","latitude":"19.45766000","longitude":"-96.76584000"},{"id":"70306","name":"Entabladero","state_id":3464,"state_code":"VER","country_id":142,"country_code":"MX","latitude":"20.27515000","longitude":"-97.55114000"},{"id":"70320","name":"Escol\u00edn de Olarte","state_id":3464,"state_code":"VER","country_id":142,"country_code":"MX","latitude":"20.49840000","longitude":"-97.42336000"},{"id":"70330","name":"Espinal","state_id":3464,"state_code":"VER","country_id":142,"country_code":"MX","latitude":"20.26997000","longitude":"-97.48927000"},{"id":"70342","name":"Estaci\u00f3n Dobladero","state_id":3464,"state_code":"VER","country_id":142,"country_code":"MX","latitude":"18.11500000","longitude":"-95.76611000"},{"id":"70345","name":"Estaci\u00f3n Juanita","state_id":3464,"state_code":"VER","country_id":142,"country_code":"MX","latitude":"17.80889000","longitude":"-95.21750000"},{"id":"70365","name":"Estanzuela","state_id":3464,"state_code":"VER","country_id":142,"country_code":"MX","latitude":"19.46081000","longitude":"-96.85819000"},{"id":"70369","name":"Estero de Milpas","state_id":3464,"state_code":"VER","country_id":142,"country_code":"MX","latitude":"21.25370000","longitude":"-97.45082000"},{"id":"70370","name":"Estero del \u00cddolo","state_id":3464,"state_code":"VER","country_id":142,"country_code":"MX","latitude":"20.88953000","longitude":"-97.65878000"},{"id":"70389","name":"Ex-hacienda la Concepci\u00f3n","state_id":3464,"state_code":"VER","country_id":142,"country_code":"MX","latitude":"18.84855000","longitude":"-96.82437000"},{"id":"70390","name":"Excola","state_id":3464,"state_code":"VER","country_id":142,"country_code":"MX","latitude":"19.13876000","longitude":"-97.12251000"},{"id":"70396","name":"Felipe Carrillo Puerto","state_id":3464,"state_code":"VER","country_id":142,"country_code":"MX","latitude":"20.13578000","longitude":"-96.95164000"},{"id":"70402","name":"Filomeno Mata","state_id":3464,"state_code":"VER","country_id":142,"country_code":"MX","latitude":"20.20004000","longitude":"-97.70392000"},{"id":"70410","name":"Fort\u00edn de las Flores","state_id":3464,"state_code":"VER","country_id":142,"country_code":"MX","latitude":"18.90806000","longitude":"-97.00000000"},{"id":"70411","name":"Fraccionamiento Arboledas San Ram\u00f3n","state_id":3464,"state_code":"VER","country_id":142,"country_code":"MX","latitude":"19.09417000","longitude":"-96.15667000"},{"id":"70413","name":"Fraccionamiento Ciudad Olmeca","state_id":3464,"state_code":"VER","country_id":142,"country_code":"MX","latitude":"18.15056000","longitude":"-94.55250000"},{"id":"70418","name":"Fraccionamiento Costa Dorada","state_id":3464,"state_code":"VER","country_id":142,"country_code":"MX","latitude":"19.20833000","longitude":"-96.21639000"},{"id":"70422","name":"Fraccionamiento Geovillas los Pinos","state_id":3464,"state_code":"VER","country_id":142,"country_code":"MX","latitude":"19.21722000","longitude":"-96.22639000"},{"id":"70450","name":"Fraccionamiento la Florida","state_id":3464,"state_code":"VER","country_id":142,"country_code":"MX","latitude":"20.58667000","longitude":"-97.42833000"},{"id":"70455","name":"Fraccionamiento las Fuentes","state_id":3464,"state_code":"VER","country_id":142,"country_code":"MX","latitude":"19.49611000","longitude":"-96.88639000"},{"id":"70458","name":"Fraccionamiento los \u00c1lamos","state_id":3464,"state_code":"VER","country_id":142,"country_code":"MX","latitude":"18.92389000","longitude":"-96.97528000"},{"id":"70457","name":"Fraccionamiento los Prados","state_id":3464,"state_code":"VER","country_id":142,"country_code":"MX","latitude":"17.97778000","longitude":"-94.63917000"},{"id":"70442","name":"Fraccionamiento Santa Cruz","state_id":3464,"state_code":"VER","country_id":142,"country_code":"MX","latitude":"17.97194000","longitude":"-94.89500000"},{"id":"70444","name":"Fraccionamiento Valle Dorado","state_id":3464,"state_code":"VER","country_id":142,"country_code":"MX","latitude":"18.86889000","longitude":"-97.12222000"},{"id":"70447","name":"Fraccionamiento Villas de la Llave","state_id":3464,"state_code":"VER","country_id":142,"country_code":"MX","latitude":"18.91583000","longitude":"-96.99111000"},{"id":"70465","name":"Francisco I. Madero","state_id":3464,"state_code":"VER","country_id":142,"country_code":"MX","latitude":"19.52718000","longitude":"-97.27067000"},{"id":"70487","name":"Fredepo","state_id":3464,"state_code":"VER","country_id":142,"country_code":"MX","latitude":"18.88056000","longitude":"-96.97694000"},{"id":"70500","name":"Gabino Barreda","state_id":3464,"state_code":"VER","country_id":142,"country_code":"MX","latitude":"18.17922000","longitude":"-96.09162000"},{"id":"70525","name":"General Alatriste (San Joaqu\u00edn)","state_id":3464,"state_code":"VER","country_id":142,"country_code":"MX","latitude":"18.84028000","longitude":"-96.79361000"},{"id":"70536","name":"General Juan Jos\u00e9 Baz (San Jos\u00e9 del Corral)","state_id":3464,"state_code":"VER","country_id":142,"country_code":"MX","latitude":"18.82167000","longitude":"-96.81806000"},{"id":"70542","name":"General Miguel Alem\u00e1n","state_id":3464,"state_code":"VER","country_id":142,"country_code":"MX","latitude":"18.89346000","longitude":"-96.79239000"},{"id":"70570","name":"Guadalupe","state_id":3464,"state_code":"VER","country_id":142,"country_code":"MX","latitude":"18.81560000","longitude":"-96.92444000"},{"id":"70603","name":"Guadalupe Victoria","state_id":3464,"state_code":"VER","country_id":142,"country_code":"MX","latitude":"19.55472000","longitude":"-96.96056000"},{"id":"70624","name":"Guayalejo","state_id":3464,"state_code":"VER","country_id":142,"country_code":"MX","latitude":"22.38306000","longitude":"-98.48306000"},{"id":"70634","name":"Guillermo Prieto","state_id":3464,"state_code":"VER","country_id":142,"country_code":"MX","latitude":"18.16077000","longitude":"-94.27658000"},{"id":"70642","name":"Guti\u00e9rrez Zamora","state_id":3464,"state_code":"VER","country_id":142,"country_code":"MX","latitude":"20.45347000","longitude":"-97.08588000"},{"id":"70654","name":"Hacienda Sotavento","state_id":3464,"state_code":"VER","country_id":142,"country_code":"MX","latitude":"19.13361000","longitude":"-96.18139000"},{"id":"70665","name":"Helio Garc\u00eda Alfaro","state_id":3464,"state_code":"VER","country_id":142,"country_code":"MX","latitude":"17.25968000","longitude":"-94.28849000"},{"id":"70667","name":"Hermanos Cedillo","state_id":3464,"state_code":"VER","country_id":142,"country_code":"MX","latitude":"17.25194000","longitude":"-94.61129000"},{"id":"70671","name":"Hermenegildo J. Aldana","state_id":3464,"state_code":"VER","country_id":142,"country_code":"MX","latitude":"18.00611000","longitude":"-94.61222000"},{"id":"70687","name":"Hidalgo Amajac","state_id":3464,"state_code":"VER","country_id":142,"country_code":"MX","latitude":"20.90500000","longitude":"-97.62944000"},{"id":"70690","name":"Hidalgotitl\u00e1n","state_id":3464,"state_code":"VER","country_id":142,"country_code":"MX","latitude":"17.77051000","longitude":"-94.64703000"},{"id":"70711","name":"Hornitos","state_id":3464,"state_code":"VER","country_id":142,"country_code":"MX","latitude":"19.46083000","longitude":"-96.42111000"},{"id":"70743","name":"Huatusco","state_id":3464,"state_code":"VER","country_id":142,"country_code":"MX","latitude":"19.14876000","longitude":"-96.96760000"},{"id":"70751","name":"Huayacanes","state_id":3464,"state_code":"VER","country_id":142,"country_code":"MX","latitude":"17.91844000","longitude":"-95.27767000"},{"id":"70752","name":"Huayacocotla","state_id":3464,"state_code":"VER","country_id":142,"country_code":"MX","latitude":"20.53671000","longitude":"-98.48080000"},{"id":"70755","name":"Huazuntl\u00e1n","state_id":3464,"state_code":"VER","country_id":142,"country_code":"MX","latitude":"18.15667000","longitude":"-94.79306000"},{"id":"70772","name":"Huexotitla","state_id":3464,"state_code":"VER","country_id":142,"country_code":"MX","latitude":"20.76984000","longitude":"-98.08872000"},{"id":"70776","name":"Hueyapan de Ocampo","state_id":3464,"state_code":"VER","country_id":142,"country_code":"MX","latitude":"18.14479000","longitude":"-95.14873000"},{"id":"70784","name":"Hueytepec","state_id":3464,"state_code":"VER","country_id":142,"country_code":"MX","latitude":"20.32635000","longitude":"-97.02680000"},{"id":"70793","name":"Huiloapan","state_id":3464,"state_code":"VER","country_id":142,"country_code":"MX","latitude":"18.75000000","longitude":"-97.31667000"},{"id":"70794","name":"Huiloapan de Cuauht\u00e9moc","state_id":3464,"state_code":"VER","country_id":142,"country_code":"MX","latitude":"18.81722000","longitude":"-97.15444000"},{"id":"70805","name":"Huitzila","state_id":3464,"state_code":"VER","country_id":142,"country_code":"MX","latitude":"18.71898000","longitude":"-97.17033000"},{"id":"70817","name":"Huixcolotla","state_id":3464,"state_code":"VER","country_id":142,"country_code":"MX","latitude":"18.66556000","longitude":"-96.49750000"},{"id":"70860","name":"Ignacio de la Llave","state_id":3464,"state_code":"VER","country_id":142,"country_code":"MX","latitude":"18.72580000","longitude":"-95.98696000"},{"id":"70849","name":"Ignacio Zaragoza","state_id":3464,"state_code":"VER","country_id":142,"country_code":"MX","latitude":"19.71222000","longitude":"-97.22500000"},{"id":"70864","name":"Ilamatl\u00e1n","state_id":3464,"state_code":"VER","country_id":142,"country_code":"MX","latitude":"20.78053000","longitude":"-98.44320000"},{"id":"70882","name":"Isla","state_id":3464,"state_code":"VER","country_id":142,"country_code":"MX","latitude":"18.06369000","longitude":"-95.55320000"},{"id":"70899","name":"Ixcapantla","state_id":3464,"state_code":"VER","country_id":142,"country_code":"MX","latitude":"19.02571000","longitude":"-96.97052000"},{"id":"70904","name":"Ixcatepec","state_id":3464,"state_code":"VER","country_id":142,"country_code":"MX","latitude":"21.23695000","longitude":"-98.00689000"},{"id":"70905","name":"Ixcatla","state_id":3464,"state_code":"VER","country_id":142,"country_code":"MX","latitude":"19.07528000","longitude":"-96.91889000"},{"id":"70909","name":"Ixhuac\u00e1n de los Reyes","state_id":3464,"state_code":"VER","country_id":142,"country_code":"MX","latitude":"19.35526000","longitude":"-97.11751000"},{"id":"70910","name":"Ixhuapan","state_id":3464,"state_code":"VER","country_id":142,"country_code":"MX","latitude":"18.01333000","longitude":"-94.87667000"},{"id":"70911","name":"Ixhuap\u00e1n","state_id":3464,"state_code":"VER","country_id":142,"country_code":"MX","latitude":"18.17612000","longitude":"-94.79886000"},{"id":"70912","name":"Ixhuatlancillo","state_id":3464,"state_code":"VER","country_id":142,"country_code":"MX","latitude":"18.89766000","longitude":"-97.14899000"},{"id":"70913","name":"Ixhuatl\u00e1n de Madero","state_id":3464,"state_code":"VER","country_id":142,"country_code":"MX","latitude":"20.68879000","longitude":"-98.01177000"},{"id":"70914","name":"Ixhuatl\u00e1n del Caf\u00e9","state_id":3464,"state_code":"VER","country_id":142,"country_code":"MX","latitude":"19.04179000","longitude":"-96.92694000"},{"id":"70915","name":"Ixhuatl\u00e1n del Sureste","state_id":3464,"state_code":"VER","country_id":142,"country_code":"MX","latitude":"18.01368000","longitude":"-94.37794000"},{"id":"70920","name":"Ixpila","state_id":3464,"state_code":"VER","country_id":142,"country_code":"MX","latitude":"19.11837000","longitude":"-96.96675000"},{"id":"70922","name":"Ixtacapa el Chico","state_id":3464,"state_code":"VER","country_id":142,"country_code":"MX","latitude":"18.49001000","longitude":"-96.74246000"},{"id":"70924","name":"Ixtaczoquitl\u00e1n","state_id":3464,"state_code":"VER","country_id":142,"country_code":"MX","latitude":"18.85364000","longitude":"-97.06229000"},{"id":"70958","name":"Jacarandas","state_id":3464,"state_code":"VER","country_id":142,"country_code":"MX","latitude":"19.49556000","longitude":"-96.85278000"},{"id":"70963","name":"Jalacingo","state_id":3464,"state_code":"VER","country_id":142,"country_code":"MX","latitude":"19.80333000","longitude":"-97.30830000"},{"id":"70967","name":"Jalapilla","state_id":3464,"state_code":"VER","country_id":142,"country_code":"MX","latitude":"18.82642000","longitude":"-97.08865000"},{"id":"70970","name":"Jalcomulco","state_id":3464,"state_code":"VER","country_id":142,"country_code":"MX","latitude":"19.33185000","longitude":"-96.76250000"},{"id":"70997","name":"Jamapa","state_id":3464,"state_code":"VER","country_id":142,"country_code":"MX","latitude":"19.04179000","longitude":"-96.24143000"},{"id":"71148","name":"J\u00e1ltipan de Morelos","state_id":3464,"state_code":"VER","country_id":142,"country_code":"MX","latitude":"17.96542000","longitude":"-94.71396000"},{"id":"71022","name":"Jes\u00fas Carranza","state_id":3464,"state_code":"VER","country_id":142,"country_code":"MX","latitude":"17.43526000","longitude":"-95.02637000"},{"id":"71044","name":"Jilotepec","state_id":3464,"state_code":"VER","country_id":142,"country_code":"MX","latitude":"19.61184000","longitude":"-96.95169000"},{"id":"71062","name":"Joach\u00edn","state_id":3464,"state_code":"VER","country_id":142,"country_code":"MX","latitude":"18.63855000","longitude":"-96.23318000"},{"id":"71088","name":"Jos\u00e9 Cardel","state_id":3464,"state_code":"VER","country_id":142,"country_code":"MX","latitude":"19.36810000","longitude":"-96.36951000"},{"id":"71091","name":"Jos\u00e9 F. Guti\u00e9rrez","state_id":3464,"state_code":"VER","country_id":142,"country_code":"MX","latitude":"18.02526000","longitude":"-94.61028000"},{"id":"71116","name":"Juan D\u00edaz Covarrubias","state_id":3464,"state_code":"VER","country_id":142,"country_code":"MX","latitude":"18.15964000","longitude":"-95.18675000"},{"id":"71120","name":"Juan Jacobo Torres [Bodega de Totontepec]","state_id":3464,"state_code":"VER","country_id":142,"country_code":"MX","latitude":"18.33645000","longitude":"-95.26033000"},{"id":"71122","name":"Juan Marcos (San Jos\u00e9 Buenavista)","state_id":3464,"state_code":"VER","country_id":142,"country_code":"MX","latitude":"19.72917000","longitude":"-97.19667000"},{"id":"71126","name":"Juan Rodr\u00edguez Clara","state_id":3464,"state_code":"VER","country_id":142,"country_code":"MX","latitude":"17.99283000","longitude":"-95.40099000"},{"id":"71131","name":"Juchique de Ferrer","state_id":3464,"state_code":"VER","country_id":142,"country_code":"MX","latitude":"19.83985000","longitude":"-96.69463000"},{"id":"71175","name":"La Antigua","state_id":3464,"state_code":"VER","country_id":142,"country_code":"MX","latitude":"19.31619000","longitude":"-96.31736000"},{"id":"71193","name":"La Camelia","state_id":3464,"state_code":"VER","country_id":142,"country_code":"MX","latitude":"20.89631000","longitude":"-97.77247000"},{"id":"71201","name":"La Capilla","state_id":3464,"state_code":"VER","country_id":142,"country_code":"MX","latitude":"18.89442000","longitude":"-96.24132000"},{"id":"71213","name":"La Cerquilla","state_id":3464,"state_code":"VER","country_id":142,"country_code":"MX","latitude":"17.90786000","longitude":"-95.05497000"},{"id":"71221","name":"La Colonia Guadalupe","state_id":3464,"state_code":"VER","country_id":142,"country_code":"MX","latitude":"20.34387000","longitude":"-97.62223000"},{"id":"71229","name":"La Concepci\u00f3n","state_id":3464,"state_code":"VER","country_id":142,"country_code":"MX","latitude":"19.60620000","longitude":"-96.90016000"},{"id":"71254","name":"La Cuesta","state_id":3464,"state_code":"VER","country_id":142,"country_code":"MX","latitude":"18.79028000","longitude":"-97.16806000"},{"id":"71258","name":"La Defensa","state_id":3464,"state_code":"VER","country_id":142,"country_code":"MX","latitude":"20.10507000","longitude":"-96.96079000"},{"id":"71300","name":"La Gloria","state_id":3464,"state_code":"VER","country_id":142,"country_code":"MX","latitude":"19.42631000","longitude":"-96.40211000"},{"id":"71311","name":"La Guadalupe","state_id":3464,"state_code":"VER","country_id":142,"country_code":"MX","latitude":"20.37336000","longitude":"-96.91925000"},{"id":"71313","name":"La Gu\u00e1sima","state_id":3464,"state_code":"VER","country_id":142,"country_code":"MX","latitude":"20.53973000","longitude":"-97.24950000"},{"id":"71318","name":"La Horqueta (Poblado Doce)","state_id":3464,"state_code":"VER","country_id":142,"country_code":"MX","latitude":"17.21012000","longitude":"-94.20249000"},{"id":"71325","name":"La Isla","state_id":3464,"state_code":"VER","country_id":142,"country_code":"MX","latitude":"18.60000000","longitude":"-96.15000000"},{"id":"71326","name":"La Isla (Kil\u00f3metro 10)","state_id":3464,"state_code":"VER","country_id":142,"country_code":"MX","latitude":"20.60806000","longitude":"-97.50139000"},{"id":"71328","name":"La Isla de Chapachapa","state_id":3464,"state_code":"VER","country_id":142,"country_code":"MX","latitude":"20.12186000","longitude":"-96.88208000"},{"id":"71327","name":"La Isla Km 10","state_id":3464,"state_code":"VER","country_id":142,"country_code":"MX","latitude":"20.60677000","longitude":"-97.49950000"},{"id":"71329","name":"La Joya","state_id":3464,"state_code":"VER","country_id":142,"country_code":"MX","latitude":"19.61099000","longitude":"-97.02687000"},{"id":"71335","name":"La Junta","state_id":3464,"state_code":"VER","country_id":142,"country_code":"MX","latitude":"18.49136000","longitude":"-96.65720000"},{"id":"71344","name":"La Laguna","state_id":3464,"state_code":"VER","country_id":142,"country_code":"MX","latitude":"19.48214000","longitude":"-96.93366000"},{"id":"71347","name":"La Laguna y Monte del Castillo","state_id":3464,"state_code":"VER","country_id":142,"country_code":"MX","latitude":"18.98334000","longitude":"-96.07806000"},{"id":"71353","name":"La Libertad","state_id":3464,"state_code":"VER","country_id":142,"country_code":"MX","latitude":"20.05345000","longitude":"-96.97314000"},{"id":"71410","name":"La Nueva Era","state_id":3464,"state_code":"VER","country_id":142,"country_code":"MX","latitude":"17.69861000","longitude":"-95.80833000"},{"id":"71411","name":"La Nueva Victoria","state_id":3464,"state_code":"VER","country_id":142,"country_code":"MX","latitude":"18.65639000","longitude":"-95.25806000"},{"id":"71413","name":"La Ordu\u00f1a","state_id":3464,"state_code":"VER","country_id":142,"country_code":"MX","latitude":"19.45141000","longitude":"-96.93598000"},{"id":"71419","name":"La Palma","state_id":3464,"state_code":"VER","country_id":142,"country_code":"MX","latitude":"20.17941000","longitude":"-97.06718000"},{"id":"71428","name":"La Palmilla","state_id":3464,"state_code":"VER","country_id":142,"country_code":"MX","latitude":"20.02041000","longitude":"-97.14553000"},{"id":"71441","name":"La Perla","state_id":3464,"state_code":"VER","country_id":142,"country_code":"MX","latitude":"18.92817000","longitude":"-97.13362000"},{"id":"71464","name":"La Providencia","state_id":3464,"state_code":"VER","country_id":142,"country_code":"MX","latitude":"18.75304000","longitude":"-96.77087000"},{"id":"71473","name":"La Reforma","state_id":3464,"state_code":"VER","country_id":142,"country_code":"MX","latitude":"19.59664000","longitude":"-96.63302000"},{"id":"71488","name":"La Sidra","state_id":3464,"state_code":"VER","country_id":142,"country_code":"MX","latitude":"18.93380000","longitude":"-97.07989000"},{"id":"71497","name":"La Sombra","state_id":3464,"state_code":"VER","country_id":142,"country_code":"MX","latitude":"19.75076000","longitude":"-96.71420000"},{"id":"71503","name":"La Tinaja","state_id":3464,"state_code":"VER","country_id":142,"country_code":"MX","latitude":"18.76082000","longitude":"-96.46283000"},{"id":"71505","name":"La Toma","state_id":3464,"state_code":"VER","country_id":142,"country_code":"MX","latitude":"19.45278000","longitude":"-97.19361000"},{"id":"71523","name":"La Uni\u00f3n","state_id":3464,"state_code":"VER","country_id":142,"country_code":"MX","latitude":"20.89222000","longitude":"-97.66528000"},{"id":"71525","name":"La Uni\u00f3n Paso Largo","state_id":3464,"state_code":"VER","country_id":142,"country_code":"MX","latitude":"20.14224000","longitude":"-96.99995000"},{"id":"71532","name":"La Victoria","state_id":3464,"state_code":"VER","country_id":142,"country_code":"MX","latitude":"18.37486000","longitude":"-95.12213000"},{"id":"71535","name":"La Victoria (La Pe\u00f1ita)","state_id":3464,"state_code":"VER","country_id":142,"country_code":"MX","latitude":"20.93694000","longitude":"-97.37250000"},{"id":"71547","name":"Laguna Chica (Pueblo Nuevo)","state_id":3464,"state_code":"VER","country_id":142,"country_code":"MX","latitude":"18.54306000","longitude":"-96.73306000"},{"id":"71551","name":"Laguna de Farf\u00e1n","state_id":3464,"state_code":"VER","country_id":142,"country_code":"MX","latitude":"19.80327000","longitude":"-96.64386000"},{"id":"71560","name":"Laguneta","state_id":3464,"state_code":"VER","country_id":142,"country_code":"MX","latitude":"18.34298000","longitude":"-95.15181000"},{"id":"71569","name":"Landero y Coss","state_id":3464,"state_code":"VER","country_id":142,"country_code":"MX","latitude":"19.73935000","longitude":"-96.85009000"},{"id":"71573","name":"Las Amapolas","state_id":3464,"state_code":"VER","country_id":142,"country_code":"MX","latitude":"19.15194000","longitude":"-96.19778000"},{"id":"71577","name":"Las Barrillas","state_id":3464,"state_code":"VER","country_id":142,"country_code":"MX","latitude":"18.18617000","longitude":"-94.59542000"},{"id":"71587","name":"Las Choapas","state_id":3464,"state_code":"VER","country_id":142,"country_code":"MX","latitude":"17.91177000","longitude":"-94.09646000"},{"id":"71602","name":"Las Higueras","state_id":3464,"state_code":"VER","country_id":142,"country_code":"MX","latitude":"20.03693000","longitude":"-96.62199000"},{"id":"71612","name":"Las Lomas","state_id":3464,"state_code":"VER","country_id":142,"country_code":"MX","latitude":"20.26067000","longitude":"-97.61528000"},{"id":"71614","name":"Las Lomas de Tacamichapan","state_id":3464,"state_code":"VER","country_id":142,"country_code":"MX","latitude":"17.86611000","longitude":"-94.70833000"},{"id":"71624","name":"Las Minas","state_id":3464,"state_code":"VER","country_id":142,"country_code":"MX","latitude":"19.70449000","longitude":"-97.14699000"},{"id":"71639","name":"Las Sabanetas","state_id":3464,"state_code":"VER","country_id":142,"country_code":"MX","latitude":"18.12661000","longitude":"-95.82265000"},{"id":"71640","name":"Las Sabinas","state_id":3464,"state_code":"VER","country_id":142,"country_code":"MX","latitude":"21.31806000","longitude":"-97.88083000"},{"id":"71645","name":"Las Trancas","state_id":3464,"state_code":"VER","country_id":142,"country_code":"MX","latitude":"19.50444000","longitude":"-96.86444000"},{"id":"71653","name":"Las Vigas de Ram\u00edrez","state_id":3464,"state_code":"VER","country_id":142,"country_code":"MX","latitude":"19.63722000","longitude":"-97.09821000"},{"id":"71900","name":"L\u00e1zaro C\u00e1rdenas (Santana)","state_id":3464,"state_code":"VER","country_id":142,"country_code":"MX","latitude":"20.22500000","longitude":"-97.59306000"},{"id":"71662","name":"Lerdo de Tejada","state_id":3464,"state_code":"VER","country_id":142,"country_code":"MX","latitude":"18.62936000","longitude":"-95.51968000"},{"id":"71678","name":"Limones","state_id":3464,"state_code":"VER","country_id":142,"country_code":"MX","latitude":"19.33820000","longitude":"-96.92336000"},{"id":"71680","name":"Lindavista","state_id":3464,"state_code":"VER","country_id":142,"country_code":"MX","latitude":"18.08899000","longitude":"-95.77597000"},{"id":"71691","name":"Llano de Enmedio","state_id":3464,"state_code":"VER","country_id":142,"country_code":"MX","latitude":"20.78328000","longitude":"-98.01364000"},{"id":"71685","name":"Llano Grande","state_id":3464,"state_code":"VER","country_id":142,"country_code":"MX","latitude":"19.37035000","longitude":"-96.88002000"},{"id":"71711","name":"Loma Angosta","state_id":3464,"state_code":"VER","country_id":142,"country_code":"MX","latitude":"18.78309000","longitude":"-96.67588000"},{"id":"71736","name":"Loma de los Carmona","state_id":3464,"state_code":"VER","country_id":142,"country_code":"MX","latitude":"19.10556000","longitude":"-96.39369000"},{"id":"71732","name":"Loma de Sogotegoyo","state_id":3464,"state_code":"VER","country_id":142,"country_code":"MX","latitude":"18.21896000","longitude":"-94.97373000"},{"id":"71719","name":"Loma Grande","state_id":3464,"state_code":"VER","country_id":142,"country_code":"MX","latitude":"18.92250000","longitude":"-97.23083000"},{"id":"71745","name":"Lomas de Barrillas","state_id":3464,"state_code":"VER","country_id":142,"country_code":"MX","latitude":"18.14806000","longitude":"-94.52639000"},{"id":"71748","name":"Lomas de R\u00edo Medio Cuatro","state_id":3464,"state_code":"VER","country_id":142,"country_code":"MX","latitude":"19.19333000","longitude":"-96.21056000"},{"id":"71742","name":"Lomas Verdes","state_id":3464,"state_code":"VER","country_id":142,"country_code":"MX","latitude":"19.50446000","longitude":"-96.88899000"},{"id":"71768","name":"Los Altos","state_id":3464,"state_code":"VER","country_id":142,"country_code":"MX","latitude":"21.50976000","longitude":"-97.75705000"},{"id":"71873","name":"Los \u00cddolos","state_id":3464,"state_code":"VER","country_id":142,"country_code":"MX","latitude":"19.41173000","longitude":"-96.51808000"},{"id":"71787","name":"Los Cerritos","state_id":3464,"state_code":"VER","country_id":142,"country_code":"MX","latitude":"18.07884000","longitude":"-94.61668000"},{"id":"71810","name":"Los Lirios","state_id":3464,"state_code":"VER","country_id":142,"country_code":"MX","latitude":"18.50058000","longitude":"-95.38828000"},{"id":"71814","name":"Los Mangos","state_id":3464,"state_code":"VER","country_id":142,"country_code":"MX","latitude":"18.24361000","longitude":"-95.12222000"},{"id":"71818","name":"Los Molinos","state_id":3464,"state_code":"VER","country_id":142,"country_code":"MX","latitude":"19.59565000","longitude":"-97.21513000"},{"id":"71820","name":"Los Naranjos","state_id":3464,"state_code":"VER","country_id":142,"country_code":"MX","latitude":"18.33111000","longitude":"-95.24167000"},{"id":"71829","name":"Los Pescados","state_id":3464,"state_code":"VER","country_id":142,"country_code":"MX","latitude":"19.56114000","longitude":"-97.14848000"},{"id":"71833","name":"Los Pinos","state_id":3464,"state_code":"VER","country_id":142,"country_code":"MX","latitude":"18.44389000","longitude":"-95.24333000"},{"id":"71846","name":"Los Reyes","state_id":3464,"state_code":"VER","country_id":142,"country_code":"MX","latitude":"18.67428000","longitude":"-97.03851000"},{"id":"71854","name":"Los Robles","state_id":3464,"state_code":"VER","country_id":142,"country_code":"MX","latitude":"18.97305000","longitude":"-96.11768000"},{"id":"71864","name":"Los Tigres (San Marcos)","state_id":3464,"state_code":"VER","country_id":142,"country_code":"MX","latitude":"17.89056000","longitude":"-95.34944000"},{"id":"71865","name":"Los Torrentes","state_id":3464,"state_code":"VER","country_id":142,"country_code":"MX","latitude":"19.20194000","longitude":"-96.21139000"},{"id":"71904","name":"Macedonio Alonso","state_id":3464,"state_code":"VER","country_id":142,"country_code":"MX","latitude":"20.27417000","longitude":"-97.69194000"},{"id":"71919","name":"Mafafas","state_id":3464,"state_code":"VER","country_id":142,"country_code":"MX","latitude":"19.65866000","longitude":"-96.75591000"},{"id":"71920","name":"Magdalena","state_id":3464,"state_code":"VER","country_id":142,"country_code":"MX","latitude":"18.76066000","longitude":"-97.04385000"},{"id":"71939","name":"Mahuixtlan","state_id":3464,"state_code":"VER","country_id":142,"country_code":"MX","latitude":"19.40948000","longitude":"-96.91750000"},{"id":"71949","name":"Maltrata","state_id":3464,"state_code":"VER","country_id":142,"country_code":"MX","latitude":"18.81091000","longitude":"-97.27538000"},{"id":"71962","name":"Manuel Le\u00f3n","state_id":3464,"state_code":"VER","country_id":142,"country_code":"MX","latitude":"18.85365000","longitude":"-96.87124000"},{"id":"71963","name":"Manuel Mar\u00eda Contreras","state_id":3464,"state_code":"VER","country_id":142,"country_code":"MX","latitude":"20.44617000","longitude":"-97.48329000"},{"id":"71976","name":"Mapachapa","state_id":3464,"state_code":"VER","country_id":142,"country_code":"MX","latitude":"18.02979000","longitude":"-94.56700000"},{"id":"72006","name":"Mar\u00eda de la Torre","state_id":3464,"state_code":"VER","country_id":142,"country_code":"MX","latitude":"20.12915000","longitude":"-96.99544000"},{"id":"71991","name":"Mariano Escobedo","state_id":3464,"state_code":"VER","country_id":142,"country_code":"MX","latitude":"18.91333000","longitude":"-97.13000000"},{"id":"72004","name":"Mart\u00ednez de la Torre","state_id":3464,"state_code":"VER","country_id":142,"country_code":"MX","latitude":"20.07082000","longitude":"-97.06078000"},{"id":"72013","name":"Mata de Indio","state_id":3464,"state_code":"VER","country_id":142,"country_code":"MX","latitude":"19.23028000","longitude":"-96.84136000"},{"id":"72009","name":"Mata Loma","state_id":3464,"state_code":"VER","country_id":142,"country_code":"MX","latitude":"19.13172000","longitude":"-96.29587000"},{"id":"72010","name":"Mata Naranjo","state_id":3464,"state_code":"VER","country_id":142,"country_code":"MX","latitude":"18.77746000","longitude":"-96.71333000"},{"id":"72011","name":"Mata Obscura","state_id":3464,"state_code":"VER","country_id":142,"country_code":"MX","latitude":"19.21795000","longitude":"-96.85426000"},{"id":"72012","name":"Mata Tenatito (Casco Hacienda)","state_id":3464,"state_code":"VER","country_id":142,"country_code":"MX","latitude":"18.72187000","longitude":"-96.66288000"},{"id":"72014","name":"Matacapan","state_id":3464,"state_code":"VER","country_id":142,"country_code":"MX","latitude":"18.43472000","longitude":"-95.16583000"},{"id":"72051","name":"Mazumiapam","state_id":3464,"state_code":"VER","country_id":142,"country_code":"MX","latitude":"18.30744000","longitude":"-95.33044000"},{"id":"72056","name":"Mecatl\u00e1n","state_id":3464,"state_code":"VER","country_id":142,"country_code":"MX","latitude":"20.21349000","longitude":"-97.65741000"},{"id":"72058","name":"Mecayapan","state_id":3464,"state_code":"VER","country_id":142,"country_code":"MX","latitude":"18.22001000","longitude":"-94.83794000"},{"id":"72061","name":"Medell\u00edn","state_id":3464,"state_code":"VER","country_id":142,"country_code":"MX","latitude":"19.00418000","longitude":"-96.15836000"},{"id":"72062","name":"Medell\u00edn de Bravo","state_id":3464,"state_code":"VER","country_id":142,"country_code":"MX","latitude":"19.05869000","longitude":"-96.15781000"},{"id":"72064","name":"Medias Aguas","state_id":3464,"state_code":"VER","country_id":142,"country_code":"MX","latitude":"17.66776000","longitude":"-95.02857000"},{"id":"72072","name":"Melchor Ocampo","state_id":3464,"state_code":"VER","country_id":142,"country_code":"MX","latitude":"19.83972000","longitude":"-97.30667000"},{"id":"72076","name":"Mequetla","state_id":3464,"state_code":"VER","country_id":142,"country_code":"MX","latitude":"20.79468000","longitude":"-97.68855000"},{"id":"72080","name":"Mesa de Guadalupe","state_id":3464,"state_code":"VER","country_id":142,"country_code":"MX","latitude":"19.56403000","longitude":"-96.69948000"},{"id":"72092","name":"Metlac Hern\u00e1ndez (Metlac Primero)","state_id":3464,"state_code":"VER","country_id":142,"country_code":"MX","latitude":"18.97750000","longitude":"-97.14306000"},{"id":"72097","name":"Mexcala","state_id":3464,"state_code":"VER","country_id":142,"country_code":"MX","latitude":"18.69556000","longitude":"-97.16472000"},{"id":"72116","name":"Miahuatl\u00e1n","state_id":3464,"state_code":"VER","country_id":142,"country_code":"MX","latitude":"19.73629000","longitude":"-96.88062000"},{"id":"72131","name":"Miguel Hidalgo","state_id":3464,"state_code":"VER","country_id":142,"country_code":"MX","latitude":"20.55316000","longitude":"-97.50200000"},{"id":"72145","name":"Minatitl\u00e1n","state_id":3464,"state_code":"VER","country_id":142,"country_code":"MX","latitude":"18.00011000","longitude":"-94.55690000"},{"id":"72150","name":"Minzapan","state_id":3464,"state_code":"VER","country_id":142,"country_code":"MX","latitude":"18.13873000","longitude":"-94.72733000"},{"id":"72157","name":"Misantla","state_id":3464,"state_code":"VER","country_id":142,"country_code":"MX","latitude":"19.92992000","longitude":"-96.85194000"},{"id":"72167","name":"Mixquiapan","state_id":3464,"state_code":"VER","country_id":142,"country_code":"MX","latitude":"19.70111000","longitude":"-97.27839000"},{"id":"72169","name":"Mixtla de Altamirano","state_id":3464,"state_code":"VER","country_id":142,"country_code":"MX","latitude":"18.59591000","longitude":"-96.99293000"},{"id":"72188","name":"Moloac\u00e1n","state_id":3464,"state_code":"VER","country_id":142,"country_code":"MX","latitude":"17.98544000","longitude":"-94.34714000"},{"id":"72196","name":"Monte Blanco","state_id":3464,"state_code":"VER","country_id":142,"country_code":"MX","latitude":"18.96642000","longitude":"-97.01684000"},{"id":"72206","name":"Monte Salas","state_id":3464,"state_code":"VER","country_id":142,"country_code":"MX","latitude":"18.93722000","longitude":"-97.01833000"},{"id":"72208","name":"Monte Verde Chiver\u00eda","state_id":3464,"state_code":"VER","country_id":142,"country_code":"MX","latitude":"19.70304000","longitude":"-96.69601000"},{"id":"72224","name":"Moralillo","state_id":3464,"state_code":"VER","country_id":142,"country_code":"MX","latitude":"22.22552000","longitude":"-97.91213000"},{"id":"72228","name":"Morelos","state_id":3464,"state_code":"VER","country_id":142,"country_code":"MX","latitude":"18.17986000","longitude":"-94.94981000"},{"id":"72243","name":"Motzorongo","state_id":3464,"state_code":"VER","country_id":142,"country_code":"MX","latitude":"18.64252000","longitude":"-96.72949000"},{"id":"72245","name":"Moyoapan","state_id":3464,"state_code":"VER","country_id":142,"country_code":"MX","latitude":"18.91681000","longitude":"-97.04559000"},{"id":"72250","name":"Mozomboa","state_id":3464,"state_code":"VER","country_id":142,"country_code":"MX","latitude":"19.50437000","longitude":"-96.47738000"},{"id":"72254","name":"Mundo Nuevo","state_id":3464,"state_code":"VER","country_id":142,"country_code":"MX","latitude":"18.08831000","longitude":"-94.39024000"},{"id":"72276","name":"Nanchital de L\u00e1zaro C\u00e1rdenas del R\u00edo","state_id":3464,"state_code":"VER","country_id":142,"country_code":"MX","latitude":"18.07117000","longitude":"-94.40756000"},{"id":"72278","name":"Naolinco","state_id":3464,"state_code":"VER","country_id":142,"country_code":"MX","latitude":"19.63666000","longitude":"-96.85254000"},{"id":"72279","name":"Naolinco de Victoria","state_id":3464,"state_code":"VER","country_id":142,"country_code":"MX","latitude":"19.65474000","longitude":"-96.87320000"},{"id":"72281","name":"Naranjal","state_id":3464,"state_code":"VER","country_id":142,"country_code":"MX","latitude":"18.79836000","longitude":"-96.95972000"},{"id":"72283","name":"Naranjos","state_id":3464,"state_code":"VER","country_id":142,"country_code":"MX","latitude":"21.35087000","longitude":"-97.68656000"},{"id":"72284","name":"Naranjos Amatl\u00e1n","state_id":3464,"state_code":"VER","country_id":142,"country_code":"MX","latitude":"21.31139000","longitude":"-97.69131000"},{"id":"72292","name":"Nautla","state_id":3464,"state_code":"VER","country_id":142,"country_code":"MX","latitude":"20.20795000","longitude":"-96.77305000"},{"id":"72306","name":"Necoxtla","state_id":3464,"state_code":"VER","country_id":142,"country_code":"MX","latitude":"18.77861000","longitude":"-97.15361000"},{"id":"72336","name":"Ni\u00f1os H\u00e9roes","state_id":3464,"state_code":"VER","country_id":142,"country_code":"MX","latitude":"17.43493000","longitude":"-94.49884000"},{"id":"72318","name":"Nicol\u00e1s Blanco (San Pancho)","state_id":3464,"state_code":"VER","country_id":142,"country_code":"MX","latitude":"19.35250000","longitude":"-96.33833000"},{"id":"72339","name":"Nogales","state_id":3464,"state_code":"VER","country_id":142,"country_code":"MX","latitude":"18.82776000","longitude":"-97.16311000"},{"id":"72346","name":"Nopalapan","state_id":3464,"state_code":"VER","country_id":142,"country_code":"MX","latitude":"18.11211000","longitude":"-95.33093000"},{"id":"72348","name":"Nopaltepec","state_id":3464,"state_code":"VER","country_id":142,"country_code":"MX","latitude":"18.27686000","longitude":"-95.99921000"},{"id":"72357","name":"Novara","state_id":3464,"state_code":"VER","country_id":142,"country_code":"MX","latitude":"18.19968000","longitude":"-96.10806000"},{"id":"72406","name":"Nuevo Progreso","state_id":3464,"state_code":"VER","country_id":142,"country_code":"MX","latitude":"20.61820000","longitude":"-97.50756000"},{"id":"72408","name":"Nuevo San Jos\u00e9 Independencia","state_id":3464,"state_code":"VER","country_id":142,"country_code":"MX","latitude":"18.38968000","longitude":"-96.06138000"},{"id":"72431","name":"Oasis","state_id":3464,"state_code":"VER","country_id":142,"country_code":"MX","latitude":"19.20167000","longitude":"-96.21917000"},{"id":"72445","name":"Ocelota","state_id":3464,"state_code":"VER","country_id":142,"country_code":"MX","latitude":"18.39920000","longitude":"-95.28333000"},{"id":"72451","name":"Ocotal Chico","state_id":3464,"state_code":"VER","country_id":142,"country_code":"MX","latitude":"18.25771000","longitude":"-94.86047000"},{"id":"72456","name":"Ocotitl\u00e1n","state_id":3464,"state_code":"VER","country_id":142,"country_code":"MX","latitude":"19.04256000","longitude":"-96.90832000"},{"id":"72465","name":"Ocozotepec","state_id":3464,"state_code":"VER","country_id":142,"country_code":"MX","latitude":"18.25895000","longitude":"-94.91040000"},{"id":"72476","name":"Ohuapan","state_id":3464,"state_code":"VER","country_id":142,"country_code":"MX","latitude":"19.25077000","longitude":"-96.98686000"},{"id":"72478","name":"Ohuilapam","state_id":3464,"state_code":"VER","country_id":142,"country_code":"MX","latitude":"18.40204000","longitude":"-95.26279000"},{"id":"72480","name":"Ojite Rancho Nuevo","state_id":3464,"state_code":"VER","country_id":142,"country_code":"MX","latitude":"20.96944000","longitude":"-97.52806000"},{"id":"72503","name":"Oluta","state_id":3464,"state_code":"VER","country_id":142,"country_code":"MX","latitude":"17.92972000","longitude":"-94.89662000"},{"id":"72504","name":"Omealca","state_id":3464,"state_code":"VER","country_id":142,"country_code":"MX","latitude":"18.74732000","longitude":"-96.78520000"},{"id":"72526","name":"Orilla del Monte","state_id":3464,"state_code":"VER","country_id":142,"country_code":"MX","latitude":"19.66078000","longitude":"-97.29274000"},{"id":"72527","name":"Orizaba","state_id":3464,"state_code":"VER","country_id":142,"country_code":"MX","latitude":"18.85195000","longitude":"-97.09957000"},{"id":"72536","name":"Otates","state_id":3464,"state_code":"VER","country_id":142,"country_code":"MX","latitude":"19.52100000","longitude":"-96.71576000"},{"id":"72538","name":"Otatitl\u00e1n","state_id":3464,"state_code":"VER","country_id":142,"country_code":"MX","latitude":"18.17706000","longitude":"-96.03350000"},{"id":"72539","name":"Oteapan","state_id":3464,"state_code":"VER","country_id":142,"country_code":"MX","latitude":"18.00173000","longitude":"-94.66615000"},{"id":"72541","name":"Otilpan","state_id":3464,"state_code":"VER","country_id":142,"country_code":"MX","latitude":"19.55722000","longitude":"-96.97667000"},{"id":"72545","name":"Oviedo","state_id":3464,"state_code":"VER","country_id":142,"country_code":"MX","latitude":"22.04478000","longitude":"-98.40043000"},{"id":"72559","name":"Ozuluama de Mascare\u00f1as","state_id":3464,"state_code":"VER","country_id":142,"country_code":"MX","latitude":"21.66040000","longitude":"-97.85049000"},{"id":"72567","name":"Pacho Nuevo","state_id":3464,"state_code":"VER","country_id":142,"country_code":"MX","latitude":"19.47717000","longitude":"-96.87842000"},{"id":"72568","name":"Pacho Viejo","state_id":3464,"state_code":"VER","country_id":142,"country_code":"MX","latitude":"19.48239000","longitude":"-96.91659000"},{"id":"72574","name":"Pahua Hueca","state_id":3464,"state_code":"VER","country_id":142,"country_code":"MX","latitude":"19.96139000","longitude":"-97.05511000"},{"id":"72580","name":"Pajapan","state_id":3464,"state_code":"VER","country_id":142,"country_code":"MX","latitude":"18.26267000","longitude":"-94.69172000"},{"id":"72587","name":"Palma Sola","state_id":3464,"state_code":"VER","country_id":142,"country_code":"MX","latitude":"19.77132000","longitude":"-96.43225000"},{"id":"72589","name":"Palmar Grande","state_id":3464,"state_code":"VER","country_id":142,"country_code":"MX","latitude":"18.51511000","longitude":"-96.77880000"},{"id":"72594","name":"Palmas de Abajo","state_id":3464,"state_code":"VER","country_id":142,"country_code":"MX","latitude":"19.59001000","longitude":"-96.43659000"},{"id":"72599","name":"Palmillas","state_id":3464,"state_code":"VER","country_id":142,"country_code":"MX","latitude":"18.81525000","longitude":"-96.77167000"},{"id":"72602","name":"Palmira","state_id":3464,"state_code":"VER","country_id":142,"country_code":"MX","latitude":"18.88278000","longitude":"-97.11139000"},{"id":"72606","name":"Palo Bendito","state_id":3464,"state_code":"VER","country_id":142,"country_code":"MX","latitude":"20.45710000","longitude":"-98.50017000"},{"id":"72609","name":"Palo Gacho","state_id":3464,"state_code":"VER","country_id":142,"country_code":"MX","latitude":"19.39104000","longitude":"-96.63675000"},{"id":"72636","name":"Papantla de Olarte","state_id":3464,"state_code":"VER","country_id":142,"country_code":"MX","latitude":"20.44655000","longitude":"-97.32494000"},{"id":"72643","name":"Paraiso Novillero","state_id":3464,"state_code":"VER","country_id":142,"country_code":"MX","latitude":"18.25294000","longitude":"-95.93610000"},{"id":"72645","name":"Paraje Nuevo","state_id":3464,"state_code":"VER","country_id":142,"country_code":"MX","latitude":"18.87886000","longitude":"-96.86066000"},{"id":"72691","name":"Paso de Ovejas","state_id":3464,"state_code":"VER","country_id":142,"country_code":"MX","latitude":"19.28450000","longitude":"-96.44037000"},{"id":"72693","name":"Paso de Valencia","state_id":3464,"state_code":"VER","country_id":142,"country_code":"MX","latitude":"20.27186000","longitude":"-97.33346000"},{"id":"72696","name":"Paso del Correo","state_id":3464,"state_code":"VER","country_id":142,"country_code":"MX","latitude":"20.31619000","longitude":"-97.27216000"},{"id":"72697","name":"Paso del Macho","state_id":3464,"state_code":"VER","country_id":142,"country_code":"MX","latitude":"18.97098000","longitude":"-96.72419000"},{"id":"72698","name":"Paso del Toro","state_id":3464,"state_code":"VER","country_id":142,"country_code":"MX","latitude":"19.03500000","longitude":"-96.13555000"},{"id":"72684","name":"Paso Nacional","state_id":3464,"state_code":"VER","country_id":142,"country_code":"MX","latitude":"18.76639000","longitude":"-95.74861000"},{"id":"73007","name":"P\u00e1nuco","state_id":3464,"state_code":"VER","country_id":142,"country_code":"MX","latitude":"22.05373000","longitude":"-98.18498000"},{"id":"72753","name":"Pe\u00f1uela","state_id":3464,"state_code":"VER","country_id":142,"country_code":"MX","latitude":"18.86432000","longitude":"-96.89327000"},{"id":"72737","name":"Perote","state_id":3464,"state_code":"VER","country_id":142,"country_code":"MX","latitude":"19.56233000","longitude":"-97.24235000"},{"id":"72738","name":"Perseverancia","state_id":3464,"state_code":"VER","country_id":142,"country_code":"MX","latitude":"22.21990000","longitude":"-97.99627000"},{"id":"72767","name":"Piedra Parada","state_id":3464,"state_code":"VER","country_id":142,"country_code":"MX","latitude":"19.34654000","longitude":"-96.96013000"},{"id":"72768","name":"Piedra Pinta","state_id":3464,"state_code":"VER","country_id":142,"country_code":"MX","latitude":"19.99115000","longitude":"-97.19538000"},{"id":"72770","name":"Piedras Negras","state_id":3464,"state_code":"VER","country_id":142,"country_code":"MX","latitude":"18.77026000","longitude":"-96.17178000"},{"id":"72776","name":"Piletas","state_id":3464,"state_code":"VER","country_id":142,"country_code":"MX","latitude":"19.58806000","longitude":"-96.97861000"},{"id":"72786","name":"Pisaflores","state_id":3464,"state_code":"VER","country_id":142,"country_code":"MX","latitude":"20.60941000","longitude":"-97.92782000"},{"id":"72796","name":"Plan de Arroyos","state_id":3464,"state_code":"VER","country_id":142,"country_code":"MX","latitude":"19.89297000","longitude":"-97.10888000"},{"id":"72797","name":"Plan de Ayala","state_id":3464,"state_code":"VER","country_id":142,"country_code":"MX","latitude":"20.54889000","longitude":"-97.47129000"},{"id":"72802","name":"Plan de Iguala","state_id":3464,"state_code":"VER","country_id":142,"country_code":"MX","latitude":"22.03638000","longitude":"-98.46457000"},{"id":"72803","name":"Plan de las Hayas","state_id":3464,"state_code":"VER","country_id":142,"country_code":"MX","latitude":"19.75963000","longitude":"-96.67594000"},{"id":"72804","name":"Plan del R\u00edo","state_id":3464,"state_code":"VER","country_id":142,"country_code":"MX","latitude":"19.40184000","longitude":"-96.65250000"},{"id":"72808","name":"Plat\u00f3n S\u00e1nchez","state_id":3464,"state_code":"VER","country_id":142,"country_code":"MX","latitude":"21.27182000","longitude":"-98.37456000"},{"id":"72812","name":"Playa de Chachalacas","state_id":3464,"state_code":"VER","country_id":142,"country_code":"MX","latitude":"19.42352000","longitude":"-96.32280000"},{"id":"72813","name":"Playa de la Libertad","state_id":3464,"state_code":"VER","country_id":142,"country_code":"MX","latitude":"19.08306000","longitude":"-96.09778000"},{"id":"72811","name":"Playa Vicente","state_id":3464,"state_code":"VER","country_id":142,"country_code":"MX","latitude":"17.83107000","longitude":"-95.81189000"},{"id":"72820","name":"Poblado 10","state_id":3464,"state_code":"VER","country_id":142,"country_code":"MX","latitude":"17.27722000","longitude":"-94.45194000"},{"id":"72825","name":"Poblado Cinco","state_id":3464,"state_code":"VER","country_id":142,"country_code":"MX","latitude":"17.27453000","longitude":"-94.55152000"},{"id":"72826","name":"Poblado Dos","state_id":3464,"state_code":"VER","country_id":142,"country_code":"MX","latitude":"18.31895000","longitude":"-96.03986000"},{"id":"72829","name":"Poblado Tres","state_id":3464,"state_code":"VER","country_id":142,"country_code":"MX","latitude":"18.28929000","longitude":"-96.09114000"},{"id":"72840","name":"Polutla","state_id":3464,"state_code":"VER","country_id":142,"country_code":"MX","latitude":"20.52799000","longitude":"-97.25884000"},{"id":"72867","name":"Potrero del Llano","state_id":3464,"state_code":"VER","country_id":142,"country_code":"MX","latitude":"21.07970000","longitude":"-97.72814000"},{"id":"72865","name":"Potrero Viejo","state_id":3464,"state_code":"VER","country_id":142,"country_code":"MX","latitude":"18.87733000","longitude":"-96.84357000"},{"id":"72870","name":"Poza Rica de Hidalgo","state_id":3464,"state_code":"VER","country_id":142,"country_code":"MX","latitude":"20.53315000","longitude":"-97.45946000"},{"id":"72893","name":"Presidio","state_id":3464,"state_code":"VER","country_id":142,"country_code":"MX","latitude":"19.06933000","longitude":"-96.97209000"},{"id":"72894","name":"Presidio (Plan de Libres)","state_id":3464,"state_code":"VER","country_id":142,"country_code":"MX","latitude":"18.68056000","longitude":"-96.77194000"},{"id":"72899","name":"Primero de Mayo","state_id":3464,"state_code":"VER","country_id":142,"country_code":"MX","latitude":"22.22524000","longitude":"-97.81940000"},{"id":"72920","name":"Progreso de Zaragoza","state_id":3464,"state_code":"VER","country_id":142,"country_code":"MX","latitude":"20.27490000","longitude":"-97.71163000"},{"id":"72928","name":"Pueblillo","state_id":3464,"state_code":"VER","country_id":142,"country_code":"MX","latitude":"20.25438000","longitude":"-97.25523000"},{"id":"72952","name":"Pueblo Viejo","state_id":3464,"state_code":"VER","country_id":142,"country_code":"MX","latitude":"22.16081000","longitude":"-97.91013000"},{"id":"72957","name":"Puente de Piedra","state_id":3464,"state_code":"VER","country_id":142,"country_code":"MX","latitude":"20.60550000","longitude":"-97.19601000"},{"id":"72955","name":"Puente Jula","state_id":3464,"state_code":"VER","country_id":142,"country_code":"MX","latitude":"19.20018000","longitude":"-96.34828000"},{"id":"72970","name":"Puerto Esmeralda","state_id":3464,"state_code":"VER","country_id":142,"country_code":"MX","latitude":"18.14778000","longitude":"-94.51778000"},{"id":"72987","name":"Puntilla Aldama","state_id":3464,"state_code":"VER","country_id":142,"country_code":"MX","latitude":"20.18915000","longitude":"-96.90693000"},{"id":"73030","name":"Quiamoloapan","state_id":3464,"state_code":"VER","country_id":142,"country_code":"MX","latitude":"18.06180000","longitude":"-94.99574000"},{"id":"73043","name":"Rafael Delgado","state_id":3464,"state_code":"VER","country_id":142,"country_code":"MX","latitude":"18.81014000","longitude":"-97.07172000"},{"id":"73045","name":"Rafael Lucio","state_id":3464,"state_code":"VER","country_id":142,"country_code":"MX","latitude":"19.59308000","longitude":"-96.99023000"},{"id":"73057","name":"Rancho Alegre","state_id":3464,"state_code":"VER","country_id":142,"country_code":"MX","latitude":"20.20722000","longitude":"-97.63889000"},{"id":"73080","name":"Rancho del Padre","state_id":3464,"state_code":"VER","country_id":142,"country_code":"MX","latitude":"19.06553000","longitude":"-96.17281000"},{"id":"73065","name":"Rancho Nuevo","state_id":3464,"state_code":"VER","country_id":142,"country_code":"MX","latitude":"20.67250000","longitude":"-97.20611000"},{"id":"73073","name":"Rancho Viejo","state_id":3464,"state_code":"VER","country_id":142,"country_code":"MX","latitude":"19.44451000","longitude":"-96.78168000"},{"id":"73167","name":"R\u00edo Blanco","state_id":3464,"state_code":"VER","country_id":142,"country_code":"MX","latitude":"18.83036000","longitude":"-97.15600000"},{"id":"73181","name":"R\u00edo Medio [Granja]","state_id":3464,"state_code":"VER","country_id":142,"country_code":"MX","latitude":"19.20972000","longitude":"-96.20889000"},{"id":"73099","name":"Residencial las Olas","state_id":3464,"state_code":"VER","country_id":142,"country_code":"MX","latitude":"18.11861000","longitude":"-94.56611000"},{"id":"73098","name":"Residencial Taj\u00edn","state_id":3464,"state_code":"VER","country_id":142,"country_code":"MX","latitude":"20.59806000","longitude":"-97.41694000"},{"id":"73109","name":"Ricardo Flores Mag\u00f3n","state_id":3464,"state_code":"VER","country_id":142,"country_code":"MX","latitude":"20.51444000","longitude":"-97.49500000"},{"id":"73122","name":"Rinc\u00f3n de Barrab\u00e1s","state_id":3464,"state_code":"VER","country_id":142,"country_code":"MX","latitude":"19.00590000","longitude":"-96.53640000"},{"id":"73123","name":"Rinc\u00f3n de Buena Vista","state_id":3464,"state_code":"VER","country_id":142,"country_code":"MX","latitude":"18.75556000","longitude":"-96.86861000"},{"id":"73111","name":"Rinconada","state_id":3464,"state_code":"VER","country_id":142,"country_code":"MX","latitude":"19.35438000","longitude":"-96.56581000"},{"id":"73150","name":"Rodr\u00edguez Tejeda","state_id":3464,"state_code":"VER","country_id":142,"country_code":"MX","latitude":"18.63198000","longitude":"-96.41526000"},{"id":"73189","name":"Sabanas de Xalostoc","state_id":3464,"state_code":"VER","country_id":142,"country_code":"MX","latitude":"20.22223000","longitude":"-97.53525000"},{"id":"73191","name":"Sabaneta","state_id":3464,"state_code":"VER","country_id":142,"country_code":"MX","latitude":"18.22325000","longitude":"-95.08082000"},{"id":"73207","name":"Saladero","state_id":3464,"state_code":"VER","country_id":142,"country_code":"MX","latitude":"21.42380000","longitude":"-97.54381000"},{"id":"73214","name":"Salinas","state_id":3464,"state_code":"VER","country_id":142,"country_code":"MX","latitude":"18.89022000","longitude":"-95.94299000"},{"id":"73222","name":"Saltabarranca","state_id":3464,"state_code":"VER","country_id":142,"country_code":"MX","latitude":"18.59119000","longitude":"-95.53226000"},{"id":"73224","name":"Saltillo","state_id":3464,"state_code":"VER","country_id":142,"country_code":"MX","latitude":"18.15893000","longitude":"-94.85325000"},{"id":"73228","name":"Salvador D\u00edaz Mir\u00f3n","state_id":3464,"state_code":"VER","country_id":142,"country_code":"MX","latitude":"19.78580000","longitude":"-96.87314000"},{"id":"73262","name":"San Agust\u00edn del Palmar","state_id":3464,"state_code":"VER","country_id":142,"country_code":"MX","latitude":"18.51679000","longitude":"-96.72085000"},{"id":"73295","name":"San Andr\u00e9s Tenejapan","state_id":3464,"state_code":"VER","country_id":142,"country_code":"MX","latitude":"18.77389000","longitude":"-97.08583000"},{"id":"73300","name":"San Andr\u00e9s Tuxtla","state_id":3464,"state_code":"VER","country_id":142,"country_code":"MX","latitude":"18.44870000","longitude":"-95.21327000"},{"id":"73362","name":"San Antonio Xoquitla","state_id":3464,"state_code":"VER","country_id":142,"country_code":"MX","latitude":"19.34056000","longitude":"-97.16500000"},{"id":"73474","name":"San Crist\u00f3bal","state_id":3464,"state_code":"VER","country_id":142,"country_code":"MX","latitude":"18.82979000","longitude":"-97.12392000"},{"id":"73536","name":"San Fernando","state_id":3464,"state_code":"VER","country_id":142,"country_code":"MX","latitude":"18.26900000","longitude":"-94.88483000"},{"id":"73538","name":"San Francisco","state_id":3464,"state_code":"VER","country_id":142,"country_code":"MX","latitude":"20.55254000","longitude":"-98.00209000"},{"id":"73548","name":"San Francisco (Mata Clara)","state_id":3464,"state_code":"VER","country_id":142,"country_code":"MX","latitude":"18.81444000","longitude":"-96.74611000"},{"id":"73580","name":"San Francisco Nacaxtle","state_id":3464,"state_code":"VER","country_id":142,"country_code":"MX","latitude":"19.11083000","longitude":"-96.59583000"},{"id":"73663","name":"San Isidro","state_id":3464,"state_code":"VER","country_id":142,"country_code":"MX","latitude":"18.89111000","longitude":"-97.12583000"},{"id":"73690","name":"San Isidro el Berro","state_id":3464,"state_code":"VER","country_id":142,"country_code":"MX","latitude":"18.92722000","longitude":"-97.20556000"},{"id":"73683","name":"San Isidro Palotal","state_id":3464,"state_code":"VER","country_id":142,"country_code":"MX","latitude":"18.94417000","longitude":"-96.96583000"},{"id":"73685","name":"San Isidro Xoteapan (San Isidro Texcaltit\u00e1n)","state_id":3464,"state_code":"VER","country_id":142,"country_code":"MX","latitude":"18.46778000","longitude":"-95.23806000"},{"id":"73805","name":"San Jos\u00e9 de Abajo","state_id":3464,"state_code":"VER","country_id":142,"country_code":"MX","latitude":"18.77583000","longitude":"-96.77722000"},{"id":"73806","name":"San Jos\u00e9 de Abajo [Unidad Habitacional]","state_id":3464,"state_code":"VER","country_id":142,"country_code":"MX","latitude":"18.91972000","longitude":"-96.96361000"},{"id":"73826","name":"San Jos\u00e9 de Tapia","state_id":3464,"state_code":"VER","country_id":142,"country_code":"MX","latitude":"18.84722000","longitude":"-96.95389000"},{"id":"73767","name":"San Jos\u00e9 Independencia","state_id":3464,"state_code":"VER","country_id":142,"country_code":"MX","latitude":"18.75583000","longitude":"-96.94500000"},{"id":"73776","name":"San Jos\u00e9 Neria","state_id":3464,"state_code":"VER","country_id":142,"country_code":"MX","latitude":"18.99333000","longitude":"-96.99917000"},{"id":"73783","name":"San Jos\u00e9 S\u00fachil","state_id":3464,"state_code":"VER","country_id":142,"country_code":"MX","latitude":"18.88778000","longitude":"-97.23722000"},{"id":"73788","name":"San Jos\u00e9 Tenejapa","state_id":3464,"state_code":"VER","country_id":142,"country_code":"MX","latitude":"19.01556000","longitude":"-96.84306000"},{"id":"73972","name":"San Juan de los Reyes (Luis Valenzuela)","state_id":3464,"state_code":"VER","country_id":142,"country_code":"MX","latitude":"18.51778000","longitude":"-95.44889000"},{"id":"73892","name":"San Juan Evangelista","state_id":3464,"state_code":"VER","country_id":142,"country_code":"MX","latitude":"17.88615000","longitude":"-95.13961000"},{"id":"73924","name":"San Juan Seco de Valencia","state_id":3464,"state_code":"VER","country_id":142,"country_code":"MX","latitude":"18.30946000","longitude":"-95.15605000"},{"id":"73948","name":"San Juan Volador","state_id":3464,"state_code":"VER","country_id":142,"country_code":"MX","latitude":"18.26355000","longitude":"-94.65180000"},{"id":"73985","name":"San Juli\u00e1n","state_id":3464,"state_code":"VER","country_id":142,"country_code":"MX","latitude":"19.25680000","longitude":"-96.26717000"},{"id":"73987","name":"San Leoncio Jamaya","state_id":3464,"state_code":"VER","country_id":142,"country_code":"MX","latitude":"20.31288000","longitude":"-97.58127000"},{"id":"74012","name":"San Lorenzo Tenochtitl\u00e1n","state_id":3464,"state_code":"VER","country_id":142,"country_code":"MX","latitude":"17.75500000","longitude":"-94.76028000"},{"id":"74068","name":"San Marcos Atesquilapan","state_id":3464,"state_code":"VER","country_id":142,"country_code":"MX","latitude":"19.68972000","longitude":"-96.88537000"},{"id":"74079","name":"San Marcos de Le\u00f3n","state_id":3464,"state_code":"VER","country_id":142,"country_code":"MX","latitude":"19.42377000","longitude":"-96.96442000"},{"id":"74186","name":"San Miguel Mecatepec","state_id":3464,"state_code":"VER","country_id":142,"country_code":"MX","latitude":"20.52896000","longitude":"-97.48744000"},{"id":"74214","name":"San Miguel Tlalpoal\u00e1n","state_id":3464,"state_code":"VER","country_id":142,"country_code":"MX","latitude":"19.73981000","longitude":"-97.22662000"},{"id":"74330","name":"San Pedro Coyutla","state_id":3464,"state_code":"VER","country_id":142,"country_code":"MX","latitude":"21.22410000","longitude":"-98.43002000"},{"id":"74356","name":"San Pedro M\u00e1rtir","state_id":3464,"state_code":"VER","country_id":142,"country_code":"MX","latitude":"17.97870000","longitude":"-94.61033000"},{"id":"74387","name":"San Pedro Tlanixco","state_id":3464,"state_code":"VER","country_id":142,"country_code":"MX","latitude":"19.06259000","longitude":"-99.65237000"},{"id":"74389","name":"San Pedro Tlapacoyan","state_id":3464,"state_code":"VER","country_id":142,"country_code":"MX","latitude":"20.05806000","longitude":"-97.09833000"},{"id":"74422","name":"San Rafael","state_id":3464,"state_code":"VER","country_id":142,"country_code":"MX","latitude":"20.18862000","longitude":"-96.86737000"},{"id":"74430","name":"San Rafael Caler\u00eda","state_id":3464,"state_code":"VER","country_id":142,"country_code":"MX","latitude":"18.94039000","longitude":"-96.94394000"},{"id":"74432","name":"San Rafael R\u00edo Seco","state_id":3464,"state_code":"VER","country_id":142,"country_code":"MX","latitude":"18.87608000","longitude":"-96.88127000"},{"id":"74455","name":"San Sebasti\u00e1n","state_id":3464,"state_code":"VER","country_id":142,"country_code":"MX","latitude":"21.21724000","longitude":"-98.13271000"},{"id":"74570","name":"Santa Catalina","state_id":3464,"state_code":"VER","country_id":142,"country_code":"MX","latitude":"18.16353000","longitude":"-95.20779000"},{"id":"74675","name":"Santa Isabel","state_id":3464,"state_code":"VER","country_id":142,"country_code":"MX","latitude":"20.19222000","longitude":"-97.52917000"},{"id":"74689","name":"Santa Luc\u00eda Potrerillo","state_id":3464,"state_code":"VER","country_id":142,"country_code":"MX","latitude":"18.96917000","longitude":"-97.02417000"},{"id":"74776","name":"Santa Mar\u00eda Tatetla","state_id":3464,"state_code":"VER","country_id":142,"country_code":"MX","latitude":"19.27278000","longitude":"-96.71251000"},{"id":"74830","name":"Santa Rita","state_id":3464,"state_code":"VER","country_id":142,"country_code":"MX","latitude":"19.16736000","longitude":"-96.26000000"},{"id":"74834","name":"Santa Rosa","state_id":3464,"state_code":"VER","country_id":142,"country_code":"MX","latitude":"19.47078000","longitude":"-96.46514000"},{"id":"74841","name":"Santa Rosa Abata","state_id":3464,"state_code":"VER","country_id":142,"country_code":"MX","latitude":"18.46190000","longitude":"-95.16765000"},{"id":"74844","name":"Santa Rosa Loma Larga","state_id":3464,"state_code":"VER","country_id":142,"country_code":"MX","latitude":"18.23098000","longitude":"-95.08710000"},{"id":"74857","name":"Santa Teresa","state_id":3464,"state_code":"VER","country_id":142,"country_code":"MX","latitude":"17.69562000","longitude":"-95.67276000"},{"id":"74866","name":"Santiago","state_id":3464,"state_code":"VER","country_id":142,"country_code":"MX","latitude":"18.44884000","longitude":"-95.83037000"},{"id":"74986","name":"Santiago de la Pe\u00f1a","state_id":3464,"state_code":"VER","country_id":142,"country_code":"MX","latitude":"20.94512000","longitude":"-97.40493000"},{"id":"74939","name":"Santiago Sochiapan","state_id":3464,"state_code":"VER","country_id":142,"country_code":"MX","latitude":"17.61585000","longitude":"-95.65276000"},{"id":"74968","name":"Santiago Tuxtla","state_id":3464,"state_code":"VER","country_id":142,"country_code":"MX","latitude":"18.46576000","longitude":"-95.30060000"},