[{"id":"68019","name":"Abelardo L. Rodr\u00edguez","state_id":3475,"state_code":"CAM","country_id":142,"country_code":"MX","latitude":"18.72842000","longitude":"-90.90456000"},{"id":"68197","name":"Alfredo V. Bonfil","state_id":3475,"state_code":"CAM","country_id":142,"country_code":"MX","latitude":"19.53032000","longitude":"-90.18214000"},{"id":"68223","name":"Altamira de Zin\u00e1paro","state_id":3475,"state_code":"CAM","country_id":142,"country_code":"MX","latitude":"18.58208000","longitude":"-90.25610000"},{"id":"68393","name":"Atasta","state_id":3475,"state_code":"CAM","country_id":142,"country_code":"MX","latitude":"18.61954000","longitude":"-92.10326000"},{"id":"68481","name":"Bacabch\u00e9n","state_id":3475,"state_code":"CAM","country_id":142,"country_code":"MX","latitude":"20.28903000","longitude":"-90.05602000"},{"id":"68696","name":"B\u00e9cal","state_id":3475,"state_code":"CAM","country_id":142,"country_code":"MX","latitude":"20.44172000","longitude":"-90.02738000"},{"id":"68606","name":"Benito Ju\u00e1rez Uno","state_id":3475,"state_code":"CAM","country_id":142,"country_code":"MX","latitude":"18.27695000","longitude":"-91.09914000"},{"id":"68630","name":"Bolonch\u00e9n de Rej\u00f3n","state_id":3475,"state_code":"CAM","country_id":142,"country_code":"MX","latitude":"20.00386000","longitude":"-89.74663000"},{"id":"68726","name":"Calakmul","state_id":3475,"state_code":"CAM","country_id":142,"country_code":"MX","latitude":"18.00000000","longitude":"-89.75000000"},{"id":"68741","name":"Calkin\u00ed","state_id":3475,"state_code":"CAM","country_id":142,"country_code":"MX","latitude":"20.38583000","longitude":"-89.98764000"},{"id":"68770","name":"Campeche","state_id":3475,"state_code":"CAM","country_id":142,"country_code":"MX","latitude":"19.84386000","longitude":"-90.52554000"},{"id":"68789","name":"Candelaria","state_id":3475,"state_code":"CAM","country_id":142,"country_code":"MX","latitude":"18.00000000","longitude":"-90.75000000"},{"id":"68827","name":"Carmen","state_id":3475,"state_code":"CAM","country_id":142,"country_code":"MX","latitude":"18.63000000","longitude":"-91.83000000"},{"id":"68838","name":"Carrillo Puerto","state_id":3475,"state_code":"CAM","country_id":142,"country_code":"MX","latitude":"19.09400000","longitude":"-90.52279000"},{"id":"68858","name":"Castamay","state_id":3475,"state_code":"CAM","country_id":142,"country_code":"MX","latitude":"19.83782000","longitude":"-90.43181000"},{"id":"68968","name":"Champot\u00f3n","state_id":3475,"state_code":"CAM","country_id":142,"country_code":"MX","latitude":"19.35042000","longitude":"-90.70991000"},{"id":"69019","name":"Chicbul","state_id":3475,"state_code":"CAM","country_id":142,"country_code":"MX","latitude":"18.77558000","longitude":"-90.92429000"},{"id":"69087","name":"Chin\u00e1","state_id":3475,"state_code":"CAM","country_id":142,"country_code":"MX","latitude":"19.76993000","longitude":"-90.49595000"},{"id":"69117","name":"Chunchintok","state_id":3475,"state_code":"CAM","country_id":142,"country_code":"MX","latitude":"19.36145000","longitude":"-89.58218000"},{"id":"69195","name":"Ciudad del Carmen","state_id":3475,"state_code":"CAM","country_id":142,"country_code":"MX","latitude":"18.64592000","longitude":"-91.82991000"},{"id":"69294","name":"Colonia Emiliano Zapata","state_id":3475,"state_code":"CAM","country_id":142,"country_code":"MX","latitude":"18.66504000","longitude":"-92.31088000"},{"id":"69463","name":"Constituci\u00f3n","state_id":3475,"state_code":"CAM","country_id":142,"country_code":"MX","latitude":"18.62675000","longitude":"-90.13584000"},{"id":"69636","name":"Cumpich","state_id":3475,"state_code":"CAM","country_id":142,"country_code":"MX","latitude":"20.18612000","longitude":"-89.97081000"},{"id":"69689","name":"Divisi\u00f3n del Norte","state_id":3475,"state_code":"CAM","country_id":142,"country_code":"MX","latitude":"18.52946000","longitude":"-90.76416000"},{"id":"69712","name":"Don Samuel","state_id":3475,"state_code":"CAM","country_id":142,"country_code":"MX","latitude":"18.36000000","longitude":"-90.85722000"},{"id":"69735","name":"Dzibalch\u00e9n","state_id":3475,"state_code":"CAM","country_id":142,"country_code":"MX","latitude":"19.45847000","longitude":"-89.73111000"},{"id":"69741","name":"Dzitbalch\u00e9","state_id":3475,"state_code":"CAM","country_id":142,"country_code":"MX","latitude":"20.31857000","longitude":"-90.05611000"},{"id":"69824","name":"El Aguacatal","state_id":3475,"state_code":"CAM","country_id":142,"country_code":"MX","latitude":"18.21361000","longitude":"-91.51095000"},{"id":"70058","name":"El Naranjo","state_id":3475,"state_code":"CAM","country_id":142,"country_code":"MX","latitude":"18.02193000","longitude":"-91.12654000"},{"id":"70324","name":"Esc\u00e1rcega","state_id":3475,"state_code":"CAM","country_id":142,"country_code":"MX","latitude":"18.61404000","longitude":"-90.72870000"},{"id":"70662","name":"Hampolol","state_id":3475,"state_code":"CAM","country_id":142,"country_code":"MX","latitude":"19.92716000","longitude":"-90.38924000"},{"id":"70663","name":"Haro","state_id":3475,"state_code":"CAM","country_id":142,"country_code":"MX","latitude":"18.44418000","longitude":"-90.79153000"},{"id":"70664","name":"Hecelchak\u00e1n","state_id":3475,"state_code":"CAM","country_id":142,"country_code":"MX","latitude":"20.16667000","longitude":"-90.13333000"},{"id":"70707","name":"Hool","state_id":3475,"state_code":"CAM","country_id":142,"country_code":"MX","latitude":"19.51294000","longitude":"-90.44631000"},{"id":"70708","name":"Hopelch\u00e9n","state_id":3475,"state_code":"CAM","country_id":142,"country_code":"MX","latitude":"19.74671000","longitude":"-89.84437000"},{"id":"70883","name":"Isla Aguada","state_id":3475,"state_code":"CAM","country_id":142,"country_code":"MX","latitude":"18.78714000","longitude":"-91.49277000"},{"id":"70892","name":"Iturbide","state_id":3475,"state_code":"CAM","country_id":142,"country_code":"MX","latitude":"19.57903000","longitude":"-89.60222000"},{"id":"71331","name":"La Joya","state_id":3475,"state_code":"CAM","country_id":142,"country_code":"MX","latitude":"19.48028000","longitude":"-90.67333000"},{"id":"71354","name":"La Libertad","state_id":3475,"state_code":"CAM","country_id":142,"country_code":"MX","latitude":"18.57042000","longitude":"-90.51399000"},{"id":"71663","name":"Lerma","state_id":3475,"state_code":"CAM","country_id":142,"country_code":"MX","latitude":"19.80404000","longitude":"-90.60088000"},{"id":"71677","name":"Licenciado Gustavo D\u00edaz Ordaz (18 de Marzo)","state_id":3475,"state_code":"CAM","country_id":142,"country_code":"MX","latitude":"18.63222000","longitude":"-91.00278000"},{"id":"71808","name":"Los Laureles","state_id":3475,"state_code":"CAM","country_id":142,"country_code":"MX","latitude":"19.48778000","longitude":"-89.99444000"},{"id":"71951","name":"Mamantel","state_id":3475,"state_code":"CAM","country_id":142,"country_code":"MX","latitude":"18.52512000","longitude":"-91.08885000"},{"id":"72016","name":"Matamoros","state_id":3475,"state_code":"CAM","country_id":142,"country_code":"MX","latitude":"18.58414000","longitude":"-90.64669000"},{"id":"72030","name":"Maya Tec\u00fan I","state_id":3475,"state_code":"CAM","country_id":142,"country_code":"MX","latitude":"19.15292000","longitude":"-90.50641000"},{"id":"72405","name":"Nuevo Progreso","state_id":3475,"state_code":"CAM","country_id":142,"country_code":"MX","latitude":"18.62294000","longitude":"-92.29124000"},{"id":"72426","name":"Nunkin\u00ed","state_id":3475,"state_code":"CAM","country_id":142,"country_code":"MX","latitude":"20.40046000","longitude":"-90.14803000"},{"id":"72584","name":"Palizada","state_id":3475,"state_code":"CAM","country_id":142,"country_code":"MX","latitude":"18.25261000","longitude":"-92.07779000"},{"id":"72759","name":"Pich","state_id":3475,"state_code":"CAM","country_id":142,"country_code":"MX","latitude":"19.48568000","longitude":"-90.11795000"},{"id":"72830","name":"Pocboc","state_id":3475,"state_code":"CAM","country_id":142,"country_code":"MX","latitude":"20.23541000","longitude":"-90.10219000"},{"id":"72847","name":"Pomuch","state_id":3475,"state_code":"CAM","country_id":142,"country_code":"MX","latitude":"20.13727000","longitude":"-90.17488000"},{"id":"73190","name":"Sabancuy","state_id":3475,"state_code":"CAM","country_id":142,"country_code":"MX","latitude":"18.97270000","longitude":"-91.17783000"},{"id":"73331","name":"San Antonio C\u00e1rdenas","state_id":3475,"state_code":"CAM","country_id":142,"country_code":"MX","latitude":"18.61399000","longitude":"-92.22341000"},{"id":"73347","name":"San Antonio Sahcabch\u00e9n","state_id":3475,"state_code":"CAM","country_id":142,"country_code":"MX","latitude":"20.30696000","longitude":"-90.13778000"},{"id":"73573","name":"San Francisco Kob\u00e9n","state_id":3475,"state_code":"CAM","country_id":142,"country_code":"MX","latitude":"19.91516000","longitude":"-90.41709000"},{"id":"74299","name":"San Pablo Pixt\u00fan","state_id":3475,"state_code":"CAM","country_id":142,"country_code":"MX","latitude":"19.13361000","longitude":"-90.73194000"},{"id":"74608","name":"Santa Cruz","state_id":3475,"state_code":"CAM","country_id":142,"country_code":"MX","latitude":"20.20339000","longitude":"-90.11771000"},{"id":"74624","name":"Santa Cruz Ex-Hacienda","state_id":3475,"state_code":"CAM","country_id":142,"country_code":"MX","latitude":"20.39684000","longitude":"-90.24068000"},{"id":"74636","name":"Santa Cruz Pueblo","state_id":3475,"state_code":"CAM","country_id":142,"country_code":"MX","latitude":"20.33359000","longitude":"-90.10342000"},{"id":"75003","name":"Santo Domingo Kest\u00e9","state_id":3475,"state_code":"CAM","country_id":142,"country_code":"MX","latitude":"19.49972000","longitude":"-90.51139000"},{"id":"75065","name":"Seybaplaya","state_id":3475,"state_code":"CAM","country_id":142,"country_code":"MX","latitude":"19.63994000","longitude":"-90.68706000"},{"id":"75076","name":"Sihochac","state_id":3475,"state_code":"CAM","country_id":142,"country_code":"MX","latitude":"19.50120000","longitude":"-90.58472000"},{"id":"75137","name":"Suc-Tuc","state_id":3475,"state_code":"CAM","country_id":142,"country_code":"MX","latitude":"19.71259000","longitude":"-90.03768000"},{"id":"75215","name":"Tankuch\u00e9","state_id":3475,"state_code":"CAM","country_id":142,"country_code":"MX","latitude":"20.50743000","longitude":"-90.24164000"},{"id":"75345","name":"Tenabo","state_id":3475,"state_code":"CAM","country_id":142,"country_code":"MX","latitude":"19.83333000","longitude":"-90.00000000"},{"id":"75390","name":"Tepak\u00e1n","state_id":3475,"state_code":"CAM","country_id":142,"country_code":"MX","latitude":"20.39716000","longitude":"-90.04075000"},{"id":"75563","name":"Tikinmul","state_id":3475,"state_code":"CAM","country_id":142,"country_code":"MX","latitude":"19.76611000","longitude":"-90.22306000"},{"id":"75865","name":"Uk\u00fam","state_id":3475,"state_code":"CAM","country_id":142,"country_code":"MX","latitude":"19.24197000","longitude":"-89.33529000"},{"id":"76029","name":"Villa Madero","state_id":3475,"state_code":"CAM","country_id":142,"country_code":"MX","latitude":"19.52833000","longitude":"-90.69917000"},{"id":"76130","name":"Xbacab","state_id":3475,"state_code":"CAM","country_id":142,"country_code":"MX","latitude":"18.94139000","longitude":"-90.72194000"},{"id":"76151","name":"Xmab\u00e9n","state_id":3475,"state_code":"CAM","country_id":142,"country_code":"MX","latitude":"19.23530000","longitude":"-89.31426000"},{"id":"76204","name":"Xpujil","state_id":3475,"state_code":"CAM","country_id":142,"country_code":"MX","latitude":"18.50760000","longitude":"-89.39437000"},{"id":"76358","name":"Zoh-Laguna","state_id":3475,"state_code":"CAM","country_id":142,"country_code":"MX","latitude":"18.59306000","longitude":"-89.41714000"}]