[{"id":"48157","name":"Abbey Wood","state_id":2336,"state_code":"ENG","country_id":232,"country_code":"GB","latitude":"51.48688000","longitude":"0.10747000"},{"id":"48158","name":"Abbots Bromley","state_id":2336,"state_code":"ENG","country_id":232,"country_code":"GB","latitude":"52.81705000","longitude":"-1.87694000"},{"id":"48159","name":"Abbots Langley","state_id":2336,"state_code":"ENG","country_id":232,"country_code":"GB","latitude":"51.70573000","longitude":"-0.41757000"},{"id":"48160","name":"Abbotskerswell","state_id":2336,"state_code":"ENG","country_id":232,"country_code":"GB","latitude":"50.50816000","longitude":"-3.61342000"},{"id":"48161","name":"Abbotts Ann","state_id":2336,"state_code":"ENG","country_id":232,"country_code":"GB","latitude":"51.19016000","longitude":"-1.53234000"},{"id":"48174","name":"Aberford","state_id":2336,"state_code":"ENG","country_id":232,"country_code":"GB","latitude":"53.82604000","longitude":"-1.34231000"},{"id":"48184","name":"Abingdon","state_id":2336,"state_code":"ENG","country_id":232,"country_code":"GB","latitude":"51.67109000","longitude":"-1.28278000"},{"id":"48186","name":"Abram","state_id":2336,"state_code":"ENG","country_id":232,"country_code":"GB","latitude":"53.50855000","longitude":"-2.59266000"},{"id":"48187","name":"Abridge","state_id":2336,"state_code":"ENG","country_id":232,"country_code":"GB","latitude":"51.64950000","longitude":"0.12033000"},{"id":"48188","name":"Accrington","state_id":2336,"state_code":"ENG","country_id":232,"country_code":"GB","latitude":"53.75379000","longitude":"-2.35863000"},{"id":"48189","name":"Acklington","state_id":2336,"state_code":"ENG","country_id":232,"country_code":"GB","latitude":"55.30000000","longitude":"-1.63333000"},{"id":"48190","name":"Acle","state_id":2336,"state_code":"ENG","country_id":232,"country_code":"GB","latitude":"52.63681000","longitude":"1.54757000"},{"id":"48191","name":"Acocks Green","state_id":2336,"state_code":"ENG","country_id":232,"country_code":"GB","latitude":"52.45000000","longitude":"-1.81667000"},{"id":"48192","name":"Acomb","state_id":2336,"state_code":"ENG","country_id":232,"country_code":"GB","latitude":"54.99229000","longitude":"-2.11229000"},{"id":"48193","name":"Acton","state_id":2336,"state_code":"ENG","country_id":232,"country_code":"GB","latitude":"51.50901000","longitude":"-0.27620000"},{"id":"48194","name":"Adderbury","state_id":2336,"state_code":"ENG","country_id":232,"country_code":"GB","latitude":"52.01690000","longitude":"-1.31192000"},{"id":"48196","name":"Addingham","state_id":2336,"state_code":"ENG","country_id":232,"country_code":"GB","latitude":"53.94452000","longitude":"-1.88424000"},{"id":"48197","name":"Addlestone","state_id":2336,"state_code":"ENG","country_id":232,"country_code":"GB","latitude":"51.37135000","longitude":"-0.49353000"},{"id":"48198","name":"Adlington","state_id":2336,"state_code":"ENG","country_id":232,"country_code":"GB","latitude":"53.61323000","longitude":"-2.60676000"},{"id":"48199","name":"Adwick le Street","state_id":2336,"state_code":"ENG","country_id":232,"country_code":"GB","latitude":"53.57077000","longitude":"-1.18454000"},{"id":"48202","name":"Airmyn","state_id":2336,"state_code":"ENG","country_id":232,"country_code":"GB","latitude":"53.72074000","longitude":"-0.89959000"},{"id":"48204","name":"Albrighton","state_id":2336,"state_code":"ENG","country_id":232,"country_code":"GB","latitude":"52.63640000","longitude":"-2.27966000"},{"id":"48205","name":"Alcester","state_id":2336,"state_code":"ENG","country_id":232,"country_code":"GB","latitude":"52.21667000","longitude":"-1.86667000"},{"id":"48206","name":"Alconbury","state_id":2336,"state_code":"ENG","country_id":232,"country_code":"GB","latitude":"52.36900000","longitude":"-0.26009000"},{"id":"48207","name":"Aldbourne","state_id":2336,"state_code":"ENG","country_id":232,"country_code":"GB","latitude":"51.48098000","longitude":"-1.61827000"},{"id":"48208","name":"Aldbrough","state_id":2336,"state_code":"ENG","country_id":232,"country_code":"GB","latitude":"53.82893000","longitude":"-0.11467000"},{"id":"48209","name":"Aldeburgh","state_id":2336,"state_code":"ENG","country_id":232,"country_code":"GB","latitude":"52.15259000","longitude":"1.60124000"},{"id":"48210","name":"Alderbury","state_id":2336,"state_code":"ENG","country_id":232,"country_code":"GB","latitude":"51.04354000","longitude":"-1.73382000"},{"id":"48211","name":"Alderholt","state_id":2336,"state_code":"ENG","country_id":232,"country_code":"GB","latitude":"50.91195000","longitude":"-1.83083000"},{"id":"48212","name":"Alderley Edge","state_id":2336,"state_code":"ENG","country_id":232,"country_code":"GB","latitude":"53.30393000","longitude":"-2.23773000"},{"id":"48213","name":"Aldershot","state_id":2336,"state_code":"ENG","country_id":232,"country_code":"GB","latitude":"51.24827000","longitude":"-0.76389000"},{"id":"48214","name":"Aldford","state_id":2336,"state_code":"ENG","country_id":232,"country_code":"GB","latitude":"53.12762000","longitude":"-2.86812000"},{"id":"48215","name":"Aldridge","state_id":2336,"state_code":"ENG","country_id":232,"country_code":"GB","latitude":"52.60549000","longitude":"-1.91715000"},{"id":"48217","name":"Alford","state_id":2336,"state_code":"ENG","country_id":232,"country_code":"GB","latitude":"53.25943000","longitude":"0.17625000"},{"id":"48219","name":"Alfreton","state_id":2336,"state_code":"ENG","country_id":232,"country_code":"GB","latitude":"53.09766000","longitude":"-1.38376000"},{"id":"48221","name":"Allhallows","state_id":2336,"state_code":"ENG","country_id":232,"country_code":"GB","latitude":"51.46866000","longitude":"0.63686000"},{"id":"48224","name":"Almondsbury","state_id":2336,"state_code":"ENG","country_id":232,"country_code":"GB","latitude":"51.55407000","longitude":"-2.57114000"},{"id":"48226","name":"Alnwick","state_id":2336,"state_code":"ENG","country_id":232,"country_code":"GB","latitude":"55.41318000","longitude":"-1.70563000"},{"id":"48227","name":"Alresford","state_id":2336,"state_code":"ENG","country_id":232,"country_code":"GB","latitude":"51.85389000","longitude":"1.00203000"},{"id":"48228","name":"Alrewas","state_id":2336,"state_code":"ENG","country_id":232,"country_code":"GB","latitude":"52.73278000","longitude":"-1.74968000"},{"id":"48229","name":"Alsager","state_id":2336,"state_code":"ENG","country_id":232,"country_code":"GB","latitude":"53.09617000","longitude":"-2.30649000"},{"id":"48230","name":"Alston","state_id":2336,"state_code":"ENG","country_id":232,"country_code":"GB","latitude":"54.80900000","longitude":"-2.43931000"},{"id":"48231","name":"Althorne","state_id":2336,"state_code":"ENG","country_id":232,"country_code":"GB","latitude":"51.65722000","longitude":"0.76085000"},{"id":"48232","name":"Alton","state_id":2336,"state_code":"ENG","country_id":232,"country_code":"GB","latitude":"51.14931000","longitude":"-0.97469000"},{"id":"48233","name":"Altrincham","state_id":2336,"state_code":"ENG","country_id":232,"country_code":"GB","latitude":"53.38752000","longitude":"-2.34848000"},{"id":"48235","name":"Alvechurch","state_id":2336,"state_code":"ENG","country_id":232,"country_code":"GB","latitude":"52.35173000","longitude":"-1.96531000"},{"id":"48236","name":"Alveley","state_id":2336,"state_code":"ENG","country_id":232,"country_code":"GB","latitude":"52.45709000","longitude":"-2.35434000"},{"id":"48237","name":"Alveston","state_id":2336,"state_code":"ENG","country_id":232,"country_code":"GB","latitude":"51.58806000","longitude":"-2.53139000"},{"id":"48239","name":"Amble","state_id":2336,"state_code":"ENG","country_id":232,"country_code":"GB","latitude":"55.33333000","longitude":"-1.58333000"},{"id":"48240","name":"Ambleside","state_id":2336,"state_code":"ENG","country_id":232,"country_code":"GB","latitude":"54.43261000","longitude":"-2.96167000"},{"id":"48241","name":"Ambrosden","state_id":2336,"state_code":"ENG","country_id":232,"country_code":"GB","latitude":"51.87087000","longitude":"-1.12129000"},{"id":"48242","name":"Amersham","state_id":2336,"state_code":"ENG","country_id":232,"country_code":"GB","latitude":"51.66667000","longitude":"-0.61667000"},{"id":"48243","name":"Amersham on the Hill","state_id":2336,"state_code":"ENG","country_id":232,"country_code":"GB","latitude":"51.67468000","longitude":"-0.60742000"},{"id":"48244","name":"Amesbury","state_id":2336,"state_code":"ENG","country_id":232,"country_code":"GB","latitude":"51.17509000","longitude":"-1.78064000"},{"id":"48247","name":"Ampthill","state_id":2336,"state_code":"ENG","country_id":232,"country_code":"GB","latitude":"52.02694000","longitude":"-0.49567000"},{"id":"48248","name":"Ancaster","state_id":2336,"state_code":"ENG","country_id":232,"country_code":"GB","latitude":"52.98276000","longitude":"-0.53593000"},{"id":"48249","name":"Andover","state_id":2336,"state_code":"ENG","country_id":232,"country_code":"GB","latitude":"51.21135000","longitude":"-1.49393000"},{"id":"48252","name":"Anna Valley","state_id":2336,"state_code":"ENG","country_id":232,"country_code":"GB","latitude":"51.19317000","longitude":"-1.50719000"},{"id":"48256","name":"Annfield Plain","state_id":2336,"state_code":"ENG","country_id":232,"country_code":"GB","latitude":"54.85749000","longitude":"-1.73827000"},{"id":"48257","name":"Anstey","state_id":2336,"state_code":"ENG","country_id":232,"country_code":"GB","latitude":"52.67368000","longitude":"-1.18841000"},{"id":"48261","name":"Appleby","state_id":2336,"state_code":"ENG","country_id":232,"country_code":"GB","latitude":"53.62198000","longitude":"-0.56612000"},{"id":"48262","name":"Appleby-in-Westmorland","state_id":2336,"state_code":"ENG","country_id":232,"country_code":"GB","latitude":"54.57704000","longitude":"-2.48978000"},{"id":"48263","name":"Appledore","state_id":2336,"state_code":"ENG","country_id":232,"country_code":"GB","latitude":"51.05000000","longitude":"-4.20000000"},{"id":"48264","name":"Appleton Thorn","state_id":2336,"state_code":"ENG","country_id":232,"country_code":"GB","latitude":"53.35045000","longitude":"-2.54488000"},{"id":"48265","name":"Appley Bridge","state_id":2336,"state_code":"ENG","country_id":232,"country_code":"GB","latitude":"53.57781000","longitude":"-2.72090000"},{"id":"48267","name":"Archway","state_id":2336,"state_code":"ENG","country_id":232,"country_code":"GB","latitude":"51.56733000","longitude":"-0.13415000"},{"id":"48270","name":"Ardingly","state_id":2336,"state_code":"ENG","country_id":232,"country_code":"GB","latitude":"51.04865000","longitude":"-0.07716000"},{"id":"48275","name":"Arlesey","state_id":2336,"state_code":"ENG","country_id":232,"country_code":"GB","latitude":"52.00713000","longitude":"-0.26565000"},{"id":"48279","name":"Armitage","state_id":2336,"state_code":"ENG","country_id":232,"country_code":"GB","latitude":"52.74193000","longitude":"-1.88266000"},{"id":"48280","name":"Armthorpe","state_id":2336,"state_code":"ENG","country_id":232,"country_code":"GB","latitude":"53.53518000","longitude":"-1.05341000"},{"id":"48281","name":"Arnold","state_id":2336,"state_code":"ENG","country_id":232,"country_code":"GB","latitude":"53.00000000","longitude":"-1.13333000"},{"id":"48282","name":"Arnside","state_id":2336,"state_code":"ENG","country_id":232,"country_code":"GB","latitude":"54.20179000","longitude":"-2.83374000"},{"id":"48283","name":"Arundel","state_id":2336,"state_code":"ENG","country_id":232,"country_code":"GB","latitude":"50.85423000","longitude":"-0.55393000"},{"id":"48284","name":"Ascot","state_id":2336,"state_code":"ENG","country_id":232,"country_code":"GB","latitude":"51.41082000","longitude":"-0.67480000"},{"id":"48285","name":"Asfordby","state_id":2336,"state_code":"ENG","country_id":232,"country_code":"GB","latitude":"52.76331000","longitude":"-0.95856000"},{"id":"48286","name":"Ash","state_id":2336,"state_code":"ENG","country_id":232,"country_code":"GB","latitude":"51.27883000","longitude":"1.27974000"},{"id":"48287","name":"Ashbourne","state_id":2336,"state_code":"ENG","country_id":232,"country_code":"GB","latitude":"53.01667000","longitude":"-1.73333000"},{"id":"48288","name":"Ashburton","state_id":2336,"state_code":"ENG","country_id":232,"country_code":"GB","latitude":"50.51559000","longitude":"-3.75572000"},{"id":"48289","name":"Ashby de la Zouch","state_id":2336,"state_code":"ENG","country_id":232,"country_code":"GB","latitude":"52.74632000","longitude":"-1.47320000"},{"id":"48290","name":"Ashford","state_id":2336,"state_code":"ENG","country_id":232,"country_code":"GB","latitude":"51.14648000","longitude":"0.87376000"},{"id":"48292","name":"Ashill","state_id":2336,"state_code":"ENG","country_id":232,"country_code":"GB","latitude":"52.60435000","longitude":"0.78574000"},{"id":"48293","name":"Ashington","state_id":2336,"state_code":"ENG","country_id":232,"country_code":"GB","latitude":"55.17719000","longitude":"-1.56412000"},{"id":"48294","name":"Ashtead","state_id":2336,"state_code":"ENG","country_id":232,"country_code":"GB","latitude":"51.30873000","longitude":"-0.29972000"},{"id":"48296","name":"Ashton in Makerfield","state_id":2336,"state_code":"ENG","country_id":232,"country_code":"GB","latitude":"53.48333000","longitude":"-2.65000000"},{"id":"48295","name":"Ashton Keynes","state_id":2336,"state_code":"ENG","country_id":232,"country_code":"GB","latitude":"51.64521000","longitude":"-1.93232000"},{"id":"48297","name":"Ashton-under-Lyne","state_id":2336,"state_code":"ENG","country_id":232,"country_code":"GB","latitude":"53.48876000","longitude":"-2.09890000"},{"id":"48298","name":"Ashurst","state_id":2336,"state_code":"ENG","country_id":232,"country_code":"GB","latitude":"50.93236000","longitude":"-0.32375000"},{"id":"48299","name":"Ashwell","state_id":2336,"state_code":"ENG","country_id":232,"country_code":"GB","latitude":"52.03866000","longitude":"-0.15398000"},{"id":"48300","name":"Askam in Furness","state_id":2336,"state_code":"ENG","country_id":232,"country_code":"GB","latitude":"54.18718000","longitude":"-3.20467000"},{"id":"48301","name":"Askern","state_id":2336,"state_code":"ENG","country_id":232,"country_code":"GB","latitude":"53.61639000","longitude":"-1.15237000"},{"id":"48302","name":"Aslockton","state_id":2336,"state_code":"ENG","country_id":232,"country_code":"GB","latitude":"52.95299000","longitude":"-0.89700000"},{"id":"48303","name":"Aspatria","state_id":2336,"state_code":"ENG","country_id":232,"country_code":"GB","latitude":"54.76574000","longitude":"-3.32783000"},{"id":"48304","name":"Aston","state_id":2336,"state_code":"ENG","country_id":232,"country_code":"GB","latitude":"52.50000000","longitude":"-1.88333000"},{"id":"48305","name":"Aston Clinton","state_id":2336,"state_code":"ENG","country_id":232,"country_code":"GB","latitude":"51.80020000","longitude":"-0.72540000"},{"id":"48306","name":"Aston-on-Trent","state_id":2336,"state_code":"ENG","country_id":232,"country_code":"GB","latitude":"52.86172000","longitude":"-1.38642000"},{"id":"48307","name":"Astwood Bank","state_id":2336,"state_code":"ENG","country_id":232,"country_code":"GB","latitude":"52.25993000","longitude":"-1.93754000"},{"id":"48308","name":"Atherstone","state_id":2336,"state_code":"ENG","country_id":232,"country_code":"GB","latitude":"52.57536000","longitude":"-1.54693000"},{"id":"48309","name":"Atherton","state_id":2336,"state_code":"ENG","country_id":232,"country_code":"GB","latitude":"53.52371000","longitude":"-2.49354000"},{"id":"48310","name":"Attleborough","state_id":2336,"state_code":"ENG","country_id":232,"country_code":"GB","latitude":"52.51779000","longitude":"1.01572000"},{"id":"48311","name":"Atworth","state_id":2336,"state_code":"ENG","country_id":232,"country_code":"GB","latitude":"51.39234000","longitude":"-2.19297000"},{"id":"48315","name":"Auckley","state_id":2336,"state_code":"ENG","country_id":232,"country_code":"GB","latitude":"53.50386000","longitude":"-1.02174000"},{"id":"48316","name":"Audlem","state_id":2336,"state_code":"ENG","country_id":232,"country_code":"GB","latitude":"52.98956000","longitude":"-2.50706000"},{"id":"48317","name":"Audley","state_id":2336,"state_code":"ENG","country_id":232,"country_code":"GB","latitude":"53.05000000","longitude":"-2.30000000"},{"id":"48318","name":"Aveley","state_id":2336,"state_code":"ENG","country_id":232,"country_code":"GB","latitude":"51.49987000","longitude":"0.25174000"},{"id":"48319","name":"Avening","state_id":2336,"state_code":"ENG","country_id":232,"country_code":"GB","latitude":"51.68010000","longitude":"-2.16903000"},{"id":"48321","name":"Awsworth","state_id":2336,"state_code":"ENG","country_id":232,"country_code":"GB","latitude":"52.98912000","longitude":"-1.28354000"},{"id":"48322","name":"Axbridge","state_id":2336,"state_code":"ENG","country_id":232,"country_code":"GB","latitude":"51.28466000","longitude":"-2.82078000"},{"id":"48323","name":"Axminster","state_id":2336,"state_code":"ENG","country_id":232,"country_code":"GB","latitude":"50.78259000","longitude":"-2.99787000"},{"id":"48324","name":"Aylesbury","state_id":2336,"state_code":"ENG","country_id":232,"country_code":"GB","latitude":"51.81665000","longitude":"-0.81458000"},{"id":"48325","name":"Aylesford","state_id":2336,"state_code":"ENG","country_id":232,"country_code":"GB","latitude":"51.30374000","longitude":"0.47936000"},{"id":"48326","name":"Aylesham","state_id":2336,"state_code":"ENG","country_id":232,"country_code":"GB","latitude":"51.22539000","longitude":"1.20157000"},{"id":"48327","name":"Aylsham","state_id":2336,"state_code":"ENG","country_id":232,"country_code":"GB","latitude":"52.79672000","longitude":"1.25107000"},{"id":"48329","name":"Babworth","state_id":2336,"state_code":"ENG","country_id":232,"country_code":"GB","latitude":"53.31799000","longitude":"-0.97583000"},{"id":"48330","name":"Backworth","state_id":2336,"state_code":"ENG","country_id":232,"country_code":"GB","latitude":"55.04229000","longitude":"-1.52779000"},{"id":"48331","name":"Bacton","state_id":2336,"state_code":"ENG","country_id":232,"country_code":"GB","latitude":"52.26667000","longitude":"1.01667000"},{"id":"48332","name":"Bacup","state_id":2336,"state_code":"ENG","country_id":232,"country_code":"GB","latitude":"53.70336000","longitude":"-2.20070000"},{"id":"48333","name":"Badsey","state_id":2336,"state_code":"ENG","country_id":232,"country_code":"GB","latitude":"52.08819000","longitude":"-1.89925000"},{"id":"48334","name":"Badsworth","state_id":2336,"state_code":"ENG","country_id":232,"country_code":"GB","latitude":"53.62876000","longitude":"-1.30128000"},{"id":"48336","name":"Bagshot","state_id":2336,"state_code":"ENG","country_id":232,"country_code":"GB","latitude":"51.36069000","longitude":"-0.68802000"},{"id":"48337","name":"Bagworth","state_id":2336,"state_code":"ENG","country_id":232,"country_code":"GB","latitude":"52.67265000","longitude":"-1.34274000"},{"id":"48338","name":"Baildon","state_id":2336,"state_code":"ENG","country_id":232,"country_code":"GB","latitude":"53.84711000","longitude":"-1.78785000"},{"id":"48339","name":"Bakewell","state_id":2336,"state_code":"ENG","country_id":232,"country_code":"GB","latitude":"53.21338000","longitude":"-1.67481000"},{"id":"48341","name":"Balcombe","state_id":2336,"state_code":"ENG","country_id":232,"country_code":"GB","latitude":"51.05726000","longitude":"-0.13450000"},{"id":"48342","name":"Baldock","state_id":2336,"state_code":"ENG","country_id":232,"country_code":"GB","latitude":"51.98781000","longitude":"-0.18835000"},{"id":"48362","name":"Balsall Common","state_id":2336,"state_code":"ENG","country_id":232,"country_code":"GB","latitude":"52.39186000","longitude":"-1.65040000"},{"id":"48363","name":"Balsham","state_id":2336,"state_code":"ENG","country_id":232,"country_code":"GB","latitude":"52.13238000","longitude":"0.31586000"},{"id":"48364","name":"Bamburgh","state_id":2336,"state_code":"ENG","country_id":232,"country_code":"GB","latitude":"55.60652000","longitude":"-1.71704000"},{"id":"48365","name":"Bampton","state_id":2336,"state_code":"ENG","country_id":232,"country_code":"GB","latitude":"51.72634000","longitude":"-1.54547000"},{"id":"48367","name":"Banbury","state_id":2336,"state_code":"ENG","country_id":232,"country_code":"GB","latitude":"52.06320000","longitude":"-1.34222000"},{"id":"48372","name":"Banham","state_id":2336,"state_code":"ENG","country_id":232,"country_code":"GB","latitude":"52.45240000","longitude":"1.03683000"},{"id":"48375","name":"Banks","state_id":2336,"state_code":"ENG","country_id":232,"country_code":"GB","latitude":"53.68333000","longitude":"-2.91667000"},{"id":"48377","name":"Banstead","state_id":2336,"state_code":"ENG","country_id":232,"country_code":"GB","latitude":"51.32233000","longitude":"-0.20685000"},{"id":"48378","name":"Banwell","state_id":2336,"state_code":"ENG","country_id":232,"country_code":"GB","latitude":"51.32894000","longitude":"-2.86914000"},{"id":"48379","name":"Bar Hill","state_id":2336,"state_code":"ENG","country_id":232,"country_code":"GB","latitude":"52.24899000","longitude":"0.02883000"},{"id":"48380","name":"Barbican","state_id":2336,"state_code":"ENG","country_id":232,"country_code":"GB","latitude":"51.51988000","longitude":"-0.09446000"},{"id":"48381","name":"Bardney","state_id":2336,"state_code":"ENG","country_id":232,"country_code":"GB","latitude":"53.21005000","longitude":"-0.32371000"},{"id":"48382","name":"Bardsey","state_id":2336,"state_code":"ENG","country_id":232,"country_code":"GB","latitude":"53.88492000","longitude":"-1.44539000"},{"id":"48385","name":"Barham","state_id":2336,"state_code":"ENG","country_id":232,"country_code":"GB","latitude":"51.20570000","longitude":"1.15734000"},{"id":"48386","name":"Barking","state_id":2336,"state_code":"ENG","country_id":232,"country_code":"GB","latitude":"51.53333000","longitude":"0.08333000"},{"id":"48387","name":"Barkisland","state_id":2336,"state_code":"ENG","country_id":232,"country_code":"GB","latitude":"53.67614000","longitude":"-1.91840000"},{"id":"48388","name":"Barlaston","state_id":2336,"state_code":"ENG","country_id":232,"country_code":"GB","latitude":"52.94200000","longitude":"-2.17050000"},{"id":"48389","name":"Barlborough","state_id":2336,"state_code":"ENG","country_id":232,"country_code":"GB","latitude":"53.28795000","longitude":"-1.28815000"},{"id":"48390","name":"Barlby","state_id":2336,"state_code":"ENG","country_id":232,"country_code":"GB","latitude":"53.79964000","longitude":"-1.04061000"},{"id":"48391","name":"Barlestone","state_id":2336,"state_code":"ENG","country_id":232,"country_code":"GB","latitude":"52.64718000","longitude":"-1.37013000"},{"id":"48392","name":"Barmby on the Marsh","state_id":2336,"state_code":"ENG","country_id":232,"country_code":"GB","latitude":"53.74896000","longitude":"-0.95607000"},{"id":"48394","name":"Barnack","state_id":2336,"state_code":"ENG","country_id":232,"country_code":"GB","latitude":"52.63181000","longitude":"-0.40821000"},{"id":"48395","name":"Barnard Castle","state_id":2336,"state_code":"ENG","country_id":232,"country_code":"GB","latitude":"54.54150000","longitude":"-1.91900000"},{"id":"48396","name":"Barnburgh","state_id":2336,"state_code":"ENG","country_id":232,"country_code":"GB","latitude":"53.52408000","longitude":"-1.27300000"},{"id":"48397","name":"Barnet","state_id":2336,"state_code":"ENG","country_id":232,"country_code":"GB","latitude":"51.65000000","longitude":"-0.20000000"},{"id":"48398","name":"Barnetby le Wold","state_id":2336,"state_code":"ENG","country_id":232,"country_code":"GB","latitude":"53.57480000","longitude":"-0.40607000"},{"id":"48399","name":"Barnham","state_id":2336,"state_code":"ENG","country_id":232,"country_code":"GB","latitude":"50.83120000","longitude":"-0.63789000"},{"id":"48400","name":"Barnoldswick","state_id":2336,"state_code":"ENG","country_id":232,"country_code":"GB","latitude":"53.91711000","longitude":"-2.18705000"},{"id":"48401","name":"Barnsbury","state_id":2336,"state_code":"ENG","country_id":232,"country_code":"GB","latitude":"51.54067000","longitude":"-0.11675000"},{"id":"48402","name":"Barnsley","state_id":2336,"state_code":"ENG","country_id":232,"country_code":"GB","latitude":"53.53333000","longitude":"-1.50000000"},{"id":"48403","name":"Barnstaple","state_id":2336,"state_code":"ENG","country_id":232,"country_code":"GB","latitude":"51.08022000","longitude":"-4.05808000"},{"id":"48404","name":"Barnt Green","state_id":2336,"state_code":"ENG","country_id":232,"country_code":"GB","latitude":"52.35902000","longitude":"-2.00715000"},{"id":"48405","name":"Barnwood","state_id":2336,"state_code":"ENG","country_id":232,"country_code":"GB","latitude":"51.86393000","longitude":"-2.20087000"},{"id":"48408","name":"Barrow in Furness","state_id":2336,"state_code":"ENG","country_id":232,"country_code":"GB","latitude":"54.11094000","longitude":"-3.22758000"},{"id":"48409","name":"Barrow upon Humber","state_id":2336,"state_code":"ENG","country_id":232,"country_code":"GB","latitude":"53.67550000","longitude":"-0.38062000"},{"id":"48410","name":"Barrow upon Soar","state_id":2336,"state_code":"ENG","country_id":232,"country_code":"GB","latitude":"52.75178000","longitude":"-1.14601000"},{"id":"48411","name":"Barrowby","state_id":2336,"state_code":"ENG","country_id":232,"country_code":"GB","latitude":"52.91636000","longitude":"-0.69094000"},{"id":"48412","name":"Barrowford","state_id":2336,"state_code":"ENG","country_id":232,"country_code":"GB","latitude":"53.84650000","longitude":"-2.21838000"},{"id":"48414","name":"Bartley Green","state_id":2336,"state_code":"ENG","country_id":232,"country_code":"GB","latitude":"52.43532000","longitude":"-1.99707000"},{"id":"48415","name":"Barton under Needwood","state_id":2336,"state_code":"ENG","country_id":232,"country_code":"GB","latitude":"52.76268000","longitude":"-1.72400000"},{"id":"48416","name":"Barton upon Humber","state_id":2336,"state_code":"ENG","country_id":232,"country_code":"GB","latitude":"53.68915000","longitude":"-0.44377000"},{"id":"48417","name":"Barton-le-Clay","state_id":2336,"state_code":"ENG","country_id":232,"country_code":"GB","latitude":"51.96598000","longitude":"-0.42731000"},{"id":"48418","name":"Baschurch","state_id":2336,"state_code":"ENG","country_id":232,"country_code":"GB","latitude":"52.78848000","longitude":"-2.85284000"},{"id":"48419","name":"Basford","state_id":2336,"state_code":"ENG","country_id":232,"country_code":"GB","latitude":"52.96667000","longitude":"-1.18333000"},{"id":"48420","name":"Basildon","state_id":2336,"state_code":"ENG","country_id":232,"country_code":"GB","latitude":"51.56844000","longitude":"0.45782000"},{"id":"48421","name":"Basingstoke","state_id":2336,"state_code":"ENG","country_id":232,"country_code":"GB","latitude":"51.26249000","longitude":"-1.08708000"},{"id":"48422","name":"Baslow","state_id":2336,"state_code":"ENG","country_id":232,"country_code":"GB","latitude":"53.24811000","longitude":"-1.62246000"},{"id":"48423","name":"Bassingbourn","state_id":2336,"state_code":"ENG","country_id":232,"country_code":"GB","latitude":"52.07821000","longitude":"-0.05390000"},{"id":"48424","name":"Bassingham","state_id":2336,"state_code":"ENG","country_id":232,"country_code":"GB","latitude":"53.12881000","longitude":"-0.63765000"},{"id":"48425","name":"Baston","state_id":2336,"state_code":"ENG","country_id":232,"country_code":"GB","latitude":"52.71311000","longitude":"-0.35173000"},{"id":"48426","name":"Bath","state_id":2336,"state_code":"ENG","country_id":232,"country_code":"GB","latitude":"51.37510000","longitude":"-2.36172000"},{"id":"48427","name":"Bath and North East Somerset","state_id":2336,"state_code":"ENG","country_id":232,"country_code":"GB","latitude":"51.33333000","longitude":"-2.50000000"},{"id":"48429","name":"Batley","state_id":2336,"state_code":"ENG","country_id":232,"country_code":"GB","latitude":"53.70291000","longitude":"-1.63370000"},{"id":"48430","name":"Battersea","state_id":2336,"state_code":"ENG","country_id":232,"country_code":"GB","latitude":"51.47475000","longitude":"-0.15547000"},{"id":"48431","name":"Battle","state_id":2336,"state_code":"ENG","country_id":232,"country_code":"GB","latitude":"50.91732000","longitude":"0.48417000"},{"id":"48432","name":"Bawtry","state_id":2336,"state_code":"ENG","country_id":232,"country_code":"GB","latitude":"53.43146000","longitude":"-1.01878000"},{"id":"48433","name":"Bay Horse","state_id":2336,"state_code":"ENG","country_id":232,"country_code":"GB","latitude":"53.96867000","longitude":"-2.77603000"},{"id":"48434","name":"Bayston Hill","state_id":2336,"state_code":"ENG","country_id":232,"country_code":"GB","latitude":"52.67550000","longitude":"-2.76156000"},{"id":"48435","name":"Bayswater","state_id":2336,"state_code":"ENG","country_id":232,"country_code":"GB","latitude":"51.51116000","longitude":"-0.18426000"},{"id":"48436","name":"Beaconsfield","state_id":2336,"state_code":"ENG","country_id":232,"country_code":"GB","latitude":"51.61219000","longitude":"-0.64732000"},{"id":"48437","name":"Beadnell","state_id":2336,"state_code":"ENG","country_id":232,"country_code":"GB","latitude":"55.55670000","longitude":"-1.63250000"},{"id":"48438","name":"Beaminster","state_id":2336,"state_code":"ENG","country_id":232,"country_code":"GB","latitude":"50.80900000","longitude":"-2.73910000"},{"id":"48442","name":"Bebington","state_id":2336,"state_code":"ENG","country_id":232,"country_code":"GB","latitude":"53.35000000","longitude":"-3.01667000"},{"id":"48443","name":"Beccles","state_id":2336,"state_code":"ENG","country_id":232,"country_code":"GB","latitude":"52.45936000","longitude":"1.56465000"},{"id":"48444","name":"Beckenham","state_id":2336,"state_code":"ENG","country_id":232,"country_code":"GB","latitude":"51.40878000","longitude":"-0.02526000"},{"id":"48445","name":"Beckingham","state_id":2336,"state_code":"ENG","country_id":232,"country_code":"GB","latitude":"53.40000000","longitude":"-0.83333000"},{"id":"48446","name":"Becontree","state_id":2336,"state_code":"ENG","country_id":232,"country_code":"GB","latitude":"51.55290000","longitude":"0.12900000"},{"id":"48447","name":"Bedale","state_id":2336,"state_code":"ENG","country_id":232,"country_code":"GB","latitude":"54.28811000","longitude":"-1.59181000"},{"id":"48449","name":"Bedford","state_id":2336,"state_code":"ENG","country_id":232,"country_code":"GB","latitude":"52.18831000","longitude":"-0.45316000"},{"id":"48450","name":"Bedlington","state_id":2336,"state_code":"ENG","country_id":232,"country_code":"GB","latitude":"55.13061000","longitude":"-1.59319000"},{"id":"48453","name":"Bedworth","state_id":2336,"state_code":"ENG","country_id":232,"country_code":"GB","latitude":"52.47910000","longitude":"-1.46909000"},{"id":"48454","name":"Beeford","state_id":2336,"state_code":"ENG","country_id":232,"country_code":"GB","latitude":"53.96999000","longitude":"-0.28913000"},{"id":"48455","name":"Beighton","state_id":2336,"state_code":"ENG","country_id":232,"country_code":"GB","latitude":"53.33333000","longitude":"-1.33333000"},{"id":"48457","name":"Belbroughton","state_id":2336,"state_code":"ENG","country_id":232,"country_code":"GB","latitude":"52.39177000","longitude":"-2.11884000"},{"id":"48459","name":"Belford","state_id":2336,"state_code":"ENG","country_id":232,"country_code":"GB","latitude":"55.60000000","longitude":"-1.83333000"},{"id":"48461","name":"Bellingham","state_id":2336,"state_code":"ENG","country_id":232,"country_code":"GB","latitude":"55.14464000","longitude":"-2.25383000"},{"id":"48464","name":"Belmont","state_id":2336,"state_code":"ENG","country_id":232,"country_code":"GB","latitude":"52.04272000","longitude":"-2.74169000"},{"id":"48465","name":"Belper","state_id":2336,"state_code":"ENG","country_id":232,"country_code":"GB","latitude":"53.02330000","longitude":"-1.48119000"},{"id":"48466","name":"Belsize Park","state_id":2336,"state_code":"ENG","country_id":232,"country_code":"GB","latitude":"51.54767000","longitude":"-0.17228000"},{"id":"48467","name":"Belton","state_id":2336,"state_code":"ENG","country_id":232,"country_code":"GB","latitude":"53.55000000","longitude":"-0.81667000"},{"id":"48468","name":"Belvedere","state_id":2336,"state_code":"ENG","country_id":232,"country_code":"GB","latitude":"51.49114000","longitude":"0.15136000"},{"id":"48469","name":"Bembridge","state_id":2336,"state_code":"ENG","country_id":232,"country_code":"GB","latitude":"50.68634000","longitude":"-1.08275000"},{"id":"48470","name":"Bempton","state_id":2336,"state_code":"ENG","country_id":232,"country_code":"GB","latitude":"54.13036000","longitude":"-0.17853000"},{"id":"48473","name":"Benson","state_id":2336,"state_code":"ENG","country_id":232,"country_code":"GB","latitude":"51.62073000","longitude":"-1.10979000"},{"id":"48474","name":"Bentley","state_id":2336,"state_code":"ENG","country_id":232,"country_code":"GB","latitude":"53.53333000","longitude":"-1.15000000"},{"id":"48475","name":"Benwell","state_id":2336,"state_code":"ENG","country_id":232,"country_code":"GB","latitude":"54.97296000","longitude":"-1.66926000"},{"id":"48476","name":"Bere Alston","state_id":2336,"state_code":"ENG","country_id":232,"country_code":"GB","latitude":"50.48233000","longitude":"-4.19034000"},{"id":"48477","name":"Bere Regis","state_id":2336,"state_code":"ENG","country_id":232,"country_code":"GB","latitude":"50.75371000","longitude":"-2.21553000"},{"id":"48478","name":"Berkeley","state_id":2336,"state_code":"ENG","country_id":232,"country_code":"GB","latitude":"51.69111000","longitude":"-2.45917000"},{"id":"48479","name":"Berkhamsted","state_id":2336,"state_code":"ENG","country_id":232,"country_code":"GB","latitude":"51.76040000","longitude":"-0.56528000"},{"id":"48480","name":"Berwick-Upon-Tweed","state_id":2336,"state_code":"ENG","country_id":232,"country_code":"GB","latitude":"55.76536000","longitude":"-2.01186000"},{"id":"48482","name":"Bethnal Green","state_id":2336,"state_code":"ENG","country_id":232,"country_code":"GB","latitude":"51.52718000","longitude":"-0.06109000"},{"id":"48483","name":"Betley","state_id":2336,"state_code":"ENG","country_id":232,"country_code":"GB","latitude":"53.03439000","longitude":"-2.36865000"},{"id":"48486","name":"Beverley","state_id":2336,"state_code":"ENG","country_id":232,"country_code":"GB","latitude":"53.84587000","longitude":"-0.42332000"},{"id":"48487","name":"Bewbush","state_id":2336,"state_code":"ENG","country_id":232,"country_code":"GB","latitude":"51.10329000","longitude":"-0.22312000"},{"id":"48488","name":"Bewdley","state_id":2336,"state_code":"ENG","country_id":232,"country_code":"GB","latitude":"52.37570000","longitude":"-2.31833000"},{"id":"48489","name":"Bexhill-on-Sea","state_id":2336,"state_code":"ENG","country_id":232,"country_code":"GB","latitude":"50.85023000","longitude":"0.47095000"},{"id":"48490","name":"Bexley","state_id":2336,"state_code":"ENG","country_id":232,"country_code":"GB","latitude":"51.44162000","longitude":"0.14866000"},{"id":"48491","name":"Bicester","state_id":2336,"state_code":"ENG","country_id":232,"country_code":"GB","latitude":"51.89998000","longitude":"-1.15357000"},{"id":"48492","name":"Bicknacre","state_id":2336,"state_code":"ENG","country_id":232,"country_code":"GB","latitude":"51.69403000","longitude":"0.58519000"},{"id":"48493","name":"Bicton","state_id":2336,"state_code":"ENG","country_id":232,"country_code":"GB","latitude":"52.72829000","longitude":"-2.81649000"},{"id":"48494","name":"Biddenden","state_id":2336,"state_code":"ENG","country_id":232,"country_code":"GB","latitude":"51.11489000","longitude":"0.63819000"},{"id":"48495","name":"Biddestone","state_id":2336,"state_code":"ENG","country_id":232,"country_code":"GB","latitude":"51.46083000","longitude":"-2.19833000"},{"id":"48496","name":"Biddulph","state_id":2336,"state_code":"ENG","country_id":232,"country_code":"GB","latitude":"53.11724000","longitude":"-2.17584000"},{"id":"48497","name":"Bideford","state_id":2336,"state_code":"ENG","country_id":232,"country_code":"GB","latitude":"51.01678000","longitude":"-4.20832000"},{"id":"48498","name":"Bidford-on-Avon","state_id":2336,"state_code":"ENG","country_id":232,"country_code":"GB","latitude":"52.16964000","longitude":"-1.85955000"},{"id":"48500","name":"Biggin Hill","state_id":2336,"state_code":"ENG","country_id":232,"country_code":"GB","latitude":"51.31329000","longitude":"0.03433000"},{"id":"48501","name":"Biggleswade","state_id":2336,"state_code":"ENG","country_id":232,"country_code":"GB","latitude":"52.08652000","longitude":"-0.26493000"},{"id":"48502","name":"Bildeston","state_id":2336,"state_code":"ENG","country_id":232,"country_code":"GB","latitude":"52.10658000","longitude":"0.90916000"},{"id":"48503","name":"Billericay","state_id":2336,"state_code":"ENG","country_id":232,"country_code":"GB","latitude":"51.62867000","longitude":"0.41963000"},{"id":"48504","name":"Billingborough","state_id":2336,"state_code":"ENG","country_id":232,"country_code":"GB","latitude":"52.89384000","longitude":"-0.34186000"},{"id":"48505","name":"Billinge","state_id":2336,"state_code":"ENG","country_id":232,"country_code":"GB","latitude":"53.49795000","longitude":"-2.70810000"},{"id":"48506","name":"Billingham","state_id":2336,"state_code":"ENG","country_id":232,"country_code":"GB","latitude":"54.58881000","longitude":"-1.29034000"},{"id":"48507","name":"Billinghay","state_id":2336,"state_code":"ENG","country_id":232,"country_code":"GB","latitude":"53.07959000","longitude":"-0.27689000"},{"id":"48508","name":"Billingshurst","state_id":2336,"state_code":"ENG","country_id":232,"country_code":"GB","latitude":"51.02312000","longitude":"-0.45359000"},{"id":"48509","name":"Billington","state_id":2336,"state_code":"ENG","country_id":232,"country_code":"GB","latitude":"53.81570000","longitude":"-2.42360000"},{"id":"48510","name":"Bilsdale","state_id":2336,"state_code":"ENG","country_id":232,"country_code":"GB","latitude":"54.37356000","longitude":"-1.11923000"},{"id":"48511","name":"Bilsthorpe","state_id":2336,"state_code":"ENG","country_id":232,"country_code":"GB","latitude":"53.14024000","longitude":"-1.03392000"},{"id":"48512","name":"Bilston","state_id":2336,"state_code":"ENG","country_id":232,"country_code":"GB","latitude":"52.56568000","longitude":"-2.07367000"},{"id":"48514","name":"Bingham","state_id":2336,"state_code":"ENG","country_id":232,"country_code":"GB","latitude":"52.94978000","longitude":"-0.95907000"},{"id":"48515","name":"Bingley","state_id":2336,"state_code":"ENG","country_id":232,"country_code":"GB","latitude":"53.84861000","longitude":"-1.83857000"},{"id":"48516","name":"Birchington-on-Sea","state_id":2336,"state_code":"ENG","country_id":232,"country_code":"GB","latitude":"51.37575000","longitude":"1.30480000"},{"id":"48517","name":"Bircotes","state_id":2336,"state_code":"ENG","country_id":232,"country_code":"GB","latitude":"53.41933000","longitude":"-1.04905000"},{"id":"48518","name":"Birdham","state_id":2336,"state_code":"ENG","country_id":232,"country_code":"GB","latitude":"50.79606000","longitude":"-0.83067000"},{"id":"48519","name":"Birdwell","state_id":2336,"state_code":"ENG","country_id":232,"country_code":"GB","latitude":"53.51398000","longitude":"-1.47929000"},{"id":"48520","name":"Birkenhead","state_id":2336,"state_code":"ENG","country_id":232,"country_code":"GB","latitude":"53.39337000","longitude":"-3.01479000"},{"id":"48521","name":"Birmingham","state_id":2336,"state_code":"ENG","country_id":232,"country_code":"GB","latitude":"52.48142000","longitude":"-1.89983000"},{"id":"48522","name":"Bishop Auckland","state_id":2336,"state_code":"ENG","country_id":232,"country_code":"GB","latitude":"54.65554000","longitude":"-1.67706000"},{"id":"48523","name":"Bishop Middleham","state_id":2336,"state_code":"ENG","country_id":232,"country_code":"GB","latitude":"54.67778000","longitude":"-1.48826000"},{"id":"48524","name":"Bishop Sutton","state_id":2336,"state_code":"ENG","country_id":232,"country_code":"GB","latitude":"51.33444000","longitude":"-2.59472000"},{"id":"48525","name":"Bishop's Castle","state_id":2336,"state_code":"ENG","country_id":232,"country_code":"GB","latitude":"52.49208000","longitude":"-3.00210000"},{"id":"48527","name":"Bishops Cleeve","state_id":2336,"state_code":"ENG","country_id":232,"country_code":"GB","latitude":"51.94749000","longitude":"-2.06277000"},{"id":"48528","name":"Bishops Lydeard","state_id":2336,"state_code":"ENG","country_id":232,"country_code":"GB","latitude":"51.05917000","longitude":"-3.18778000"},{"id":"48529","name":"Bishops Stortford","state_id":2336,"state_code":"ENG","country_id":232,"country_code":"GB","latitude":"51.87113000","longitude":"0.15868000"},{"id":"48530","name":"Bishops Waltham","state_id":2336,"state_code":"ENG","country_id":232,"country_code":"GB","latitude":"50.95595000","longitude":"-1.21476000"},{"id":"48531","name":"Bishopsteignton","state_id":2336,"state_code":"ENG","country_id":232,"country_code":"GB","latitude":"50.55193000","longitude":"-3.53852000"},{"id":"48532","name":"Bishopstoke","state_id":2336,"state_code":"ENG","country_id":232,"country_code":"GB","latitude":"50.96643000","longitude":"-1.32832000"},{"id":"48534","name":"Bishopstone","state_id":2336,"state_code":"ENG","country_id":232,"country_code":"GB","latitude":"51.55130000","longitude":"-1.64701000"},{"id":"48535","name":"Bishopsworth","state_id":2336,"state_code":"ENG","country_id":232,"country_code":"GB","latitude":"51.41479000","longitude":"-2.62080000"},{"id":"48536","name":"Bishopthorpe","state_id":2336,"state_code":"ENG","country_id":232,"country_code":"GB","latitude":"53.91910000","longitude":"-1.09915000"},{"id":"48538","name":"Bishopton","state_id":2336,"state_code":"ENG","country_id":232,"country_code":"GB","latitude":"54.58333000","longitude":"-1.43333000"},{"id":"48539","name":"Bitton","state_id":2336,"state_code":"ENG","country_id":232,"country_code":"GB","latitude":"51.42479000","longitude":"-2.45965000"},{"id":"48540","name":"Blaby","state_id":2336,"state_code":"ENG","country_id":232,"country_code":"GB","latitude":"52.57577000","longitude":"-1.16403000"},{"id":"48541","name":"Black Notley","state_id":2336,"state_code":"ENG","country_id":232,"country_code":"GB","latitude":"51.85301000","longitude":"0.56846000"},{"id":"48543","name":"Blackburn","state_id":2336,"state_code":"ENG","country_id":232,"country_code":"GB","latitude":"53.75000000","longitude":"-2.48333000"},{"id":"48544","name":"Blackburn with Darwen","state_id":2336,"state_code":"ENG","country_id":232,"country_code":"GB","latitude":"53.66667000","longitude":"-2.46667000"},{"id":"48545","name":"Blackheath","state_id":2336,"state_code":"ENG","country_id":232,"country_code":"GB","latitude":"51.46470000","longitude":"0.00790000"},{"id":"48546","name":"Blackley","state_id":2336,"state_code":"ENG","country_id":232,"country_code":"GB","latitude":"53.51765000","longitude":"-2.21443000"},{"id":"48547","name":"Blackmoorfoot","state_id":2336,"state_code":"ENG","country_id":232,"country_code":"GB","latitude":"53.61423000","longitude":"-1.85588000"},{"id":"48548","name":"Blackpool","state_id":2336,"state_code":"ENG","country_id":232,"country_code":"GB","latitude":"53.81667000","longitude":"-3.05000000"},{"id":"48550","name":"Blackrod","state_id":2336,"state_code":"ENG","country_id":232,"country_code":"GB","latitude":"53.59229000","longitude":"-2.58026000"},{"id":"48551","name":"Blackwell","state_id":2336,"state_code":"ENG","country_id":232,"country_code":"GB","latitude":"53.11667000","longitude":"-1.33333000"},{"id":"48554","name":"Blacon","state_id":2336,"state_code":"ENG","country_id":232,"country_code":"GB","latitude":"53.20832000","longitude":"-2.92530000"},{"id":"48559","name":"Blagdon","state_id":2336,"state_code":"ENG","country_id":232,"country_code":"GB","latitude":"51.32688000","longitude":"-2.71731000"},{"id":"48561","name":"Blandford Forum","state_id":2336,"state_code":"ENG","country_id":232,"country_code":"GB","latitude":"50.86073000","longitude":"-2.16174000"},{"id":"48563","name":"Blaydon-on-Tyne","state_id":2336,"state_code":"ENG","country_id":232,"country_code":"GB","latitude":"54.96461000","longitude":"-1.71392000"},{"id":"48564","name":"Bleadon","state_id":2336,"state_code":"ENG","country_id":232,"country_code":"GB","latitude":"51.30861000","longitude":"-2.94750000"},{"id":"48565","name":"Blean","state_id":2336,"state_code":"ENG","country_id":232,"country_code":"GB","latitude":"51.30679000","longitude":"1.04301000"},{"id":"48566","name":"Bletchingley","state_id":2336,"state_code":"ENG","country_id":232,"country_code":"GB","latitude":"51.24059000","longitude":"-0.10038000"},{"id":"48567","name":"Bletchley","state_id":2336,"state_code":"ENG","country_id":232,"country_code":"GB","latitude":"51.99334000","longitude":"-0.73471000"},{"id":"48568","name":"Blewbury","state_id":2336,"state_code":"ENG","country_id":232,"country_code":"GB","latitude":"51.56880000","longitude":"-1.23261000"},{"id":"48569","name":"Blidworth","state_id":2336,"state_code":"ENG","country_id":232,"country_code":"GB","latitude":"53.09849000","longitude":"-1.11689000"},{"id":"48570","name":"Blindley Heath","state_id":2336,"state_code":"ENG","country_id":232,"country_code":"GB","latitude":"51.19344000","longitude":"-0.05116000"},{"id":"48571","name":"Blisworth","state_id":2336,"state_code":"ENG","country_id":232,"country_code":"GB","latitude":"52.17498000","longitude":"-0.94131000"},{"id":"48572","name":"Blockley","state_id":2336,"state_code":"ENG","country_id":232,"country_code":"GB","latitude":"52.01220000","longitude":"-1.76268000"},{"id":"48573","name":"Bloxham","state_id":2336,"state_code":"ENG","country_id":232,"country_code":"GB","latitude":"52.02039000","longitude":"-1.37321000"},{"id":"48574","name":"Bloxwich","state_id":2336,"state_code":"ENG","country_id":232,"country_code":"GB","latitude":"52.61806000","longitude":"-2.00431000"},{"id":"48575","name":"Blunham","state_id":2336,"state_code":"ENG","country_id":232,"country_code":"GB","latitude":"52.14695000","longitude":"-0.32178000"},{"id":"48576","name":"Bluntisham","state_id":2336,"state_code":"ENG","country_id":232,"country_code":"GB","latitude":"52.35479000","longitude":"0.00854000"},{"id":"48577","name":"Blyth","state_id":2336,"state_code":"ENG","country_id":232,"country_code":"GB","latitude":"55.12708000","longitude":"-1.50856000"},{"id":"48578","name":"Blyton","state_id":2336,"state_code":"ENG","country_id":232,"country_code":"GB","latitude":"53.44384000","longitude":"-0.71753000"},{"id":"48582","name":"Bodle Street","state_id":2336,"state_code":"ENG","country_id":232,"country_code":"GB","latitude":"50.91299000","longitude":"0.34332000"},{"id":"48583","name":"Bodmin","state_id":2336,"state_code":"ENG","country_id":232,"country_code":"GB","latitude":"50.47151000","longitude":"-4.72430000"},{"id":"48584","name":"Bognor Regis","state_id":2336,"state_code":"ENG","country_id":232,"country_code":"GB","latitude":"50.78206000","longitude":"-0.67978000"},{"id":"48585","name":"Bollington","state_id":2336,"state_code":"ENG","country_id":232,"country_code":"GB","latitude":"53.29446000","longitude":"-2.10963000"},{"id":"48586","name":"Bolsover","state_id":2336,"state_code":"ENG","country_id":232,"country_code":"GB","latitude":"53.22846000","longitude":"-1.29204000"},{"id":"48587","name":"Bolton","state_id":2336,"state_code":"ENG","country_id":232,"country_code":"GB","latitude":"53.58333000","longitude":"-2.43333000"},{"id":"48588","name":"Bolton le Sands","state_id":2336,"state_code":"ENG","country_id":232,"country_code":"GB","latitude":"54.09632000","longitude":"-2.80017000"},{"id":"48589","name":"Bolton upon Dearne","state_id":2336,"state_code":"ENG","country_id":232,"country_code":"GB","latitude":"53.51667000","longitude":"-1.31667000"},{"id":"48593","name":"Boosbeck","state_id":2336,"state_code":"ENG","country_id":232,"country_code":"GB","latitude":"54.54265000","longitude":"-0.98139000"},{"id":"48594","name":"Bootle","state_id":2336,"state_code":"ENG","country_id":232,"country_code":"GB","latitude":"53.46667000","longitude":"-3.01667000"},{"id":"48595","name":"Bordon","state_id":2336,"state_code":"ENG","country_id":232,"country_code":"GB","latitude":"51.11357000","longitude":"-0.86245000"},{"id":"48596","name":"Boreham","state_id":2336,"state_code":"ENG","country_id":232,"country_code":"GB","latitude":"51.75955000","longitude":"0.54116000"},{"id":"48597","name":"Borehamwood","state_id":2336,"state_code":"ENG","country_id":232,"country_code":"GB","latitude":"51.65468000","longitude":"-0.27762000"},{"id":"48598","name":"Borough Green","state_id":2336,"state_code":"ENG","country_id":232,"country_code":"GB","latitude":"51.29158000","longitude":"0.30478000"},{"id":"48599","name":"Borough of Bolton","state_id":2336,"state_code":"ENG","country_id":232,"country_code":"GB","latitude":"53.58333000","longitude":"-2.50000000"},{"id":"48600","name":"Borough of Bury","state_id":2336,"state_code":"ENG","country_id":232,"country_code":"GB","latitude":"53.58333000","longitude":"-2.33333000"},{"id":"48601","name":"Borough of Halton","state_id":2336,"state_code":"ENG","country_id":232,"country_code":"GB","latitude":"53.33333000","longitude":"-2.75000000"},{"id":"48602","name":"Borough of North Tyneside","state_id":2336,"state_code":"ENG","country_id":232,"country_code":"GB","latitude":"55.03333000","longitude":"-1.50000000"},{"id":"48603","name":"Borough of Oldham","state_id":2336,"state_code":"ENG","country_id":232,"country_code":"GB","latitude":"53.55000000","longitude":"-2.08333000"},{"id":"48604","name":"Borough of Rochdale","state_id":2336,"state_code":"ENG","country_id":232,"country_code":"GB","latitude":"53.58333000","longitude":"-2.16667000"},{"id":"48605","name":"Borough of Stockport","state_id":2336,"state_code":"ENG","country_id":232,"country_code":"GB","latitude":"53.41667000","longitude":"-2.16667000"},{"id":"48606","name":"Borough of Swindon","state_id":2336,"state_code":"ENG","country_id":232,"country_code":"GB","latitude":"51.58333000","longitude":"-1.75000000"},{"id":"48607","name":"Borough of Tameside","state_id":2336,"state_code":"ENG","country_id":232,"country_code":"GB","latitude":"53.50000000","longitude":"-2.08333000"},{"id":"48608","name":"Borough of Thurrock","state_id":2336,"state_code":"ENG","country_id":232,"country_code":"GB","latitude":"51.50000000","longitude":"0.41667000"},{"id":"48609","name":"Borough of Torbay","state_id":2336,"state_code":"ENG","country_id":232,"country_code":"GB","latitude":"50.45160000","longitude":"-3.55785000"},{"id":"48610","name":"Borough of Wigan","state_id":2336,"state_code":"ENG","country_id":232,"country_code":"GB","latitude":"53.50000000","longitude":"-2.58333000"},{"id":"48611","name":"Boroughbridge","state_id":2336,"state_code":"ENG","country_id":232,"country_code":"GB","latitude":"54.08950000","longitude":"-1.40110000"},{"id":"48612","name":"Borrowash","state_id":2336,"state_code":"ENG","country_id":232,"country_code":"GB","latitude":"52.90673000","longitude":"-1.38411000"},{"id":"48614","name":"Bosham","state_id":2336,"state_code":"ENG","country_id":232,"country_code":"GB","latitude":"50.83088000","longitude":"-0.85384000"},{"id":"48615","name":"Boston","state_id":2336,"state_code":"ENG","country_id":232,"country_code":"GB","latitude":"52.97633000","longitude":"-0.02664000"},{"id":"48616","name":"Boston Spa","state_id":2336,"state_code":"ENG","country_id":232,"country_code":"GB","latitude":"53.90419000","longitude":"-1.34523000"},{"id":"48617","name":"Botesdale","state_id":2336,"state_code":"ENG","country_id":232,"country_code":"GB","latitude":"52.34216000","longitude":"1.00405000"},{"id":"48619","name":"Botley","state_id":2336,"state_code":"ENG","country_id":232,"country_code":"GB","latitude":"50.91433000","longitude":"-1.26984000"},{"id":"48620","name":"Bottesford","state_id":2336,"state_code":"ENG","country_id":232,"country_code":"GB","latitude":"52.94131000","longitude":"-0.80060000"},{"id":"48621","name":"Bottisham","state_id":2336,"state_code":"ENG","country_id":232,"country_code":"GB","latitude":"52.22280000","longitude":"0.25878000"},{"id":"48622","name":"Boughton","state_id":2336,"state_code":"ENG","country_id":232,"country_code":"GB","latitude":"53.20000000","longitude":"-0.98333000"},{"id":"48623","name":"Bourne","state_id":2336,"state_code":"ENG","country_id":232,"country_code":"GB","latitude":"52.76667000","longitude":"-0.38333000"},{"id":"48624","name":"Bourne End","state_id":2336,"state_code":"ENG","country_id":232,"country_code":"GB","latitude":"51.57622000","longitude":"-0.71291000"},{"id":"48625","name":"Bournemouth","state_id":2336,"state_code":"ENG","country_id":232,"country_code":"GB","latitude":"50.71918000","longitude":"-1.87806000"},{"id":"48626","name":"Bourton","state_id":2336,"state_code":"ENG","country_id":232,"country_code":"GB","latitude":"51.07444000","longitude":"-2.32778000"},{"id":"48627","name":"Bourton on the Water","state_id":2336,"state_code":"ENG","country_id":232,"country_code":"GB","latitude":"51.88584000","longitude":"-1.75492000"},{"id":"48628","name":"Bovey Tracey","state_id":2336,"state_code":"ENG","country_id":232,"country_code":"GB","latitude":"50.59259000","longitude":"-3.67543000"},{"id":"48629","name":"Bovingdon","state_id":2336,"state_code":"ENG","country_id":232,"country_code":"GB","latitude":"51.72312000","longitude":"-0.53670000"},{"id":"48630","name":"Bovington Camp","state_id":2336,"state_code":"ENG","country_id":232,"country_code":"GB","latitude":"50.69782000","longitude":"-2.23506000"},{"id":"48631","name":"Bow","state_id":2336,"state_code":"ENG","country_id":232,"country_code":"GB","latitude":"50.80000000","longitude":"-3.81667000"},{"id":"48632","name":"Bow Brickhill","state_id":2336,"state_code":"ENG","country_id":232,"country_code":"GB","latitude":"52.00280000","longitude":"-0.68064000"},{"id":"48634","name":"Bowburn","state_id":2336,"state_code":"ENG","country_id":232,"country_code":"GB","latitude":"54.73850000","longitude":"-1.52521000"},{"id":"48635","name":"Bowdon","state_id":2336,"state_code":"ENG","country_id":232,"country_code":"GB","latitude":"53.37644000","longitude":"-2.36532000"},{"id":"48636","name":"Bowthorpe","state_id":2336,"state_code":"ENG","country_id":232,"country_code":"GB","latitude":"52.63884000","longitude":"1.21885000"},{"id":"48637","name":"Box","state_id":2336,"state_code":"ENG","country_id":232,"country_code":"GB","latitude":"51.41472000","longitude":"-2.24556000"},{"id":"48638","name":"Boxgrove","state_id":2336,"state_code":"ENG","country_id":232,"country_code":"GB","latitude":"50.85884000","longitude":"-0.71360000"},{"id":"48639","name":"Boxted","state_id":2336,"state_code":"ENG","country_id":232,"country_code":"GB","latitude":"51.94878000","longitude":"0.91002000"},{"id":"48640","name":"Bozeat","state_id":2336,"state_code":"ENG","country_id":232,"country_code":"GB","latitude":"52.22270000","longitude":"-0.67326000"},{"id":"48642","name":"Bracebridge Heath","state_id":2336,"state_code":"ENG","country_id":232,"country_code":"GB","latitude":"53.19647000","longitude":"-0.53421000"},{"id":"48643","name":"Brackley","state_id":2336,"state_code":"ENG","country_id":232,"country_code":"GB","latitude":"52.03333000","longitude":"-1.15000000"},{"id":"48644","name":"Bracknell","state_id":2336,"state_code":"ENG","country_id":232,"country_code":"GB","latitude":"51.41363000","longitude":"-0.75054000"},{"id":"48645","name":"Bracknell Forest","state_id":2336,"state_code":"ENG","country_id":232,"country_code":"GB","latitude":"51.41667000","longitude":"-0.75000000"},{"id":"48646","name":"Bradfield","state_id":2336,"state_code":"ENG","country_id":232,"country_code":"GB","latitude":"51.44914000","longitude":"-1.13082000"},{"id":"48647","name":"Bradford","state_id":2336,"state_code":"ENG","country_id":232,"country_code":"GB","latitude":"53.83333000","longitude":"-1.83333000"},{"id":"48648","name":"Bradford-on-Avon","state_id":2336,"state_code":"ENG","country_id":232,"country_code":"GB","latitude":"51.34772000","longitude":"-2.25065000"},{"id":"48649","name":"Brading","state_id":2336,"state_code":"ENG","country_id":232,"country_code":"GB","latitude":"50.67990000","longitude":"-1.14571000"},{"id":"48650","name":"Bradley Cross","state_id":2336,"state_code":"ENG","country_id":232,"country_code":"GB","latitude":"51.27488000","longitude":"-2.76256000"},{"id":"48651","name":"Bradninch","state_id":2336,"state_code":"ENG","country_id":232,"country_code":"GB","latitude":"50.82491000","longitude":"-3.42465000"},{"id":"48652","name":"Bradwell","state_id":2336,"state_code":"ENG","country_id":232,"country_code":"GB","latitude":"52.57353000","longitude":"1.69979000"},{"id":"48653","name":"Braintree","state_id":2336,"state_code":"ENG","country_id":232,"country_code":"GB","latitude":"51.87819000","longitude":"0.55292000"},{"id":"48654","name":"Bramford","state_id":2336,"state_code":"ENG","country_id":232,"country_code":"GB","latitude":"52.07631000","longitude":"1.09687000"},{"id":"48655","name":"Bramhall","state_id":2336,"state_code":"ENG","country_id":232,"country_code":"GB","latitude":"53.35801000","longitude":"-2.16539000"},{"id":"48656","name":"Bramham","state_id":2336,"state_code":"ENG","country_id":232,"country_code":"GB","latitude":"53.88118000","longitude":"-1.35452000"},{"id":"48657","name":"Bramhope","state_id":2336,"state_code":"ENG","country_id":232,"country_code":"GB","latitude":"53.88489000","longitude":"-1.61641000"},{"id":"48658","name":"Bramley","state_id":2336,"state_code":"ENG","country_id":232,"country_code":"GB","latitude":"51.32677000","longitude":"-1.05938000"},{"id":"48659","name":"Brampton","state_id":2336,"state_code":"ENG","country_id":232,"country_code":"GB","latitude":"52.32039000","longitude":"-0.22007000"},{"id":"48660","name":"Brandesburton","state_id":2336,"state_code":"ENG","country_id":232,"country_code":"GB","latitude":"53.91110000","longitude":"-0.30122000"},{"id":"48661","name":"Brandon","state_id":2336,"state_code":"ENG","country_id":232,"country_code":"GB","latitude":"54.75000000","longitude":"-1.61667000"},{"id":"48662","name":"Bransgore","state_id":2336,"state_code":"ENG","country_id":232,"country_code":"GB","latitude":"50.78153000","longitude":"-1.73771000"},{"id":"48663","name":"Branston","state_id":2336,"state_code":"ENG","country_id":232,"country_code":"GB","latitude":"53.19544000","longitude":"-0.47482000"},{"id":"48664","name":"Bratton","state_id":2336,"state_code":"ENG","country_id":232,"country_code":"GB","latitude":"51.27056000","longitude":"-2.12444000"},{"id":"48665","name":"Braunston","state_id":2336,"state_code":"ENG","country_id":232,"country_code":"GB","latitude":"52.28979000","longitude":"-1.20266000"},{"id":"48666","name":"Braunton","state_id":2336,"state_code":"ENG","country_id":232,"country_code":"GB","latitude":"51.10847000","longitude":"-4.16131000"},{"id":"48667","name":"Brayton","state_id":2336,"state_code":"ENG","country_id":232,"country_code":"GB","latitude":"53.76510000","longitude":"-1.08921000"},{"id":"48668","name":"Bream","state_id":2336,"state_code":"ENG","country_id":232,"country_code":"GB","latitude":"51.74822000","longitude":"-2.57747000"},{"id":"48671","name":"Bredbury","state_id":2336,"state_code":"ENG","country_id":232,"country_code":"GB","latitude":"53.41667000","longitude":"-2.11667000"},{"id":"48672","name":"Bredon","state_id":2336,"state_code":"ENG","country_id":232,"country_code":"GB","latitude":"52.03008000","longitude":"-2.11671000"},{"id":"48673","name":"Brenchley","state_id":2336,"state_code":"ENG","country_id":232,"country_code":"GB","latitude":"51.15141000","longitude":"0.39825000"},{"id":"48674","name":"Brent","state_id":2336,"state_code":"ENG","country_id":232,"country_code":"GB","latitude":"51.55306000","longitude":"-0.30230000"},{"id":"48675","name":"Brent Knoll","state_id":2336,"state_code":"ENG","country_id":232,"country_code":"GB","latitude":"51.25219000","longitude":"-2.95744000"},{"id":"48676","name":"Brentford","state_id":2336,"state_code":"ENG","country_id":232,"country_code":"GB","latitude":"51.48619000","longitude":"-0.30830000"},{"id":"48677","name":"Brentwood","state_id":2336,"state_code":"ENG","country_id":232,"country_code":"GB","latitude":"51.62127000","longitude":"0.30556000"},{"id":"48678","name":"Brewood","state_id":2336,"state_code":"ENG","country_id":232,"country_code":"GB","latitude":"52.67712000","longitude":"-2.17414000"},{"id":"48679","name":"Bridge","state_id":2336,"state_code":"ENG","country_id":232,"country_code":"GB","latitude":"51.24513000","longitude":"1.12640000"},{"id":"48685","name":"Bridgnorth","state_id":2336,"state_code":"ENG","country_id":232,"country_code":"GB","latitude":"52.53661000","longitude":"-2.42033000"},{"id":"48686","name":"Bridgwater","state_id":2336,"state_code":"ENG","country_id":232,"country_code":"GB","latitude":"51.12837000","longitude":"-3.00356000"},{"id":"48687","name":"Bridlington","state_id":2336,"state_code":"ENG","country_id":232,"country_code":"GB","latitude":"54.08306000","longitude":"-0.19192000"},{"id":"48688","name":"Bridport","state_id":2336,"state_code":"ENG","country_id":232,"country_code":"GB","latitude":"50.73380000","longitude":"-2.75831000"},{"id":"48689","name":"Brierfield","state_id":2336,"state_code":"ENG","country_id":232,"country_code":"GB","latitude":"53.82468000","longitude":"-2.23415000"},{"id":"48690","name":"Brierley Hill","state_id":2336,"state_code":"ENG","country_id":232,"country_code":"GB","latitude":"52.48173000","longitude":"-2.12139000"},{"id":"48691","name":"Brigg","state_id":2336,"state_code":"ENG","country_id":232,"country_code":"GB","latitude":"53.55201000","longitude":"-0.49214000"},{"id":"48692","name":"Brighouse","state_id":2336,"state_code":"ENG","country_id":232,"country_code":"GB","latitude":"53.70322000","longitude":"-1.78428000"},{"id":"48693","name":"Brighstone","state_id":2336,"state_code":"ENG","country_id":232,"country_code":"GB","latitude":"50.64263000","longitude":"-1.39479000"},{"id":"48694","name":"Brightlingsea","state_id":2336,"state_code":"ENG","country_id":232,"country_code":"GB","latitude":"51.81164000","longitude":"1.02336000"},{"id":"48695","name":"Brighton","state_id":2336,"state_code":"ENG","country_id":232,"country_code":"GB","latitude":"50.82838000","longitude":"-0.13947000"},{"id":"48696","name":"Brighton and Hove","state_id":2336,"state_code":"ENG","country_id":232,"country_code":"GB","latitude":"50.83333000","longitude":"-0.13333000"},{"id":"48698","name":"Brigstock","state_id":2336,"state_code":"ENG","country_id":232,"country_code":"GB","latitude":"52.45775000","longitude":"-0.60834000"},{"id":"48699","name":"Brill","state_id":2336,"state_code":"ENG","country_id":232,"country_code":"GB","latitude":"51.81667000","longitude":"-1.05000000"},{"id":"48700","name":"Brimscombe","state_id":2336,"state_code":"ENG","country_id":232,"country_code":"GB","latitude":"51.71973000","longitude":"-2.18553000"},{"id":"48701","name":"Brinklow","state_id":2336,"state_code":"ENG","country_id":232,"country_code":"GB","latitude":"52.41091000","longitude":"-1.36400000"},{"id":"48702","name":"Brinscall","state_id":2336,"state_code":"ENG","country_id":232,"country_code":"GB","latitude":"53.68900000","longitude":"-2.57208000"},{"id":"48703","name":"Bristol","state_id":2336,"state_code":"ENG","country_id":232,"country_code":"GB","latitude":"51.45523000","longitude":"-2.59665000"},{"id":"48704","name":"Briston","state_id":2336,"state_code":"ENG","country_id":232,"country_code":"GB","latitude":"52.85369000","longitude":"1.05899000"},{"id":"48706","name":"Brixham","state_id":2336,"state_code":"ENG","country_id":232,"country_code":"GB","latitude":"50.39431000","longitude":"-3.51585000"},{"id":"48707","name":"Brixton","state_id":2336,"state_code":"ENG","country_id":232,"country_code":"GB","latitude":"51.46593000","longitude":"-0.10652000"},{"id":"48708","name":"Brixton Hill","state_id":2336,"state_code":"ENG","country_id":232,"country_code":"GB","latitude":"51.45213000","longitude":"-0.12300000"},{"id":"48709","name":"Brixworth","state_id":2336,"state_code":"ENG","country_id":232,"country_code":"GB","latitude":"52.32912000","longitude":"-0.90350000"},{"id":"48710","name":"Broad Blunsdon","state_id":2336,"state_code":"ENG","country_id":232,"country_code":"GB","latitude":"51.61339000","longitude":"-1.77870000"},{"id":"48711","name":"Broadfield","state_id":2336,"state_code":"ENG","country_id":232,"country_code":"GB","latitude":"51.09714000","longitude":"-0.20664000"},{"id":"48712","name":"Broadstairs","state_id":2336,"state_code":"ENG","country_id":232,"country_code":"GB","latitude":"51.35908000","longitude":"1.43938000"},{"id":"48713","name":"Broadstone","state_id":2336,"state_code":"ENG","country_id":232,"country_code":"GB","latitude":"50.75717000","longitude":"-1.99406000"},{"id":"48714","name":"Broadwater","state_id":2336,"state_code":"ENG","country_id":232,"country_code":"GB","latitude":"50.82887000","longitude":"-0.37594000"},{"id":"48715","name":"Broadway","state_id":2336,"state_code":"ENG","country_id":232,"country_code":"GB","latitude":"52.03825000","longitude":"-1.86079000"},{"id":"48716","name":"Brockenhurst","state_id":2336,"state_code":"ENG","country_id":232,"country_code":"GB","latitude":"50.81936000","longitude":"-1.57303000"},{"id":"48717","name":"Brockley","state_id":2336,"state_code":"ENG","country_id":232,"country_code":"GB","latitude":"51.40000000","longitude":"-2.76667000"},{"id":"48718","name":"Bromborough","state_id":2336,"state_code":"ENG","country_id":232,"country_code":"GB","latitude":"53.34850000","longitude":"-2.97935000"},{"id":"48719","name":"Bromham","state_id":2336,"state_code":"ENG","country_id":232,"country_code":"GB","latitude":"52.14508000","longitude":"-0.52906000"},{"id":"48720","name":"Brompton","state_id":2336,"state_code":"ENG","country_id":232,"country_code":"GB","latitude":"54.36015000","longitude":"-1.42422000"},{"id":"48721","name":"Bromsgrove","state_id":2336,"state_code":"ENG","country_id":232,"country_code":"GB","latitude":"52.33574000","longitude":"-2.05983000"},{"id":"48722","name":"Bromyard","state_id":2336,"state_code":"ENG","country_id":232,"country_code":"GB","latitude":"52.19019000","longitude":"-2.50875000"},{"id":"48723","name":"Brooke","state_id":2336,"state_code":"ENG","country_id":232,"country_code":"GB","latitude":"52.54175000","longitude":"1.37076000"},{"id":"48725","name":"Broseley","state_id":2336,"state_code":"ENG","country_id":232,"country_code":"GB","latitude":"52.61321000","longitude":"-2.48269000"},{"id":"48726","name":"Brotton","state_id":2336,"state_code":"ENG","country_id":232,"country_code":"GB","latitude":"54.56661000","longitude":"-0.93929000"},{"id":"48727","name":"Brough","state_id":2336,"state_code":"ENG","country_id":232,"country_code":"GB","latitude":"53.72861000","longitude":"-0.57215000"},{"id":"48729","name":"Broughton","state_id":2336,"state_code":"ENG","country_id":232,"country_code":"GB","latitude":"53.56667000","longitude":"-0.55000000"},{"id":"48731","name":"Broughton Astley","state_id":2336,"state_code":"ENG","country_id":232,"country_code":"GB","latitude":"52.52787000","longitude":"-1.21768000"},{"id":"48732","name":"Brownhills","state_id":2336,"state_code":"ENG","country_id":232,"country_code":"GB","latitude":"52.63333000","longitude":"-1.93333000"},{"id":"48733","name":"Broxbourne","state_id":2336,"state_code":"ENG","country_id":232,"country_code":"GB","latitude":"51.74712000","longitude":"-0.01923000"},{"id":"48735","name":"Brundall","state_id":2336,"state_code":"ENG","country_id":232,"country_code":"GB","latitude":"52.62426000","longitude":"1.43509000"},{"id":"48736","name":"Bruton","state_id":2336,"state_code":"ENG","country_id":232,"country_code":"GB","latitude":"51.11250000","longitude":"-2.45278000"},{"id":"48742","name":"Bubwith","state_id":2336,"state_code":"ENG","country_id":232,"country_code":"GB","latitude":"53.81905000","longitude":"-0.91968000"},{"id":"48743","name":"Buckden","state_id":2336,"state_code":"ENG","country_id":232,"country_code":"GB","latitude":"52.29415000","longitude":"-0.24912000"},{"id":"48744","name":"Buckfastleigh","state_id":2336,"state_code":"ENG","country_id":232,"country_code":"GB","latitude":"50.48132000","longitude":"-3.77913000"},{"id":"48746","name":"Buckhurst Hill","state_id":2336,"state_code":"ENG","country_id":232,"country_code":"GB","latitude":"51.62409000","longitude":"0.03262000"},{"id":"48748","name":"Buckingham","state_id":2336,"state_code":"ENG","country_id":232,"country_code":"GB","latitude":"51.99968000","longitude":"-0.98779000"},{"id":"48749","name":"Buckinghamshire","state_id":2336,"state_code":"ENG","country_id":232,"country_code":"GB","latitude":"51.75000000","longitude":"-0.75000000"},{"id":"48751","name":"Bucknell","state_id":2336,"state_code":"ENG","country_id":232,"country_code":"GB","latitude":"52.35997000","longitude":"-2.95066000"},{"id":"48752","name":"Bude","state_id":2336,"state_code":"ENG","country_id":232,"country_code":"GB","latitude":"50.82435000","longitude":"-4.54130000"},{"id":"48753","name":"Budleigh Salterton","state_id":2336,"state_code":"ENG","country_id":232,"country_code":"GB","latitude":"50.62983000","longitude":"-3.32181000"},{"id":"48754","name":"Bugbrooke","state_id":2336,"state_code":"ENG","country_id":232,"country_code":"GB","latitude":"52.21006000","longitude":"-1.01304000"},{"id":"48755","name":"Bugle","state_id":2336,"state_code":"ENG","country_id":232,"country_code":"GB","latitude":"50.39577000","longitude":"-4.79334000"},{"id":"48757","name":"Bulford","state_id":2336,"state_code":"ENG","country_id":232,"country_code":"GB","latitude":"51.18930000","longitude":"-1.76009000"},{"id":"48758","name":"Bulkington","state_id":2336,"state_code":"ENG","country_id":232,"country_code":"GB","latitude":"51.32361000","longitude":"-2.08361000"},{"id":"48759","name":"Bulphan","state_id":2336,"state_code":"ENG","country_id":232,"country_code":"GB","latitude":"51.54612000","longitude":"0.36066000"},{"id":"48760","name":"Bunbury","state_id":2336,"state_code":"ENG","country_id":232,"country_code":"GB","latitude":"53.11559000","longitude":"-2.65151000"},{"id":"48761","name":"Bungay","state_id":2336,"state_code":"ENG","country_id":232,"country_code":"GB","latitude":"52.45434000","longitude":"1.43818000"},{"id":"48762","name":"Buntingford","state_id":2336,"state_code":"ENG","country_id":232,"country_code":"GB","latitude":"51.94612000","longitude":"-0.01841000"},{"id":"48763","name":"Burbage","state_id":2336,"state_code":"ENG","country_id":232,"country_code":"GB","latitude":"51.35184000","longitude":"-1.67087000"},{"id":"48764","name":"Bures Saint Mary","state_id":2336,"state_code":"ENG","country_id":232,"country_code":"GB","latitude":"51.97240000","longitude":"0.77488000"},{"id":"48765","name":"Burford","state_id":2336,"state_code":"ENG","country_id":232,"country_code":"GB","latitude":"51.80915000","longitude":"-1.63628000"},{"id":"48766","name":"Burgess Hill","state_id":2336,"state_code":"ENG","country_id":232,"country_code":"GB","latitude":"50.95843000","longitude":"-0.13287000"},{"id":"48767","name":"Burgh le Marsh","state_id":2336,"state_code":"ENG","country_id":232,"country_code":"GB","latitude":"53.16158000","longitude":"0.24484000"},{"id":"48769","name":"Burham","state_id":2336,"state_code":"ENG","country_id":232,"country_code":"GB","latitude":"51.33243000","longitude":"0.47833000"},{"id":"48770","name":"Burley","state_id":2336,"state_code":"ENG","country_id":232,"country_code":"GB","latitude":"50.82800000","longitude":"-1.69977000"},{"id":"48771","name":"Burley in Wharfedale","state_id":2336,"state_code":"ENG","country_id":232,"country_code":"GB","latitude":"53.91020000","longitude":"-1.75798000"},{"id":"48772","name":"Burnage","state_id":2336,"state_code":"ENG","country_id":232,"country_code":"GB","latitude":"53.43265000","longitude":"-2.19967000"},{"id":"48773","name":"Burneside","state_id":2336,"state_code":"ENG","country_id":232,"country_code":"GB","latitude":"54.35271000","longitude":"-2.76151000"},{"id":"48774","name":"Burngreave","state_id":2336,"state_code":"ENG","country_id":232,"country_code":"GB","latitude":"53.39302000","longitude":"-1.45789000"},{"id":"48775","name":"Burnham-on-Crouch","state_id":2336,"state_code":"ENG","country_id":232,"country_code":"GB","latitude":"51.63272000","longitude":"0.81488000"},{"id":"48776","name":"Burnham-on-Sea","state_id":2336,"state_code":"ENG","country_id":232,"country_code":"GB","latitude":"51.23862000","longitude":"-2.99780000"},{"id":"48777","name":"Burniston","state_id":2336,"state_code":"ENG","country_id":232,"country_code":"GB","latitude":"54.32385000","longitude":"-0.44813000"},{"id":"48778","name":"Burnley","state_id":2336,"state_code":"ENG","country_id":232,"country_code":"GB","latitude":"53.80000000","longitude":"-2.23333000"},{"id":"48779","name":"Burnopfield","state_id":2336,"state_code":"ENG","country_id":232,"country_code":"GB","latitude":"54.90624000","longitude":"-1.72486000"},{"id":"48781","name":"Burntwood","state_id":2336,"state_code":"ENG","country_id":232,"country_code":"GB","latitude":"52.68075000","longitude":"-1.92759000"},{"id":"48782","name":"Burringham","state_id":2336,"state_code":"ENG","country_id":232,"country_code":"GB","latitude":"53.57402000","longitude":"-0.73957000"},{"id":"48783","name":"Burrington","state_id":2336,"state_code":"ENG","country_id":232,"country_code":"GB","latitude":"51.32884000","longitude":"-2.74868000"},{"id":"48785","name":"Burscough","state_id":2336,"state_code":"ENG","country_id":232,"country_code":"GB","latitude":"53.59640000","longitude":"-2.83972000"},{"id":"48786","name":"Bursledon","state_id":2336,"state_code":"ENG","country_id":232,"country_code":"GB","latitude":"50.88658000","longitude":"-1.31596000"},{"id":"48787","name":"Burstwick","state_id":2336,"state_code":"ENG","country_id":232,"country_code":"GB","latitude":"53.73211000","longitude":"-0.13956000"},{"id":"48788","name":"Burton","state_id":2336,"state_code":"ENG","country_id":232,"country_code":"GB","latitude":"53.26667000","longitude":"-0.56667000"},{"id":"48789","name":"Burton Joyce","state_id":2336,"state_code":"ENG","country_id":232,"country_code":"GB","latitude":"52.98825000","longitude":"-1.03407000"},{"id":"48790","name":"Burton Latimer","state_id":2336,"state_code":"ENG","country_id":232,"country_code":"GB","latitude":"52.36368000","longitude":"-0.67853000"},{"id":"48792","name":"Burton on the Wolds","state_id":2336,"state_code":"ENG","country_id":232,"country_code":"GB","latitude":"52.78574000","longitude":"-1.12988000"},{"id":"48791","name":"Burton Pidsea","state_id":2336,"state_code":"ENG","country_id":232,"country_code":"GB","latitude":"53.76327000","longitude":"-0.10703000"},{"id":"48793","name":"Burton upon Stather","state_id":2336,"state_code":"ENG","country_id":232,"country_code":"GB","latitude":"53.64911000","longitude":"-0.68453000"},{"id":"48794","name":"Burton upon Trent","state_id":2336,"state_code":"ENG","country_id":232,"country_code":"GB","latitude":"52.80728000","longitude":"-1.64263000"},{"id":"48795","name":"Burtonwood","state_id":2336,"state_code":"ENG","country_id":232,"country_code":"GB","latitude":"53.42948000","longitude":"-2.65852000"},{"id":"48796","name":"Burwash","state_id":2336,"state_code":"ENG","country_id":232,"country_code":"GB","latitude":"50.99755000","longitude":"0.38504000"},{"id":"48797","name":"Burwell","state_id":2336,"state_code":"ENG","country_id":232,"country_code":"GB","latitude":"52.27632000","longitude":"0.32732000"},{"id":"48798","name":"Bury","state_id":2336,"state_code":"ENG","country_id":232,"country_code":"GB","latitude":"53.60000000","longitude":"-2.30000000"},{"id":"48799","name":"Bury St Edmunds","state_id":2336,"state_code":"ENG","country_id":232,"country_code":"GB","latitude":"52.24630000","longitude":"0.71111000"},{"id":"48801","name":"Bushey","state_id":2336,"state_code":"ENG","country_id":232,"country_code":"GB","latitude":"51.64316000","longitude":"-0.36053000"},{"id":"48803","name":"Butterwick","state_id":2336,"state_code":"ENG","country_id":232,"country_code":"GB","latitude":"52.98333000","longitude":"0.06667000"},{"id":"48804","name":"Buxted","state_id":2336,"state_code":"ENG","country_id":232,"country_code":"GB","latitude":"50.99003000","longitude":"0.13441000"},{"id":"48805","name":"Buxton","state_id":2336,"state_code":"ENG","country_id":232,"country_code":"GB","latitude":"53.25741000","longitude":"-1.90982000"},{"id":"48806","name":"Byfield","state_id":2336,"state_code":"ENG","country_id":232,"country_code":"GB","latitude":"52.17546000","longitude":"-1.24566000"},{"id":"48807","name":"Byram","state_id":2336,"state_code":"ENG","country_id":232,"country_code":"GB","latitude":"53.72394000","longitude":"-1.26128000"},{"id":"48808","name":"Caddington","state_id":2336,"state_code":"ENG","country_id":232,"country_code":"GB","latitude":"51.86621000","longitude":"-0.45679000"},{"id":"48809","name":"Cadnam","state_id":2336,"state_code":"ENG","country_id":232,"country_code":"GB","latitude":"50.92047000","longitude":"-1.57970000"},{"id":"48818","name":"Caister-on-Sea","state_id":2336,"state_code":"ENG","country_id":232,"country_code":"GB","latitude":"52.64809000","longitude":"1.72648000"},{"id":"48819","name":"Caistor","state_id":2336,"state_code":"ENG","country_id":232,"country_code":"GB","latitude":"53.49673000","longitude":"-0.31538000"},{"id":"48820","name":"Calcot","state_id":2336,"state_code":"ENG","country_id":232,"country_code":"GB","latitude":"51.44058000","longitude":"-1.05091000"},{"id":"48823","name":"Calderdale","state_id":2336,"state_code":"ENG","country_id":232,"country_code":"GB","latitude":"53.70000000","longitude":"-2.00000000"},{"id":"48826","name":"Callington","state_id":2336,"state_code":"ENG","country_id":232,"country_code":"GB","latitude":"50.50147000","longitude":"-4.31314000"},{"id":"48827","name":"Calne","state_id":2336,"state_code":"ENG","country_id":232,"country_code":"GB","latitude":"51.43879000","longitude":"-2.00571000"},{"id":"48828","name":"Calverton","state_id":2336,"state_code":"ENG","country_id":232,"country_code":"GB","latitude":"53.03728000","longitude":"-1.08263000"},{"id":"48829","name":"Camber","state_id":2336,"state_code":"ENG","country_id":232,"country_code":"GB","latitude":"50.93473000","longitude":"0.79848000"},{"id":"48830","name":"Camberley","state_id":2336,"state_code":"ENG","country_id":232,"country_code":"GB","latitude":"51.33705000","longitude":"-0.74261000"},{"id":"48831","name":"Camblesforth","state_id":2336,"state_code":"ENG","country_id":232,"country_code":"GB","latitude":"53.72680000","longitude":"-1.01998000"},{"id":"48832","name":"Camborne","state_id":2336,"state_code":"ENG","country_id":232,"country_code":"GB","latitude":"50.21306000","longitude":"-5.29731000"},{"id":"48833","name":"Cambourne","state_id":2336,"state_code":"ENG","country_id":232,"country_code":"GB","latitude":"52.22115000","longitude":"-0.07025000"},{"id":"48834","name":"Cambridge","state_id":2336,"state_code":"ENG","country_id":232,"country_code":"GB","latitude":"52.20000000","longitude":"0.11667000"},{"id":"48835","name":"Cambridgeshire","state_id":2336,"state_code":"ENG","country_id":232,"country_code":"GB","latitude":"52.33333000","longitude":"0.08333000"},{"id":"48837","name":"Camden Town","state_id":2336,"state_code":"ENG","country_id":232,"country_code":"GB","latitude":"51.54057000","longitude":"-0.14334000"},{"id":"48838","name":"Cameley","state_id":2336,"state_code":"ENG","country_id":232,"country_code":"GB","latitude":"51.31616000","longitude":"-2.56079000"},{"id":"48839","name":"Camelford","state_id":2336,"state_code":"ENG","country_id":232,"country_code":"GB","latitude":"50.62185000","longitude":"-4.67963000"},{"id":"48841","name":"Campsall","state_id":2336,"state_code":"ENG","country_id":232,"country_code":"GB","latitude":"53.61917000","longitude":"-1.18002000"},{"id":"48842","name":"Canary Wharf","state_id":2336,"state_code":"ENG","country_id":232,"country_code":"GB","latitude":"51.50519000","longitude":"-0.02085000"},{"id":"48843","name":"Canewdon","state_id":2336,"state_code":"ENG","country_id":232,"country_code":"GB","latitude":"51.61759000","longitude":"0.74458000"},{"id":"48844","name":"Canford Heath","state_id":2336,"state_code":"ENG","country_id":232,"country_code":"GB","latitude":"50.75100000","longitude":"-1.96862000"},{"id":"48845","name":"Cannock","state_id":2336,"state_code":"ENG","country_id":232,"country_code":"GB","latitude":"52.69045000","longitude":"-2.03085000"},{"id":"48846","name":"Canterbury","state_id":2336,"state_code":"ENG","country_id":232,"country_code":"GB","latitude":"51.27904000","longitude":"1.07992000"},{"id":"48847","name":"Canvey Island","state_id":2336,"state_code":"ENG","country_id":232,"country_code":"GB","latitude":"51.52199000","longitude":"0.58090000"},{"id":"48849","name":"Capel","state_id":2336,"state_code":"ENG","country_id":232,"country_code":"GB","latitude":"51.14942000","longitude":"-0.32375000"},{"id":"48851","name":"Capel le Ferne","state_id":2336,"state_code":"ENG","country_id":232,"country_code":"GB","latitude":"51.10339000","longitude":"1.21165000"},{"id":"48850","name":"Capel Saint Mary","state_id":2336,"state_code":"ENG","country_id":232,"country_code":"GB","latitude":"52.00369000","longitude":"1.04482000"},{"id":"48852","name":"Carcroft","state_id":2336,"state_code":"ENG","country_id":232,"country_code":"GB","latitude":"53.58282000","longitude":"-1.17648000"},{"id":"48856","name":"Cardington","state_id":2336,"state_code":"ENG","country_id":232,"country_code":"GB","latitude":"52.11742000","longitude":"-0.41289000"},{"id":"48859","name":"Carlisle","state_id":2336,"state_code":"ENG","country_id":232,"country_code":"GB","latitude":"54.89510000","longitude":"-2.93820000"},{"id":"48860","name":"Carlton","state_id":2336,"state_code":"ENG","country_id":232,"country_code":"GB","latitude":"54.59004000","longitude":"-1.39117000"},{"id":"48865","name":"Carnforth","state_id":2336,"state_code":"ENG","country_id":232,"country_code":"GB","latitude":"54.13163000","longitude":"-2.76914000"},{"id":"48874","name":"Carshalton","state_id":2336,"state_code":"ENG","country_id":232,"country_code":"GB","latitude":"51.36829000","longitude":"-0.16755000"},{"id":"48875","name":"Carterton","state_id":2336,"state_code":"ENG","country_id":232,"country_code":"GB","latitude":"51.75905000","longitude":"-1.59435000"},{"id":"48876","name":"Castle Cary","state_id":2336,"state_code":"ENG","country_id":232,"country_code":"GB","latitude":"51.09000000","longitude":"-2.51417000"},{"id":"48877","name":"Castle Donington","state_id":2336,"state_code":"ENG","country_id":232,"country_code":"GB","latitude":"52.84291000","longitude":"-1.34188000"},{"id":"48879","name":"Castle Hedingham","state_id":2336,"state_code":"ENG","country_id":232,"country_code":"GB","latitude":"51.99015000","longitude":"0.59882000"},{"id":"48880","name":"Castle Vale","state_id":2336,"state_code":"ENG","country_id":232,"country_code":"GB","latitude":"52.51879000","longitude":"-1.79683000"},{"id":"48883","name":"Castleford","state_id":2336,"state_code":"ENG","country_id":232,"country_code":"GB","latitude":"53.72587000","longitude":"-1.36256000"},{"id":"48886","name":"Castleside","state_id":2336,"state_code":"ENG","country_id":232,"country_code":"GB","latitude":"54.83429000","longitude":"-1.87849000"},{"id":"48888","name":"Castor","state_id":2336,"state_code":"ENG","country_id":232,"country_code":"GB","latitude":"52.57319000","longitude":"-0.34603000"},{"id":"48889","name":"Catcliffe","state_id":2336,"state_code":"ENG","country_id":232,"country_code":"GB","latitude":"53.39316000","longitude":"-1.36207000"},{"id":"48890","name":"Caterham","state_id":2336,"state_code":"ENG","country_id":232,"country_code":"GB","latitude":"51.28230000","longitude":"-0.07889000"},{"id":"48891","name":"Caton","state_id":2336,"state_code":"ENG","country_id":232,"country_code":"GB","latitude":"54.07624000","longitude":"-2.71903000"},{"id":"48893","name":"Catterall","state_id":2336,"state_code":"ENG","country_id":232,"country_code":"GB","latitude":"53.87965000","longitude":"-2.76478000"},{"id":"48894","name":"Catterick","state_id":2336,"state_code":"ENG","country_id":232,"country_code":"GB","latitude":"54.37542000","longitude":"-1.63328000"},{"id":"48895","name":"Catterick Garrison","state_id":2336,"state_code":"ENG","country_id":232,"country_code":"GB","latitude":"54.37748000","longitude":"-1.72232000"},{"id":"48897","name":"Cawood","state_id":2336,"state_code":"ENG","country_id":232,"country_code":"GB","latitude":"53.83303000","longitude":"-1.12962000"},{"id":"48898","name":"Cawston","state_id":2336,"state_code":"ENG","country_id":232,"country_code":"GB","latitude":"52.76667000","longitude":"1.16667000"},{"id":"48899","name":"Cawthorne","state_id":2336,"state_code":"ENG","country_id":232,"country_code":"GB","latitude":"53.56687000","longitude":"-1.57259000"},{"id":"48900","name":"Caythorpe","state_id":2336,"state_code":"ENG","country_id":232,"country_code":"GB","latitude":"53.01667000","longitude":"-0.60000000"},{"id":"48903","name":"Central Bedfordshire","state_id":2336,"state_code":"ENG","country_id":232,"country_code":"GB","latitude":"51.99755000","longitude":"-0.42148000"},{"id":"48904","name":"Chacewater","state_id":2336,"state_code":"ENG","country_id":232,"country_code":"GB","latitude":"50.25675000","longitude":"-5.15757000"},{"id":"48905","name":"Chadwell Heath","state_id":2336,"state_code":"ENG","country_id":232,"country_code":"GB","latitude":"51.57121000","longitude":"0.13271000"},{"id":"48906","name":"Chadwell St Mary","state_id":2336,"state_code":"ENG","country_id":232,"country_code":"GB","latitude":"51.48140000","longitude":"0.36343000"},{"id":"48907","name":"Chafford Hundred","state_id":2336,"state_code":"ENG","country_id":232,"country_code":"GB","latitude":"51.48920000","longitude":"0.29440000"},{"id":"48908","name":"Chagford","state_id":2336,"state_code":"ENG","country_id":232,"country_code":"GB","latitude":"50.67504000","longitude":"-3.83936000"},{"id":"48909","name":"Chalfont Saint Peter","state_id":2336,"state_code":"ENG","country_id":232,"country_code":"GB","latitude":"51.60885000","longitude":"-0.55618000"},{"id":"48910","name":"Chalfont St Giles","state_id":2336,"state_code":"ENG","country_id":232,"country_code":"GB","latitude":"51.63184000","longitude":"-0.57026000"},{"id":"48911","name":"Chalford","state_id":2336,"state_code":"ENG","country_id":232,"country_code":"GB","latitude":"51.72583000","longitude":"-2.15139000"},{"id":"48912","name":"Chalgrove","state_id":2336,"state_code":"ENG","country_id":232,"country_code":"GB","latitude":"51.66476000","longitude":"-1.07640000"},{"id":"48913","name":"Chalton","state_id":2336,"state_code":"ENG","country_id":232,"country_code":"GB","latitude":"51.92790000","longitude":"-0.50147000"},{"id":"48914","name":"Chapel Allerton","state_id":2336,"state_code":"ENG","country_id":232,"country_code":"GB","latitude":"53.82901000","longitude":"-1.53834000"},{"id":"48916","name":"Chapel en le Frith","state_id":2336,"state_code":"ENG","country_id":232,"country_code":"GB","latitude":"53.32407000","longitude":"-1.91291000"},{"id":"48915","name":"Chapel Saint Leonards","state_id":2336,"state_code":"ENG","country_id":232,"country_code":"GB","latitude":"53.21667000","longitude":"0.31667000"},{"id":"48918","name":"Chapeltown","state_id":2336,"state_code":"ENG","country_id":232,"country_code":"GB","latitude":"53.46506000","longitude":"-1.47217000"},{"id":"48919","name":"Chapmanslade","state_id":2336,"state_code":"ENG","country_id":232,"country_code":"GB","latitude":"51.22917000","longitude":"-2.24889000"},{"id":"48920","name":"Chard","state_id":2336,"state_code":"ENG","country_id":232,"country_code":"GB","latitude":"50.87270000","longitude":"-2.96597000"},{"id":"48921","name":"Charfield","state_id":2336,"state_code":"ENG","country_id":232,"country_code":"GB","latitude":"51.62722000","longitude":"-2.40667000"},{"id":"48922","name":"Charing","state_id":2336,"state_code":"ENG","country_id":232,"country_code":"GB","latitude":"51.21073000","longitude":"0.79466000"},{"id":"48923","name":"Charlbury","state_id":2336,"state_code":"ENG","country_id":232,"country_code":"GB","latitude":"51.87270000","longitude":"-1.48247000"},{"id":"48925","name":"Charlton Kings","state_id":2336,"state_code":"ENG","country_id":232,"country_code":"GB","latitude":"51.88374000","longitude":"-2.04239000"},{"id":"48926","name":"Charlton Marshall","state_id":2336,"state_code":"ENG","country_id":232,"country_code":"GB","latitude":"50.83591000","longitude":"-2.14231000"},{"id":"48927","name":"Charminster","state_id":2336,"state_code":"ENG","country_id":232,"country_code":"GB","latitude":"50.73333000","longitude":"-2.45000000"},{"id":"48928","name":"Charmouth","state_id":2336,"state_code":"ENG","country_id":232,"country_code":"GB","latitude":"50.73889000","longitude":"-2.90055000"},{"id":"48929","name":"Chartham","state_id":2336,"state_code":"ENG","country_id":232,"country_code":"GB","latitude":"51.25620000","longitude":"1.01836000"},{"id":"48930","name":"Charvil","state_id":2336,"state_code":"ENG","country_id":232,"country_code":"GB","latitude":"51.47573000","longitude":"-0.88591000"},{"id":"48931","name":"Chasetown","state_id":2336,"state_code":"ENG","country_id":232,"country_code":"GB","latitude":"52.67232000","longitude":"-1.92535000"},{"id":"48932","name":"Chatburn","state_id":2336,"state_code":"ENG","country_id":232,"country_code":"GB","latitude":"53.89228000","longitude":"-2.35495000"},{"id":"48933","name":"Chatham","state_id":2336,"state_code":"ENG","country_id":232,"country_code":"GB","latitude":"51.37891000","longitude":"0.52786000"},{"id":"48934","name":"Chatteris","state_id":2336,"state_code":"ENG","country_id":232,"country_code":"GB","latitude":"52.45624000","longitude":"0.05236000"},{"id":"48935","name":"Cheadle","state_id":2336,"state_code":"ENG","country_id":232,"country_code":"GB","latitude":"52.98333000","longitude":"-1.98333000"},{"id":"48936","name":"Cheadle Heath","state_id":2336,"state_code":"ENG","country_id":232,"country_code":"GB","latitude":"53.40186000","longitude":"-2.19088000"},{"id":"48937","name":"Cheadle Hulme","state_id":2336,"state_code":"ENG","country_id":232,"country_code":"GB","latitude":"53.37610000","longitude":"-2.18970000"},{"id":"48938","name":"Cheam","state_id":2336,"state_code":"ENG","country_id":232,"country_code":"GB","latitude":"51.36179000","longitude":"-0.21977000"},{"id":"48939","name":"Cheddar","state_id":2336,"state_code":"ENG","country_id":232,"country_code":"GB","latitude":"51.27537000","longitude":"-2.77662000"},{"id":"48940","name":"Cheddington","state_id":2336,"state_code":"ENG","country_id":232,"country_code":"GB","latitude":"51.84784000","longitude":"-0.66429000"},{"id":"48941","name":"Cheddleton","state_id":2336,"state_code":"ENG","country_id":232,"country_code":"GB","latitude":"53.06910000","longitude":"-2.04228000"},{"id":"48942","name":"Cheetham Hill","state_id":2336,"state_code":"ENG","country_id":232,"country_code":"GB","latitude":"53.49862000","longitude":"-2.23846000"},{"id":"48943","name":"Chelford","state_id":2336,"state_code":"ENG","country_id":232,"country_code":"GB","latitude":"53.27090000","longitude":"-2.28329000"},{"id":"48944","name":"Chelmsford","state_id":2336,"state_code":"ENG","country_id":232,"country_code":"GB","latitude":"51.73575000","longitude":"0.46958000"},{"id":"48945","name":"Chelmsley Wood","state_id":2336,"state_code":"ENG","country_id":232,"country_code":"GB","latitude":"52.47810000","longitude":"-1.73813000"},{"id":"48946","name":"Chelsea","state_id":2336,"state_code":"ENG","country_id":232,"country_code":"GB","latitude":"51.48755000","longitude":"-0.16936000"},{"id":"48947","name":"Cheltenham","state_id":2336,"state_code":"ENG","country_id":232,"country_code":"GB","latitude":"51.90006000","longitude":"-2.07972000"},{"id":"48949","name":"Cherry Burton","state_id":2336,"state_code":"ENG","country_id":232,"country_code":"GB","latitude":"53.86667000","longitude":"-0.50000000"},{"id":"48950","name":"Chertsey","state_id":2336,"state_code":"ENG","country_id":232,"country_code":"GB","latitude":"51.38812000","longitude":"-0.50782000"},{"id":"48951","name":"Chesham","state_id":2336,"state_code":"ENG","country_id":232,"country_code":"GB","latitude":"51.70000000","longitude":"-0.60000000"},{"id":"48952","name":"Cheshire East","state_id":2336,"state_code":"ENG","country_id":232,"country_code":"GB","latitude":"53.16702000","longitude":"-2.36245000"},{"id":"48953","name":"Cheshire West and Chester","state_id":2336,"state_code":"ENG","country_id":232,"country_code":"GB","latitude":"53.16352000","longitude":"-2.73595000"},{"id":"48954","name":"Cheshunt","state_id":2336,"state_code":"ENG","country_id":232,"country_code":"GB","latitude":"51.70020000","longitude":"-0.03026000"},{"id":"48955","name":"Chessington","state_id":2336,"state_code":"ENG","country_id":232,"country_code":"GB","latitude":"51.36240000","longitude":"-0.30427000"},{"id":"48956","name":"Chester","state_id":2336,"state_code":"ENG","country_id":232,"country_code":"GB","latitude":"53.19050000","longitude":"-2.89189000"},{"id":"48957","name":"Chester-le-Street","state_id":2336,"state_code":"ENG","country_id":232,"country_code":"GB","latitude":"54.85862000","longitude":"-1.57408000"},{"id":"48958","name":"Chesterfield","state_id":2336,"state_code":"ENG","country_id":232,"country_code":"GB","latitude":"53.25000000","longitude":"-1.41667000"},{"id":"48959","name":"Chew Magna","state_id":2336,"state_code":"ENG","country_id":232,"country_code":"GB","latitude":"51.36611000","longitude":"-2.61028000"},{"id":"48960","name":"Chichester","state_id":2336,"state_code":"ENG","country_id":232,"country_code":"GB","latitude":"50.83673000","longitude":"-0.78003000"},{"id":"48961","name":"Chickerell","state_id":2336,"state_code":"ENG","country_id":232,"country_code":"GB","latitude":"50.62429000","longitude":"-2.50280000"},{"id":"48962","name":"Chicksands","state_id":2336,"state_code":"ENG","country_id":232,"country_code":"GB","latitude":"52.04585000","longitude":"-0.36390000"},{"id":"48963","name":"Chiddingfold","state_id":2336,"state_code":"ENG","country_id":232,"country_code":"GB","latitude":"51.11866000","longitude":"-0.62262000"},{"id":"48964","name":"Chigwell","state_id":2336,"state_code":"ENG","country_id":232,"country_code":"GB","latitude":"51.61999000","longitude":"0.07596000"},{"id":"48965","name":"Chilcompton","state_id":2336,"state_code":"ENG","country_id":232,"country_code":"GB","latitude":"51.26391000","longitude":"-2.50502000"},{"id":"48966","name":"Child Okeford","state_id":2336,"state_code":"ENG","country_id":232,"country_code":"GB","latitude":"50.91370000","longitude":"-2.23679000"},{"id":"48967","name":"Chilton Foliat","state_id":2336,"state_code":"ENG","country_id":232,"country_code":"GB","latitude":"51.43245000","longitude":"-1.53912000"},{"id":"48968","name":"Chilworth","state_id":2336,"state_code":"ENG","country_id":232,"country_code":"GB","latitude":"51.21635000","longitude":"-0.53129000"},{"id":"48969","name":"Chinley","state_id":2336,"state_code":"ENG","country_id":232,"country_code":"GB","latitude":"53.34025000","longitude":"-1.93900000"},{"id":"48970","name":"Chinnor","state_id":2336,"state_code":"ENG","country_id":232,"country_code":"GB","latitude":"51.70177000","longitude":"-0.91161000"},{"id":"48971","name":"Chippenham","state_id":2336,"state_code":"ENG","country_id":232,"country_code":"GB","latitude":"51.46000000","longitude":"-2.12472000"},{"id":"48972","name":"Chipping Campden","state_id":2336,"state_code":"ENG","country_id":232,"country_code":"GB","latitude":"52.04964000","longitude":"-1.77670000"},{"id":"48973","name":"Chipping Norton","state_id":2336,"state_code":"ENG","country_id":232,"country_code":"GB","latitude":"51.94109000","longitude":"-1.54530000"},{"id":"48974","name":"Chipping Ongar","state_id":2336,"state_code":"ENG","country_id":232,"country_code":"GB","latitude":"51.70379000","longitude":"0.24548000"},{"id":"48975","name":"Chipping Sodbury","state_id":2336,"state_code":"ENG","country_id":232,"country_code":"GB","latitude":"51.53813000","longitude":"-2.39379000"},{"id":"48978","name":"Chiseldon","state_id":2336,"state_code":"ENG","country_id":232,"country_code":"GB","latitude":"51.51606000","longitude":"-1.73206000"},{"id":"48979","name":"Chislehurst","state_id":2336,"state_code":"ENG","country_id":232,"country_code":"GB","latitude":"51.41709000","longitude":"0.06858000"},{"id":"48980","name":"Chobham","state_id":2336,"state_code":"ENG","country_id":232,"country_code":"GB","latitude":"51.34836000","longitude":"-0.60639000"},{"id":"48981","name":"Cholsey","state_id":2336,"state_code":"ENG","country_id":232,"country_code":"GB","latitude":"51.57280000","longitude":"-1.15356000"},{"id":"48982","name":"Choppington","state_id":2336,"state_code":"ENG","country_id":232,"country_code":"GB","latitude":"55.15004000","longitude":"-1.60332000"},{"id":"48983","name":"Chopwell","state_id":2336,"state_code":"ENG","country_id":232,"country_code":"GB","latitude":"54.91797000","longitude":"-1.82013000"},{"id":"48984","name":"Chorley","state_id":2336,"state_code":"ENG","country_id":232,"country_code":"GB","latitude":"53.65000000","longitude":"-2.61667000"},{"id":"48985","name":"Chorleywood","state_id":2336,"state_code":"ENG","country_id":232,"country_code":"GB","latitude":"51.65472000","longitude":"-0.51404000"},{"id":"48986","name":"Chorlton","state_id":2336,"state_code":"ENG","country_id":232,"country_code":"GB","latitude":"53.05029000","longitude":"-2.40541000"},{"id":"48987","name":"Chorlton cum Hardy","state_id":2336,"state_code":"ENG","country_id":232,"country_code":"GB","latitude":"53.43505000","longitude":"-2.26310000"},{"id":"48988","name":"Christchurch","state_id":2336,"state_code":"ENG","country_id":232,"country_code":"GB","latitude":"50.73583000","longitude":"-1.78129000"},{"id":"48990","name":"Chudleigh","state_id":2336,"state_code":"ENG","country_id":232,"country_code":"GB","latitude":"50.60496000","longitude":"-3.60031000"},{"id":"48991","name":"Chudleigh Knighton","state_id":2336,"state_code":"ENG","country_id":232,"country_code":"GB","latitude":"50.58507000","longitude":"-3.63187000"},{"id":"48992","name":"Chulmleigh","state_id":2336,"state_code":"ENG","country_id":232,"country_code":"GB","latitude":"50.91289000","longitude":"-3.86938000"},{"id":"48993","name":"Church","state_id":2336,"state_code":"ENG","country_id":232,"country_code":"GB","latitude":"53.75177000","longitude":"-2.39121000"},{"id":"48994","name":"Church Fenton","state_id":2336,"state_code":"ENG","country_id":232,"country_code":"GB","latitude":"53.82626000","longitude":"-1.21890000"},{"id":"48995","name":"Church Stretton","state_id":2336,"state_code":"ENG","country_id":232,"country_code":"GB","latitude":"52.53778000","longitude":"-2.80149000"},{"id":"48996","name":"Churchdown","state_id":2336,"state_code":"ENG","country_id":232,"country_code":"GB","latitude":"51.87739000","longitude":"-2.17087000"},{"id":"48997","name":"Churchill","state_id":2336,"state_code":"ENG","country_id":232,"country_code":"GB","latitude":"51.34291000","longitude":"-2.78338000"},{"id":"48998","name":"Churt","state_id":2336,"state_code":"ENG","country_id":232,"country_code":"GB","latitude":"51.13603000","longitude":"-0.77534000"},{"id":"48999","name":"Cinderford","state_id":2336,"state_code":"ENG","country_id":232,"country_code":"GB","latitude":"51.82421000","longitude":"-2.49870000"},{"id":"49000","name":"Cirencester","state_id":2336,"state_code":"ENG","country_id":232,"country_code":"GB","latitude":"51.71927000","longitude":"-1.97145000"},{"id":"49001","name":"City and Borough of Birmingham","state_id":2336,"state_code":"ENG","country_id":232,"country_code":"GB","latitude":"52.48048000","longitude":"-1.89823000"},