[{"id":"31029","name":"Bella Vista","state_id":4095,"state_code":"01","country_id":62,"country_code":"DO","latitude":"18.45539000","longitude":"-69.94540000"},{"id":"31047","name":"Ciudad Nueva","state_id":4095,"state_code":"01","country_id":62,"country_code":"DO","latitude":"18.46707000","longitude":"-69.89339000"},{"id":"31051","name":"Cristo Rey","state_id":4095,"state_code":"01","country_id":62,"country_code":"DO","latitude":"18.50000000","longitude":"-69.93333000"},{"id":"31067","name":"Ensanche Luper\u00f3n","state_id":4095,"state_code":"01","country_id":62,"country_code":"DO","latitude":"18.50000000","longitude":"-69.90000000"},{"id":"31101","name":"La Agustina","state_id":4095,"state_code":"01","country_id":62,"country_code":"DO","latitude":"18.50000000","longitude":"-69.93333000"},{"id":"31107","name":"La Julia","state_id":4095,"state_code":"01","country_id":62,"country_code":"DO","latitude":"18.46667000","longitude":"-69.93333000"},{"id":"31182","name":"San Carlos","state_id":4095,"state_code":"01","country_id":62,"country_code":"DO","latitude":"18.48333000","longitude":"-69.90000000"},{"id":"31197","name":"Santo Domingo","state_id":4095,"state_code":"01","country_id":62,"country_code":"DO","latitude":"18.47186000","longitude":"-69.89232000"},{"id":"31213","name":"Villa Consuelo","state_id":4095,"state_code":"01","country_id":62,"country_code":"DO","latitude":"18.48333000","longitude":"-69.90000000"},{"id":"31215","name":"Villa Francisca","state_id":4095,"state_code":"01","country_id":62,"country_code":"DO","latitude":"18.48278000","longitude":"-69.88914000"}]