[{"id":"31034","name":"Bonao","state_id":4099,"state_code":"28","country_id":62,"country_code":"DO","latitude":"18.91667000","longitude":"-70.46667000"},{"id":"31096","name":"Juan Adri\u00e1n","state_id":4099,"state_code":"28","country_id":62,"country_code":"DO","latitude":"18.76365000","longitude":"-70.33732000"},{"id":"31124","name":"Maim\u00f3n","state_id":4099,"state_code":"28","country_id":62,"country_code":"DO","latitude":"18.88333000","longitude":"-70.30000000"},{"id":"31155","name":"Piedra Blanca","state_id":4099,"state_code":"28","country_id":62,"country_code":"DO","latitude":"18.84431000","longitude":"-70.31688000"},{"id":"31176","name":"Sabana del Puerto","state_id":4099,"state_code":"28","country_id":62,"country_code":"DO","latitude":"19.06667000","longitude":"-70.41667000"}]