[{"id":"31053","name":"Dajab\u00f3n","state_id":4107,"state_code":"05","country_id":62,"country_code":"DO","latitude":"19.54878000","longitude":"-71.70829000"},{"id":"31063","name":"El Pino","state_id":4107,"state_code":"05","country_id":62,"country_code":"DO","latitude":"19.43537000","longitude":"-71.47540000"},{"id":"31118","name":"Loma de Cabrera","state_id":4107,"state_code":"05","country_id":62,"country_code":"DO","latitude":"19.41667000","longitude":"-71.58333000"},{"id":"31146","name":"Partido","state_id":4107,"state_code":"05","country_id":62,"country_code":"DO","latitude":"19.48403000","longitude":"-71.54730000"},{"id":"31165","name":"Restauraci\u00f3n","state_id":4107,"state_code":"05","country_id":62,"country_code":"DO","latitude":"19.31532000","longitude":"-71.69239000"}]