[{"id":"31025","name":"Baitoa","state_id":4108,"state_code":"25","country_id":62,"country_code":"DO","latitude":"19.32512000","longitude":"-70.70357000"},{"id":"31030","name":"Bison\u00f3","state_id":4108,"state_code":"25","country_id":62,"country_code":"DO","latitude":"19.58333000","longitude":"-70.86667000"},{"id":"31100","name":"Juncalito Abajo","state_id":4108,"state_code":"25","country_id":62,"country_code":"DO","latitude":"19.21990000","longitude":"-70.81905000"},{"id":"31102","name":"La Canela","state_id":4108,"state_code":"25","country_id":62,"country_code":"DO","latitude":"19.47341000","longitude":"-70.81629000"},{"id":"31117","name":"Licey al Medio","state_id":4108,"state_code":"25","country_id":62,"country_code":"DO","latitude":"19.45000000","longitude":"-70.60000000"},{"id":"31143","name":"Palmar Arriba","state_id":4108,"state_code":"25","country_id":62,"country_code":"DO","latitude":"19.53957000","longitude":"-70.73826000"},{"id":"31150","name":"Pedro Garc\u00eda","state_id":4108,"state_code":"25","country_id":62,"country_code":"DO","latitude":"19.59202000","longitude":"-70.65256000"},{"id":"31173","name":"Sabana Iglesia","state_id":4108,"state_code":"25","country_id":62,"country_code":"DO","latitude":"19.32114000","longitude":"-70.75992000"},{"id":"31188","name":"San Jos\u00e9 de Las Matas","state_id":4108,"state_code":"25","country_id":62,"country_code":"DO","latitude":"19.33915000","longitude":"-70.93819000"},{"id":"31196","name":"Santiago de los Caballeros","state_id":4108,"state_code":"25","country_id":62,"country_code":"DO","latitude":"19.45170000","longitude":"-70.69703000"},{"id":"31200","name":"Santo Tom\u00e1s de J\u00e1nico","state_id":4108,"state_code":"25","country_id":62,"country_code":"DO","latitude":"19.23528000","longitude":"-70.79515000"},{"id":"31204","name":"Tamboril","state_id":4108,"state_code":"25","country_id":62,"country_code":"DO","latitude":"19.48538000","longitude":"-70.61104000"},{"id":"31212","name":"Villa Bison\u00f3","state_id":4108,"state_code":"25","country_id":62,"country_code":"DO","latitude":"19.56378000","longitude":"-70.87582000"},{"id":"31216","name":"Villa Gonz\u00e1lez","state_id":4108,"state_code":"25","country_id":62,"country_code":"DO","latitude":"19.54057000","longitude":"-70.78853000"}]