[{"id":"31032","name":"Boca de Yuma","state_id":4109,"state_code":"11","country_id":62,"country_code":"DO","latitude":"18.37825000","longitude":"-68.60900000"},{"id":"31085","name":"Hig\u00fcey","state_id":4109,"state_code":"11","country_id":62,"country_code":"DO","latitude":"18.70000000","longitude":"-68.66667000"},{"id":"31140","name":"Otra Banda","state_id":4109,"state_code":"11","country_id":62,"country_code":"DO","latitude":"18.65017000","longitude":"-68.66281000"},{"id":"31162","name":"Punta Cana","state_id":4109,"state_code":"11","country_id":62,"country_code":"DO","latitude":"18.58182000","longitude":"-68.40431000"},{"id":"31180","name":"Salvale\u00f3n de Hig\u00fcey","state_id":4109,"state_code":"11","country_id":62,"country_code":"DO","latitude":"18.61501000","longitude":"-68.70798000"},{"id":"31192","name":"San Rafael del Yuma","state_id":4109,"state_code":"11","country_id":62,"country_code":"DO","latitude":"18.42993000","longitude":"-68.67390000"}]