[{"id":"9776","name":"Rumonge","state_id":3185,"state_code":"RM","country_id":36,"country_code":"BI","latitude":"-3.97360000","longitude":"29.43860000"},{"id":"9773","name":"Muyinga","state_id":3186,"state_code":"MY","country_id":36,"country_code":"BI","latitude":"-2.84510000","longitude":"30.34140000"},{"id":"9774","name":"Mwaro","state_id":3187,"state_code":"MW","country_id":36,"country_code":"BI","latitude":"-3.51128000","longitude":"29.70334000"},{"id":"9771","name":"Makamba","state_id":3188,"state_code":"MA","country_id":36,"country_code":"BI","latitude":"-4.13480000","longitude":"29.80400000"},{"id":"9777","name":"Rutana","state_id":3189,"state_code":"RT","country_id":36,"country_code":"BI","latitude":"-3.92790000","longitude":"29.99200000"},{"id":"9766","name":"Cibitoke","state_id":3190,"state_code":"CI","country_id":36,"country_code":"BI","latitude":"-2.88690000","longitude":"29.12480000"},{"id":"9778","name":"Ruyigi","state_id":3191,"state_code":"RY","country_id":36,"country_code":"BI","latitude":"-3.47639000","longitude":"30.24861000"},{"id":"9769","name":"Kayanza","state_id":3192,"state_code":"KY","country_id":36,"country_code":"BI","latitude":"-2.92210000","longitude":"29.62930000"},{"id":"9772","name":"Muramvya","state_id":3193,"state_code":"MU","country_id":36,"country_code":"BI","latitude":"-3.26820000","longitude":"29.60790000"},{"id":"9768","name":"Karuzi","state_id":3194,"state_code":"KR","country_id":36,"country_code":"BI","latitude":"-3.10139000","longitude":"30.16278000"},{"id":"9770","name":"Kirundo","state_id":3195,"state_code":"KI","country_id":36,"country_code":"BI","latitude":"-2.58450000","longitude":"30.09590000"},{"id":"9762","name":"Bubanza","state_id":3196,"state_code":"BB","country_id":36,"country_code":"BI","latitude":"-3.08040000","longitude":"29.39100000"},{"id":"9767","name":"Gitega","state_id":3197,"state_code":"GI","country_id":36,"country_code":"BI","latitude":"-3.42708000","longitude":"29.92463000"},{"id":"9763","name":"Bujumbura","state_id":3198,"state_code":"BM","country_id":36,"country_code":"BI","latitude":"-3.38193000","longitude":"29.36142000"},{"id":"9775","name":"Ngozi","state_id":3199,"state_code":"NG","country_id":36,"country_code":"BI","latitude":"-2.90750000","longitude":"29.83060000"},{"id":"9765","name":"Cankuzo","state_id":3201,"state_code":"CA","country_id":36,"country_code":"BI","latitude":"-3.21860000","longitude":"30.55280000"},{"id":"9764","name":"Bururi","state_id":3202,"state_code":"BR","country_id":36,"country_code":"BI","latitude":"-3.94877000","longitude":"29.62438000"}]