[{"id":"66638","name":"Mazeikiai","state_id":1608,"state_code":"51","country_id":126,"country_code":"LT","latitude":"56.31667000","longitude":"22.33333000"},{"id":"66637","name":"Mazeikiai","state_id":1608,"state_code":"51","country_id":126,"country_code":"LT","latitude":"56.31667000","longitude":"22.33333000"},{"id":"66657","name":"Plateliai","state_id":1608,"state_code":"51","country_id":126,"country_code":"LT","latitude":"56.04657000","longitude":"21.81615000"},{"id":"66659","name":"Plunge","state_id":1608,"state_code":"51","country_id":126,"country_code":"LT","latitude":"55.91667000","longitude":"21.85000000"},{"id":"66658","name":"Plunge","state_id":1608,"state_code":"51","country_id":126,"country_code":"LT","latitude":"55.91139000","longitude":"21.84417000"},{"id":"66668","name":"Rietavas","state_id":1608,"state_code":"51","country_id":126,"country_code":"LT","latitude":"55.72375000","longitude":"21.93266000"},{"id":"66675","name":"Seda","state_id":1608,"state_code":"51","country_id":126,"country_code":"LT","latitude":"56.16854000","longitude":"22.09071000"},{"id":"66686","name":"Telsiai","state_id":1608,"state_code":"51","country_id":126,"country_code":"LT","latitude":"55.98333000","longitude":"22.25000000"},{"id":"66685","name":"Telsiai","state_id":1608,"state_code":"51","country_id":126,"country_code":"LT","latitude":"55.98139000","longitude":"22.24722000"},{"id":"66693","name":"Varniai","state_id":1608,"state_code":"51","country_id":126,"country_code":"LT","latitude":"55.74435000","longitude":"22.37251000"},{"id":"66697","name":"Vieksniai","state_id":1608,"state_code":"51","country_id":126,"country_code":"LT","latitude":"56.23598000","longitude":"22.51667000"}]