[{"id":"9816","name":"Bandar Seri Begawan","state_id":1216,"state_code":"BM","country_id":33,"country_code":"BN","latitude":"4.89035000","longitude":"114.94006000"},{"id":"9818","name":"Berakas A","state_id":1216,"state_code":"BM","country_id":33,"country_code":"BN","latitude":"4.97032000","longitude":"114.92989000"},{"id":"9819","name":"Kapok","state_id":1216,"state_code":"BM","country_id":33,"country_code":"BN","latitude":"5.02447000","longitude":"115.04664000"},{"id":"9821","name":"Mentiri","state_id":1216,"state_code":"BM","country_id":33,"country_code":"BN","latitude":"4.97058000","longitude":"115.02078000"},{"id":"9822","name":"Serasa","state_id":1216,"state_code":"BM","country_id":33,"country_code":"BN","latitude":"5.01718000","longitude":"115.05841000"},{"id":"9820","name":"Kuala Belait","state_id":1217,"state_code":"BE","country_id":33,"country_code":"BN","latitude":"4.58361000","longitude":"114.23120000"},{"id":"9823","name":"Seria","state_id":1217,"state_code":"BE","country_id":33,"country_code":"BN","latitude":"4.60637000","longitude":"114.32476000"},{"id":"9817","name":"Bangar","state_id":1218,"state_code":"TE","country_id":33,"country_code":"BN","latitude":"4.70861000","longitude":"115.07167000"},{"id":"9824","name":"Tutong","state_id":1219,"state_code":"TU","country_id":33,"country_code":"BN","latitude":"4.80278000","longitude":"114.64917000"}]