[{"id":"129909","name":"Bukhara","state_id":2541,"state_code":"BU","country_id":236,"country_code":"UZ","latitude":"39.77472000","longitude":"64.42861000"},{"id":"129925","name":"Galaosiyo","state_id":2541,"state_code":"BU","country_id":236,"country_code":"UZ","latitude":"39.85778000","longitude":"64.44833000"},{"id":"129926","name":"Gazli","state_id":2541,"state_code":"BU","country_id":236,"country_code":"UZ","latitude":"40.13333000","longitude":"63.45000000"},{"id":"129927","name":"Ghijduwon","state_id":2541,"state_code":"BU","country_id":236,"country_code":"UZ","latitude":"40.10000000","longitude":"64.68333000"},{"id":"129942","name":"Karakul\u2019","state_id":2541,"state_code":"BU","country_id":236,"country_code":"UZ","latitude":"39.53333000","longitude":"63.83333000"},{"id":"129950","name":"Kogon","state_id":2541,"state_code":"BU","country_id":236,"country_code":"UZ","latitude":"39.72278000","longitude":"64.55167000"},{"id":"129968","name":"Olot","state_id":2541,"state_code":"BU","country_id":236,"country_code":"UZ","latitude":"39.41500000","longitude":"63.80333000"},{"id":"129978","name":"Peshku Tumani","state_id":2541,"state_code":"BU","country_id":236,"country_code":"UZ","latitude":"40.41667000","longitude":"63.83333000"},{"id":"129984","name":"Qorako\u2019l","state_id":2541,"state_code":"BU","country_id":236,"country_code":"UZ","latitude":"39.49944000","longitude":"63.85389000"},{"id":"129985","name":"Qorovulbozor","state_id":2541,"state_code":"BU","country_id":236,"country_code":"UZ","latitude":"39.50056000","longitude":"64.79361000"},{"id":"129993","name":"Romiton","state_id":2541,"state_code":"BU","country_id":236,"country_code":"UZ","latitude":"39.92944000","longitude":"64.37944000"},{"id":"129999","name":"Shofirkon","state_id":2541,"state_code":"BU","country_id":236,"country_code":"UZ","latitude":"40.12000000","longitude":"64.50139000"},{"id":"130016","name":"Wobkent","state_id":2541,"state_code":"BU","country_id":236,"country_code":"UZ","latitude":"40.03028000","longitude":"64.51500000"},{"id":"130017","name":"Wobkent Tumani","state_id":2541,"state_code":"BU","country_id":236,"country_code":"UZ","latitude":"40.00000000","longitude":"64.50000000"}]