[{"id":"129904","name":"Beshkent","state_id":2543,"state_code":"QA","country_id":236,"country_code":"UZ","latitude":"38.82139000","longitude":"65.65306000"},{"id":"129916","name":"Chiroqchi","state_id":2543,"state_code":"QA","country_id":236,"country_code":"UZ","latitude":"39.03361000","longitude":"66.57222000"},{"id":"129931","name":"G\u2018uzor","state_id":2543,"state_code":"QA","country_id":236,"country_code":"UZ","latitude":"38.62083000","longitude":"66.24806000"},{"id":"129949","name":"Kitob","state_id":2543,"state_code":"QA","country_id":236,"country_code":"UZ","latitude":"39.08425000","longitude":"66.83318000"},{"id":"129951","name":"Koson","state_id":2543,"state_code":"QA","country_id":236,"country_code":"UZ","latitude":"39.03750000","longitude":"65.58500000"},{"id":"129958","name":"Muborak","state_id":2543,"state_code":"QA","country_id":236,"country_code":"UZ","latitude":"39.25528000","longitude":"65.15278000"},{"id":"129962","name":"Nishon Tumani","state_id":2543,"state_code":"QA","country_id":236,"country_code":"UZ","latitude":"38.69395000","longitude":"65.67512000"},{"id":"129981","name":"Qarshi","state_id":2543,"state_code":"QA","country_id":236,"country_code":"UZ","latitude":"38.86056000","longitude":"65.78905000"},{"id":"129997","name":"Shahrisabz","state_id":2543,"state_code":"QA","country_id":236,"country_code":"UZ","latitude":"39.05778000","longitude":"66.83417000"}]