[{"id":"22110","name":"As","state_id":4581,"state_code":"41","country_id":58,"country_code":"CZ","latitude":"50.22387000","longitude":"12.19499000"},{"id":"22106","name":"Abertamy","state_id":4581,"state_code":"41","country_id":58,"country_code":"CZ","latitude":"50.36874000","longitude":"12.81826000"},{"id":"23456","name":"Zlutice","state_id":4581,"state_code":"41","country_id":58,"country_code":"CZ","latitude":"50.09192000","longitude":"13.16297000"},{"id":"22209","name":"Brezov\u00e1","state_id":4581,"state_code":"41","country_id":58,"country_code":"CZ","latitude":"50.14557000","longitude":"12.64996000"},{"id":"22137","name":"Bochov","state_id":4581,"state_code":"41","country_id":58,"country_code":"CZ","latitude":"50.14872000","longitude":"13.05227000"},{"id":"22178","name":"Bukovany","state_id":4581,"state_code":"41","country_id":58,"country_code":"CZ","latitude":"50.16632000","longitude":"12.57265000"},{"id":"22217","name":"Cheb","state_id":4581,"state_code":"41","country_id":58,"country_code":"CZ","latitude":"50.07963000","longitude":"12.37392000"},{"id":"22224","name":"Chodov","state_id":4581,"state_code":"41","country_id":58,"country_code":"CZ","latitude":"50.24018000","longitude":"12.74551000"},{"id":"22248","name":"Dalovice","state_id":4581,"state_code":"41","country_id":58,"country_code":"CZ","latitude":"50.24779000","longitude":"12.89581000"},{"id":"22299","name":"Doln\u00ed Zandov","state_id":4581,"state_code":"41","country_id":58,"country_code":"CZ","latitude":"50.01794000","longitude":"12.55101000"},{"id":"22292","name":"Doln\u00ed Rychnov","state_id":4581,"state_code":"41","country_id":58,"country_code":"CZ","latitude":"50.16462000","longitude":"12.64507000"},{"id":"22326","name":"Frantiskovy L\u00e1zne","state_id":4581,"state_code":"41","country_id":58,"country_code":"CZ","latitude":"50.12033000","longitude":"12.35174000"},{"id":"22337","name":"Habartov","state_id":4581,"state_code":"41","country_id":58,"country_code":"CZ","latitude":"50.18297000","longitude":"12.55054000"},{"id":"22346","name":"Hazlov","state_id":4581,"state_code":"41","country_id":58,"country_code":"CZ","latitude":"50.15634000","longitude":"12.27238000"},{"id":"22388","name":"Horn\u00ed Slavkov","state_id":4581,"state_code":"41","country_id":58,"country_code":"CZ","latitude":"50.13863000","longitude":"12.80758000"},{"id":"22416","name":"Hranice","state_id":4581,"state_code":"41","country_id":58,"country_code":"CZ","latitude":"50.30459000","longitude":"12.17577000"},{"id":"22425","name":"Hroznet\u00edn","state_id":4581,"state_code":"41","country_id":58,"country_code":"CZ","latitude":"50.30940000","longitude":"12.87180000"},{"id":"22484","name":"J\u00e1chymov","state_id":4581,"state_code":"41","country_id":58,"country_code":"CZ","latitude":"50.35846000","longitude":"12.93465000"},{"id":"22498","name":"Karlovy Vary","state_id":4581,"state_code":"41","country_id":58,"country_code":"CZ","latitude":"50.23271000","longitude":"12.87117000"},{"id":"22518","name":"Kl\u00e1ster","state_id":4581,"state_code":"41","country_id":58,"country_code":"CZ","latitude":"49.96762000","longitude":"12.87623000"},{"id":"22556","name":"Kraslice","state_id":4581,"state_code":"41","country_id":58,"country_code":"CZ","latitude":"50.32372000","longitude":"12.51747000"},{"id":"22581","name":"Kynsperk nad Ohr\u00ed","state_id":4581,"state_code":"41","country_id":58,"country_code":"CZ","latitude":"50.11893000","longitude":"12.53027000"},{"id":"22664","name":"L\u00e1zne Kynzvart","state_id":4581,"state_code":"41","country_id":58,"country_code":"CZ","latitude":"50.01058000","longitude":"12.62474000"},{"id":"22630","name":"Loket","state_id":4581,"state_code":"41","country_id":58,"country_code":"CZ","latitude":"50.18600000","longitude":"12.75405000"},{"id":"22633","name":"Lomnice","state_id":4581,"state_code":"41","country_id":58,"country_code":"CZ","latitude":"50.21174000","longitude":"12.63267000"},{"id":"22644","name":"Luby","state_id":4581,"state_code":"41","country_id":58,"country_code":"CZ","latitude":"50.25248000","longitude":"12.40595000"},{"id":"22676","name":"Mari\u00e1nsk\u00e9 L\u00e1zne","state_id":4581,"state_code":"41","country_id":58,"country_code":"CZ","latitude":"49.96459000","longitude":"12.70118000"},{"id":"22740","name":"Mesto","state_id":4581,"state_code":"41","country_id":58,"country_code":"CZ","latitude":"49.97997000","longitude":"12.86432000"},{"id":"22681","name":"Merkl\u00edn","state_id":4581,"state_code":"41","country_id":58,"country_code":"CZ","latitude":"50.32808000","longitude":"12.86350000"},{"id":"22757","name":"Nejdek","state_id":4581,"state_code":"41","country_id":58,"country_code":"CZ","latitude":"50.32242000","longitude":"12.72936000"},{"id":"22775","name":"Nov\u00e1 Role","state_id":4581,"state_code":"41","country_id":58,"country_code":"CZ","latitude":"50.27092000","longitude":"12.78422000"},{"id":"22781","name":"Nov\u00e9 Sedlo","state_id":4581,"state_code":"41","country_id":58,"country_code":"CZ","latitude":"50.20647000","longitude":"12.73800000"},{"id":"22812","name":"Okres Cheb","state_id":4581,"state_code":"41","country_id":58,"country_code":"CZ","latitude":"50.08333000","longitude":"12.50000000"},{"id":"22826","name":"Okres Karlovy Vary","state_id":4581,"state_code":"41","country_id":58,"country_code":"CZ","latitude":"50.16667000","longitude":"13.00000000"},{"id":"22861","name":"Okres Sokolov","state_id":4581,"state_code":"41","country_id":58,"country_code":"CZ","latitude":"50.21667000","longitude":"12.63333000"},{"id":"22887","name":"Olov\u00ed","state_id":4581,"state_code":"41","country_id":58,"country_code":"CZ","latitude":"50.25113000","longitude":"12.55877000"},{"id":"22907","name":"Ostrov","state_id":4581,"state_code":"41","country_id":58,"country_code":"CZ","latitude":"50.30592000","longitude":"12.93907000"},{"id":"22940","name":"Plesn\u00e1","state_id":4581,"state_code":"41","country_id":58,"country_code":"CZ","latitude":"50.22070000","longitude":"12.34669000"},{"id":"23036","name":"Rotava","state_id":4581,"state_code":"41","country_id":58,"country_code":"CZ","latitude":"50.29627000","longitude":"12.57341000"},{"id":"23058","name":"Sadov","state_id":4581,"state_code":"41","country_id":58,"country_code":"CZ","latitude":"50.26711000","longitude":"12.89708000"},{"id":"23073","name":"Skaln\u00e1","state_id":4581,"state_code":"41","country_id":58,"country_code":"CZ","latitude":"50.17030000","longitude":"12.36144000"},{"id":"23094","name":"Sokolov","state_id":4581,"state_code":"41","country_id":58,"country_code":"CZ","latitude":"50.18130000","longitude":"12.64010000"},{"id":"23147","name":"Svatava","state_id":4581,"state_code":"41","country_id":58,"country_code":"CZ","latitude":"50.19223000","longitude":"12.62524000"},{"id":"23170","name":"Touzim","state_id":4581,"state_code":"41","country_id":58,"country_code":"CZ","latitude":"50.06049000","longitude":"12.98506000"},{"id":"23233","name":"Velk\u00e1 Hledsebe","state_id":4581,"state_code":"41","country_id":58,"country_code":"CZ","latitude":"49.96151000","longitude":"12.66763000"},{"id":"23274","name":"Vint\u00edrov","state_id":4581,"state_code":"41","country_id":58,"country_code":"CZ","latitude":"50.23382000","longitude":"12.71748000"}]