[{"id":"22108","name":"Albrechtice","state_id":4600,"state_code":"80","country_id":58,"country_code":"CZ","latitude":"49.78645000","longitude":"18.52444000"},{"id":"23412","name":"Senov","state_id":4600,"state_code":"80","country_id":58,"country_code":"CZ","latitude":"49.79315000","longitude":"18.37607000"},{"id":"23415","name":"Silherovice","state_id":4600,"state_code":"80","country_id":58,"country_code":"CZ","latitude":"49.92602000","longitude":"18.27017000"},{"id":"23423","name":"St\u00edtina","state_id":4600,"state_code":"80","country_id":58,"country_code":"CZ","latitude":"49.91487000","longitude":"18.01245000"},{"id":"23428","name":"Step\u00e1nkovice","state_id":4600,"state_code":"80","country_id":58,"country_code":"CZ","latitude":"49.95738000","longitude":"18.03741000"},{"id":"23422","name":"Stramberk","state_id":4600,"state_code":"80","country_id":58,"country_code":"CZ","latitude":"49.59181000","longitude":"18.11741000"},{"id":"23367","name":"Celadn\u00e1","state_id":4600,"state_code":"80","country_id":58,"country_code":"CZ","latitude":"49.54873000","longitude":"18.33759000"},{"id":"23395","name":"Cesk\u00fd Tes\u00edn","state_id":4600,"state_code":"80","country_id":58,"country_code":"CZ","latitude":"49.74613000","longitude":"18.62613000"},{"id":"23401","name":"Repiste","state_id":4600,"state_code":"80","country_id":58,"country_code":"CZ","latitude":"49.73338000","longitude":"18.31707000"},{"id":"22116","name":"Baska","state_id":4600,"state_code":"80","country_id":58,"country_code":"CZ","latitude":"49.64584000","longitude":"18.37233000"},{"id":"22113","name":"Bartosovice","state_id":4600,"state_code":"80","country_id":58,"country_code":"CZ","latitude":"49.66884000","longitude":"18.05461000"},{"id":"22194","name":"B\u00edlovec","state_id":4600,"state_code":"80","country_id":58,"country_code":"CZ","latitude":"49.75639000","longitude":"18.01581000"},{"id":"22210","name":"Brezov\u00e1","state_id":4600,"state_code":"80","country_id":58,"country_code":"CZ","latitude":"49.79158000","longitude":"17.86556000"},{"id":"22214","name":"Bridlicn\u00e1","state_id":4600,"state_code":"80","country_id":58,"country_code":"CZ","latitude":"49.91167000","longitude":"17.37107000"},{"id":"22139","name":"Bohum\u00edn","state_id":4600,"state_code":"80","country_id":58,"country_code":"CZ","latitude":"49.90411000","longitude":"18.35755000"},{"id":"22140","name":"Bohuslavice","state_id":4600,"state_code":"80","country_id":58,"country_code":"CZ","latitude":"49.94232000","longitude":"18.12866000"},{"id":"22145","name":"Bolatice","state_id":4600,"state_code":"80","country_id":58,"country_code":"CZ","latitude":"49.95172000","longitude":"18.08358000"},{"id":"22161","name":"Brantice","state_id":4600,"state_code":"80","country_id":58,"country_code":"CZ","latitude":"50.06351000","longitude":"17.62911000"},{"id":"22173","name":"Brusperk","state_id":4600,"state_code":"80","country_id":58,"country_code":"CZ","latitude":"49.70010000","longitude":"18.22210000"},{"id":"22171","name":"Brumovice","state_id":4600,"state_code":"80","country_id":58,"country_code":"CZ","latitude":"50.01530000","longitude":"17.74958000"},{"id":"22172","name":"Brunt\u00e1l","state_id":4600,"state_code":"80","country_id":58,"country_code":"CZ","latitude":"49.98844000","longitude":"17.46470000"},{"id":"22176","name":"Budisov nad Budisovkou","state_id":4600,"state_code":"80","country_id":58,"country_code":"CZ","latitude":"49.79511000","longitude":"17.62969000"},{"id":"22179","name":"Bukovec","state_id":4600,"state_code":"80","country_id":58,"country_code":"CZ","latitude":"49.55114000","longitude":"18.82683000"},{"id":"22186","name":"Bystrice","state_id":4600,"state_code":"80","country_id":58,"country_code":"CZ","latitude":"49.63657000","longitude":"18.72038000"},{"id":"22218","name":"Chlebicov","state_id":4600,"state_code":"80","country_id":58,"country_code":"CZ","latitude":"49.95942000","longitude":"17.96748000"},{"id":"22229","name":"Chotebuz","state_id":4600,"state_code":"80","country_id":58,"country_code":"CZ","latitude":"49.76849000","longitude":"18.56912000"},{"id":"22237","name":"Chucheln\u00e1","state_id":4600,"state_code":"80","country_id":58,"country_code":"CZ","latitude":"49.98664000","longitude":"18.11656000"},{"id":"22250","name":"Darkovice","state_id":4600,"state_code":"80","country_id":58,"country_code":"CZ","latitude":"49.93592000","longitude":"18.22213000"},{"id":"22321","name":"Detmarovice","state_id":4600,"state_code":"80","country_id":58,"country_code":"CZ","latitude":"49.89412000","longitude":"18.46079000"},{"id":"22257","name":"Dobratice","state_id":4600,"state_code":"80","country_id":58,"country_code":"CZ","latitude":"49.66039000","longitude":"18.49226000"},{"id":"22262","name":"Dobr\u00e1","state_id":4600,"state_code":"80","country_id":58,"country_code":"CZ","latitude":"49.67383000","longitude":"18.41393000"},{"id":"22300","name":"Doln\u00ed Zivotice","state_id":4600,"state_code":"80","country_id":58,"country_code":"CZ","latitude":"49.89732000","longitude":"17.77969000"},{"id":"22271","name":"Doln\u00ed Benesov","state_id":4600,"state_code":"80","country_id":58,"country_code":"CZ","latitude":"49.92101000","longitude":"18.10835000"},{"id":"22284","name":"Doln\u00ed Lhota","state_id":4600,"state_code":"80","country_id":58,"country_code":"CZ","latitude":"49.84236000","longitude":"18.09241000"},{"id":"22286","name":"Doln\u00ed Lutyne","state_id":4600,"state_code":"80","country_id":58,"country_code":"CZ","latitude":"49.89876000","longitude":"18.42815000"},{"id":"22304","name":"Doubrava","state_id":4600,"state_code":"80","country_id":58,"country_code":"CZ","latitude":"49.85873000","longitude":"18.48018000"},{"id":"22318","name":"Dvorce","state_id":4600,"state_code":"80","country_id":58,"country_code":"CZ","latitude":"49.83332000","longitude":"17.54762000"},{"id":"22331","name":"Fr\u00fddek-M\u00edstek","state_id":4600,"state_code":"80","country_id":58,"country_code":"CZ","latitude":"49.68333000","longitude":"18.35000000"},{"id":"22333","name":"Fr\u00fddlant nad Ostravic\u00ed","state_id":4600,"state_code":"80","country_id":58,"country_code":"CZ","latitude":"49.59280000","longitude":"18.35967000"},{"id":"22327","name":"Frenst\u00e1t pod Radhostem","state_id":4600,"state_code":"80","country_id":58,"country_code":"CZ","latitude":"49.54835000","longitude":"18.21078000"},{"id":"22329","name":"Frycovice","state_id":4600,"state_code":"80","country_id":58,"country_code":"CZ","latitude":"49.66677000","longitude":"18.22321000"},{"id":"22334","name":"Fulnek","state_id":4600,"state_code":"80","country_id":58,"country_code":"CZ","latitude":"49.71238000","longitude":"17.90319000"},{"id":"22347","name":"Hat","state_id":4600,"state_code":"80","country_id":58,"country_code":"CZ","latitude":"49.94644000","longitude":"18.23931000"},{"id":"22345","name":"Hav\u00edrov","state_id":4600,"state_code":"80","country_id":58,"country_code":"CZ","latitude":"49.77984000","longitude":"18.43688000"},{"id":"22440","name":"H\u00e1j ve Slezsku","state_id":4600,"state_code":"80","country_id":58,"country_code":"CZ","latitude":"49.89856000","longitude":"18.09540000"},{"id":"22358","name":"Hluc\u00edn","state_id":4600,"state_code":"80","country_id":58,"country_code":"CZ","latitude":"49.89795000","longitude":"18.19196000"},{"id":"22361","name":"Hnevosice","state_id":4600,"state_code":"80","country_id":58,"country_code":"CZ","latitude":"50.00299000","longitude":"18.00829000"},{"id":"22359","name":"Hnojn\u00edk","state_id":4600,"state_code":"80","country_id":58,"country_code":"CZ","latitude":"49.68250000","longitude":"18.54143000"},{"id":"22366","name":"Hodslavice","state_id":4600,"state_code":"80","country_id":58,"country_code":"CZ","latitude":"49.53856000","longitude":"18.02367000"},{"id":"22367","name":"Holasovice","state_id":4600,"state_code":"80","country_id":58,"country_code":"CZ","latitude":"49.99843000","longitude":"17.80847000"},{"id":"22374","name":"Horn\u00ed Benesov","state_id":4600,"state_code":"80","country_id":58,"country_code":"CZ","latitude":"49.96682000","longitude":"17.60262000"},{"id":"22376","name":"Horn\u00ed Bludovice","state_id":4600,"state_code":"80","country_id":58,"country_code":"CZ","latitude":"49.74965000","longitude":"18.43677000"},{"id":"22384","name":"Horn\u00ed Mesto","state_id":4600,"state_code":"80","country_id":58,"country_code":"CZ","latitude":"49.90845000","longitude":"17.21112000"},{"id":"22391","name":"Horn\u00ed Such\u00e1","state_id":4600,"state_code":"80","country_id":58,"country_code":"CZ","latitude":"49.79780000","longitude":"18.48189000"},{"id":"22392","name":"Horn\u00ed Terlicko","state_id":4600,"state_code":"80","country_id":58,"country_code":"CZ","latitude":"49.75177000","longitude":"18.48290000"},{"id":"22411","name":"Hrabyne","state_id":4600,"state_code":"80","country_id":58,"country_code":"CZ","latitude":"49.88249000","longitude":"18.05483000"},{"id":"22413","name":"Hradec nad Moravici","state_id":4600,"state_code":"80","country_id":58,"country_code":"CZ","latitude":"49.87042000","longitude":"17.87843000"},{"id":"22429","name":"Hr\u00e1dek","state_id":4600,"state_code":"80","country_id":58,"country_code":"CZ","latitude":"49.61661000","longitude":"18.73720000"},{"id":"22433","name":"Hukvaldy","state_id":4600,"state_code":"80","country_id":58,"country_code":"CZ","latitude":"49.62381000","longitude":"18.22189000"},{"id":"22449","name":"Jablunkov","state_id":4600,"state_code":"80","country_id":58,"country_code":"CZ","latitude":"49.57672000","longitude":"18.76458000"},{"id":"22451","name":"Jakartovice","state_id":4600,"state_code":"80","country_id":58,"country_code":"CZ","latitude":"49.91510000","longitude":"17.68400000"},{"id":"22454","name":"Janovice","state_id":4600,"state_code":"80","country_id":58,"country_code":"CZ","latitude":"49.62141000","longitude":"18.40602000"},{"id":"22468","name":"Jesen\u00edk nad Odrou","state_id":4600,"state_code":"80","country_id":58,"country_code":"CZ","latitude":"49.61194000","longitude":"17.90526000"},{"id":"22475","name":"Jindrichov","state_id":4600,"state_code":"80","country_id":58,"country_code":"CZ","latitude":"50.25184000","longitude":"17.51903000"},{"id":"22480","name":"Jistebn\u00edk","state_id":4600,"state_code":"80","country_id":58,"country_code":"CZ","latitude":"49.75400000","longitude":"18.13063000"},{"id":"22497","name":"Karlovice","state_id":4600,"state_code":"80","country_id":58,"country_code":"CZ","latitude":"50.10564000","longitude":"17.44563000"},{"id":"22501","name":"Karvin\u00e1","state_id":4600,"state_code":"80","country_id":58,"country_code":"CZ","latitude":"49.85400000","longitude":"18.54169000"},{"id":"22515","name":"Klimkovice","state_id":4600,"state_code":"80","country_id":58,"country_code":"CZ","latitude":"49.78809000","longitude":"18.12585000"},{"id":"22524","name":"Koberice","state_id":4600,"state_code":"80","country_id":58,"country_code":"CZ","latitude":"49.98548000","longitude":"18.05212000"},{"id":"22530","name":"Komorn\u00ed Lhotka","state_id":4600,"state_code":"80","country_id":58,"country_code":"CZ","latitude":"49.65811000","longitude":"18.52777000"},{"id":"22534","name":"Koprivnice","state_id":4600,"state_code":"80","country_id":58,"country_code":"CZ","latitude":"49.59947000","longitude":"18.14480000"},{"id":"22547","name":"Kozlovice","state_id":4600,"state_code":"80","country_id":58,"country_code":"CZ","latitude":"49.59040000","longitude":"18.25656000"},{"id":"22548","name":"Kozmice","state_id":4600,"state_code":"80","country_id":58,"country_code":"CZ","latitude":"49.91280000","longitude":"18.15584000"},{"id":"22557","name":"Kravare","state_id":4600,"state_code":"80","country_id":58,"country_code":"CZ","latitude":"49.93203000","longitude":"18.00472000"},{"id":"22558","name":"Krmel\u00edn","state_id":4600,"state_code":"80","country_id":58,"country_code":"CZ","latitude":"49.72914000","longitude":"18.23541000"},{"id":"22559","name":"Krnov","state_id":4600,"state_code":"80","country_id":58,"country_code":"CZ","latitude":"50.08967000","longitude":"17.70385000"},{"id":"22572","name":"Kuncice pod Ondrejn\u00edkem","state_id":4600,"state_code":"80","country_id":58,"country_code":"CZ","latitude":"49.55070000","longitude":"18.26113000"},{"id":"22571","name":"Kun\u00edn","state_id":4600,"state_code":"80","country_id":58,"country_code":"CZ","latitude":"49.63377000","longitude":"17.98965000"},{"id":"22614","name":"Lichnov","state_id":4600,"state_code":"80","country_id":58,"country_code":"CZ","latitude":"50.00786000","longitude":"17.62640000"},{"id":"22615","name":"Lichnov (o. Nov\u00fd Jic\u00edn)","state_id":4600,"state_code":"80","country_id":58,"country_code":"CZ","latitude":"49.56423000","longitude":"18.16898000"},{"id":"22653","name":"Lucina","state_id":4600,"state_code":"80","country_id":58,"country_code":"CZ","latitude":"49.72082000","longitude":"18.44776000"},{"id":"22645","name":"Ludgerovice","state_id":4600,"state_code":"80","country_id":58,"country_code":"CZ","latitude":"49.89042000","longitude":"18.24008000"},{"id":"22677","name":"Markvartovice","state_id":4600,"state_code":"80","country_id":58,"country_code":"CZ","latitude":"49.90595000","longitude":"18.23602000"},{"id":"22741","name":"Mesto Albrechtice","state_id":4600,"state_code":"80","country_id":58,"country_code":"CZ","latitude":"50.16294000","longitude":"17.57481000"},{"id":"22682","name":"Metylovice","state_id":4600,"state_code":"80","country_id":58,"country_code":"CZ","latitude":"49.60666000","longitude":"18.33911000"},{"id":"22692","name":"Mil\u00edkov","state_id":4600,"state_code":"80","country_id":58,"country_code":"CZ","latitude":"49.58565000","longitude":"18.71943000"},{"id":"22730","name":"Morkov","state_id":4600,"state_code":"80","country_id":58,"country_code":"CZ","latitude":"49.53684000","longitude":"18.05968000"},{"id":"22713","name":"Mokr\u00e9 Lazce","state_id":4600,"state_code":"80","country_id":58,"country_code":"CZ","latitude":"49.90462000","longitude":"18.02954000"},{"id":"22724","name":"Mor\u00e1vka","state_id":4600,"state_code":"80","country_id":58,"country_code":"CZ","latitude":"49.59607000","longitude":"18.52471000"},{"id":"22728","name":"Mosty u Jablunkova","state_id":4600,"state_code":"80","country_id":58,"country_code":"CZ","latitude":"49.52737000","longitude":"18.75417000"},{"id":"22796","name":"N\u00e1vs\u00ed u Jablunkova","state_id":4600,"state_code":"80","country_id":58,"country_code":"CZ","latitude":"49.58720000","longitude":"18.75907000"},{"id":"22797","name":"N\u00fddek","state_id":4600,"state_code":"80","country_id":58,"country_code":"CZ","latitude":"49.65609000","longitude":"18.75687000"},{"id":"22788","name":"Nov\u00fd Jic\u00edn","state_id":4600,"state_code":"80","country_id":58,"country_code":"CZ","latitude":"49.59438000","longitude":"18.01028000"},{"id":"22804","name":"Odry","state_id":4600,"state_code":"80","country_id":58,"country_code":"CZ","latitude":"49.66255000","longitude":"17.83084000"},{"id":"22810","name":"Okres Brunt\u00e1l","state_id":4600,"state_code":"80","country_id":58,"country_code":"CZ","latitude":"50.00000000","longitude":"17.41667000"},{"id":"22817","name":"Okres Fr\u00fddek-M\u00edstek","state_id":4600,"state_code":"80","country_id":58,"country_code":"CZ","latitude":"49.58333000","longitude":"18.50000000"},{"id":"22827","name":"Okres Karvin\u00e1","state_id":4600,"state_code":"80","country_id":58,"country_code":"CZ","latitude":"49.83333000","longitude":"18.50000000"},{"id":"22839","name":"Okres Nov\u00fd Jic\u00edn","state_id":4600,"state_code":"80","country_id":58,"country_code":"CZ","latitude":"49.66667000","longitude":"18.00000000"},{"id":"22843","name":"Okres Opava","state_id":4600,"state_code":"80","country_id":58,"country_code":"CZ","latitude":"49.83333000","longitude":"17.91667000"},{"id":"22844","name":"Okres Ostrava-mesto","state_id":4600,"state_code":"80","country_id":58,"country_code":"CZ","latitude":"49.83333000","longitude":"18.25000000"},{"id":"22884","name":"Oldrisov","state_id":4600,"state_code":"80","country_id":58,"country_code":"CZ","latitude":"49.99130000","longitude":"17.96074000"},{"id":"22892","name":"Opava","state_id":4600,"state_code":"80","country_id":58,"country_code":"CZ","latitude":"49.93866000","longitude":"17.90257000"},{"id":"22895","name":"Orlov\u00e1","state_id":4600,"state_code":"80","country_id":58,"country_code":"CZ","latitude":"49.84527000","longitude":"18.43011000"},{"id":"22902","name":"Osoblaha","state_id":4600,"state_code":"80","country_id":58,"country_code":"CZ","latitude":"50.27517000","longitude":"17.71523000"},{"id":"22904","name":"Ostrava","state_id":4600,"state_code":"80","country_id":58,"country_code":"CZ","latitude":"49.83465000","longitude":"18.28204000"},{"id":"22905","name":"Ostravice","state_id":4600,"state_code":"80","country_id":58,"country_code":"CZ","latitude":"49.53510000","longitude":"18.39164000"},{"id":"22913","name":"Otice","state_id":4600,"state_code":"80","country_id":58,"country_code":"CZ","latitude":"49.91684000","longitude":"17.86982000"},{"id":"22918","name":"Palkovice","state_id":4600,"state_code":"80","country_id":58,"country_code":"CZ","latitude":"49.63467000","longitude":"18.31508000"},{"id":"22921","name":"Paskov","state_id":4600,"state_code":"80","country_id":58,"country_code":"CZ","latitude":"49.73179000","longitude":"18.29037000"},{"id":"22995","name":"P\u00edst","state_id":4600,"state_code":"80","country_id":58,"country_code":"CZ","latitude":"49.97857000","longitude":"18.19349000"},{"id":"22992","name":"P\u00edsek","state_id":4600,"state_code":"80","country_id":58,"country_code":"CZ","latitude":"49.55924000","longitude":"18.80231000"},{"id":"23007","name":"Pr\u00edbor","state_id":4600,"state_code":"80","country_id":58,"country_code":"CZ","latitude":"49.64094000","longitude":"18.14499000"},{"id":"22931","name":"Petrvald","state_id":4600,"state_code":"80","country_id":58,"country_code":"CZ","latitude":"49.83100000","longitude":"18.38940000"},{"id":"22930","name":"Petrovice u Karvin\u00e9","state_id":4600,"state_code":"80","country_id":58,"country_code":"CZ","latitude":"49.89587000","longitude":"18.54779000"},{"id":"22975","name":"Prazmo","state_id":4600,"state_code":"80","country_id":58,"country_code":"CZ","latitude":"49.60876000","longitude":"18.48617000"},{"id":"22990","name":"Pust\u00e1 Polom","state_id":4600,"state_code":"80","country_id":58,"country_code":"CZ","latitude":"49.84917000","longitude":"17.99790000"},{"id":"23026","name":"Raskovice","state_id":4600,"state_code":"80","country_id":58,"country_code":"CZ","latitude":"49.61975000","longitude":"18.47286000"},{"id":"23057","name":"R\u00fdmarov","state_id":4600,"state_code":"80","country_id":58,"country_code":"CZ","latitude":"49.93183000","longitude":"17.27177000"},{"id":"23033","name":"Ropice","state_id":4600,"state_code":"80","country_id":58,"country_code":"CZ","latitude":"49.70536000","longitude":"18.61345000"},{"id":"23052","name":"Ryb\u00ed","state_id":4600,"state_code":"80","country_id":58,"country_code":"CZ","latitude":"49.60073000","longitude":"18.07592000"},{"id":"23054","name":"Rychvald","state_id":4600,"state_code":"80","country_id":58,"country_code":"CZ","latitude":"49.86625000","longitude":"18.37626000"},{"id":"23064","name":"Sedliste","state_id":4600,"state_code":"80","country_id":58,"country_code":"CZ","latitude":"49.71836000","longitude":"18.36869000"},{"id":"23065","name":"Sedlnice","state_id":4600,"state_code":"80","country_id":58,"country_code":"CZ","latitude":"49.65770000","longitude":"18.08690000"},{"id":"23081","name":"Slavkov","state_id":4600,"state_code":"80","country_id":58,"country_code":"CZ","latitude":"49.92180000","longitude":"17.83641000"},{"id":"23116","name":"Star\u00edc","state_id":4600,"state_code":"80","country_id":58,"country_code":"CZ","latitude":"49.68594000","longitude":"18.27281000"},{"id":"23102","name":"Star\u00e1 Ves nad Ondrejnic\u00ed","state_id":4600,"state_code":"80","country_id":58,"country_code":"CZ","latitude":"49.72775000","longitude":"18.18850000"},{"id":"23105","name":"Star\u00e9 Mesto","state_id":4600,"state_code":"80","country_id":58,"country_code":"CZ","latitude":"49.66992000","longitude":"18.36349000"},{"id":"23110","name":"Star\u00fd Bohum\u00edn","state_id":4600,"state_code":"80","country_id":58,"country_code":"CZ","latitude":"49.91690000","longitude":"18.33619000"},{"id":"23111","name":"Star\u00fd Jic\u00edn","state_id":4600,"state_code":"80","country_id":58,"country_code":"CZ","latitude":"49.57686000","longitude":"17.96169000"},{"id":"23135","name":"Steborice","state_id":4600,"state_code":"80","country_id":58,"country_code":"CZ","latitude":"49.93708000","longitude":"17.80547000"},{"id":"23119","name":"Stonava","state_id":4600,"state_code":"80","country_id":58,"country_code":"CZ","latitude":"49.81691000","longitude":"18.52518000"},{"id":"23134","name":"Stud\u00e9nka","state_id":4600,"state_code":"80","country_id":58,"country_code":"CZ","latitude":"49.72342000","longitude":"18.07853000"},{"id":"23148","name":"Sviadnov","state_id":4600,"state_code":"80","country_id":58,"country_code":"CZ","latitude":"49.68926000","longitude":"18.32762000"},{"id":"23205","name":"Trinec","state_id":4600,"state_code":"80","country_id":58,"country_code":"CZ","latitude":"49.67763000","longitude":"18.67078000"},{"id":"23164","name":"Tich\u00e1","state_id":4600,"state_code":"80","country_id":58,"country_code":"CZ","latitude":"49.56999000","longitude":"18.22148000"},{"id":"23177","name":"Trojanovice","state_id":4600,"state_code":"80","country_id":58,"country_code":"CZ","latitude":"49.52039000","longitude":"18.23800000"},{"id":"23310","name":"V\u00e1clavovice","state_id":4600,"state_code":"80","country_id":58,"country_code":"CZ","latitude":"49.75531000","longitude":"18.37220000"},{"id":"23312","name":"V\u00edtkov","state_id":4600,"state_code":"80","country_id":58,"country_code":"CZ","latitude":"49.77445000","longitude":"17.74941000"},{"id":"23316","name":"Vresina","state_id":4600,"state_code":"80","country_id":58,"country_code":"CZ","latitude":"49.82418000","longitude":"18.12569000"},{"id":"23265","name":"Verovice","state_id":4600,"state_code":"80","country_id":58,"country_code":"CZ","latitude":"49.53916000","longitude":"18.11425000"},{"id":"23234","name":"Velk\u00e1 Polom","state_id":4600,"state_code":"80","country_id":58,"country_code":"CZ","latitude":"49.86359000","longitude":"18.09331000"},{"id":"23239","name":"Velk\u00e9 Heraltice","state_id":4600,"state_code":"80","country_id":58,"country_code":"CZ","latitude":"49.97493000","longitude":"17.72879000"},{"id":"23240","name":"Velk\u00e9 Hostice","state_id":4600,"state_code":"80","country_id":58,"country_code":"CZ","latitude":"49.93609000","longitude":"17.97380000"},{"id":"23259","name":"Vendryne","state_id":4600,"state_code":"80","country_id":58,"country_code":"CZ","latitude":"49.66662000","longitude":"18.71307000"},{"id":"23283","name":"Vlcnov","state_id":4600,"state_code":"80","country_id":58,"country_code":"CZ","latitude":"49.57866000","longitude":"17.95458000"},{"id":"23294","name":"Vratimov","state_id":4600,"state_code":"80","country_id":58,"country_code":"CZ","latitude":"49.76995000","longitude":"18.31015000"},{"id":"23296","name":"Vrbice","state_id":4600,"state_code":"80","country_id":58,"country_code":"CZ","latitude":"49.88333000","longitude":"18.31667000"},{"id":"23297","name":"Vrbno pod Pradedem","state_id":4600,"state_code":"80","country_id":58,"country_code":"CZ","latitude":"50.12095000","longitude":"17.38316000"},{"id":"23352","name":"Z\u00e1tor","state_id":4600,"state_code":"80","country_id":58,"country_code":"CZ","latitude":"50.03413000","longitude":"17.59296000"}]