[{"id":"3904","name":"Abbotsford","state_id":3903,"state_code":"VIC","country_id":14,"country_code":"AU","latitude":"-37.80000000","longitude":"145.00000000"},{"id":"3909","name":"Aberfeldie","state_id":3903,"state_code":"VIC","country_id":14,"country_code":"AU","latitude":"-37.75959000","longitude":"144.89740000"},{"id":"3926","name":"Airport West","state_id":3903,"state_code":"VIC","country_id":14,"country_code":"AU","latitude":"-37.72470000","longitude":"144.88126000"},{"id":"3929","name":"Albanvale","state_id":3903,"state_code":"VIC","country_id":14,"country_code":"AU","latitude":"-37.74609000","longitude":"144.76856000"},{"id":"3934","name":"Albert Park","state_id":3903,"state_code":"VIC","country_id":14,"country_code":"AU","latitude":"-37.84107000","longitude":"144.95198000"},{"id":"3936","name":"Albion","state_id":3903,"state_code":"VIC","country_id":14,"country_code":"AU","latitude":"-37.78017000","longitude":"144.81724000"},{"id":"3947","name":"Alexandra","state_id":3903,"state_code":"VIC","country_id":14,"country_code":"AU","latitude":"-37.19132000","longitude":"145.71120000"},{"id":"3954","name":"Alfredton","state_id":3903,"state_code":"VIC","country_id":14,"country_code":"AU","latitude":"-37.56667000","longitude":"143.81667000"},{"id":"3960","name":"Allansford","state_id":3903,"state_code":"VIC","country_id":14,"country_code":"AU","latitude":"-38.38639000","longitude":"142.59431000"},{"id":"3966","name":"Alphington","state_id":3903,"state_code":"VIC","country_id":14,"country_code":"AU","latitude":"-37.78333000","longitude":"145.03333000"},{"id":"3967","name":"Alpine","state_id":3903,"state_code":"VIC","country_id":14,"country_code":"AU","latitude":"-36.83412000","longitude":"146.97936000"},{"id":"3970","name":"Altona","state_id":3903,"state_code":"VIC","country_id":14,"country_code":"AU","latitude":"-37.86964000","longitude":"144.83036000"},{"id":"3971","name":"Altona Meadows","state_id":3903,"state_code":"VIC","country_id":14,"country_code":"AU","latitude":"-37.88413000","longitude":"144.78367000"},{"id":"3972","name":"Altona North","state_id":3903,"state_code":"VIC","country_id":14,"country_code":"AU","latitude":"-37.83487000","longitude":"144.84735000"},{"id":"3982","name":"Anglesea","state_id":3903,"state_code":"VIC","country_id":14,"country_code":"AU","latitude":"-38.40730000","longitude":"144.18587000"},{"id":"3990","name":"Apollo Bay","state_id":3903,"state_code":"VIC","country_id":14,"country_code":"AU","latitude":"-38.75940000","longitude":"143.67219000"},{"id":"3996","name":"Ararat","state_id":3903,"state_code":"VIC","country_id":14,"country_code":"AU","latitude":"-37.48925000","longitude":"142.82239000"},{"id":"3999","name":"Ardeer","state_id":3903,"state_code":"VIC","country_id":14,"country_code":"AU","latitude":"-37.77586000","longitude":"144.80144000"},{"id":"4004","name":"Armadale","state_id":3903,"state_code":"VIC","country_id":14,"country_code":"AU","latitude":"-37.85544000","longitude":"145.02052000"},{"id":"4006","name":"Armstrong Creek","state_id":3903,"state_code":"VIC","country_id":14,"country_code":"AU","latitude":"-38.23121000","longitude":"144.37374000"},{"id":"4012","name":"Ascot","state_id":3903,"state_code":"VIC","country_id":14,"country_code":"AU","latitude":"-36.70000000","longitude":"144.33333000"},{"id":"4015","name":"Ascot Vale","state_id":3903,"state_code":"VIC","country_id":14,"country_code":"AU","latitude":"-37.77988000","longitude":"144.92276000"},{"id":"4016","name":"Ashburton","state_id":3903,"state_code":"VIC","country_id":14,"country_code":"AU","latitude":"-37.86667000","longitude":"145.08333000"},{"id":"4028","name":"Ashwood","state_id":3903,"state_code":"VIC","country_id":14,"country_code":"AU","latitude":"-37.86659000","longitude":"145.10553000"},{"id":"4029","name":"Aspendale","state_id":3903,"state_code":"VIC","country_id":14,"country_code":"AU","latitude":"-38.02913000","longitude":"145.10266000"},{"id":"4030","name":"Aspendale Gardens","state_id":3903,"state_code":"VIC","country_id":14,"country_code":"AU","latitude":"-38.02277000","longitude":"145.11798000"},{"id":"4037","name":"Attwood","state_id":3903,"state_code":"VIC","country_id":14,"country_code":"AU","latitude":"-37.66955000","longitude":"144.88675000"},{"id":"4051","name":"Avenel","state_id":3903,"state_code":"VIC","country_id":14,"country_code":"AU","latitude":"-36.90088000","longitude":"145.23367000"},{"id":"4053","name":"Avoca","state_id":3903,"state_code":"VIC","country_id":14,"country_code":"AU","latitude":"-37.09044000","longitude":"143.47365000"},{"id":"4057","name":"Avondale Heights","state_id":3903,"state_code":"VIC","country_id":14,"country_code":"AU","latitude":"-37.76155000","longitude":"144.86261000"},{"id":"4060","name":"Bacchus Marsh","state_id":3903,"state_code":"VIC","country_id":14,"country_code":"AU","latitude":"-37.67268000","longitude":"144.43829000"},{"id":"4061","name":"Badger Creek","state_id":3903,"state_code":"VIC","country_id":14,"country_code":"AU","latitude":"-37.70000000","longitude":"145.51667000"},{"id":"4064","name":"Bairnsdale","state_id":3903,"state_code":"VIC","country_id":14,"country_code":"AU","latitude":"-37.82289000","longitude":"147.61041000"},{"id":"4068","name":"Balaclava","state_id":3903,"state_code":"VIC","country_id":14,"country_code":"AU","latitude":"-37.86667000","longitude":"145.00000000"},{"id":"4079","name":"Ballan","state_id":3903,"state_code":"VIC","country_id":14,"country_code":"AU","latitude":"-37.59987000","longitude":"144.22890000"},{"id":"4080","name":"Ballarat","state_id":3903,"state_code":"VIC","country_id":14,"country_code":"AU","latitude":"-37.56622000","longitude":"143.84957000"},{"id":"4081","name":"Ballarat Central","state_id":3903,"state_code":"VIC","country_id":14,"country_code":"AU","latitude":"-37.56206000","longitude":"143.85082000"},{"id":"4082","name":"Ballarat East","state_id":3903,"state_code":"VIC","country_id":14,"country_code":"AU","latitude":"-37.56667000","longitude":"143.86667000"},{"id":"4083","name":"Ballarat North","state_id":3903,"state_code":"VIC","country_id":14,"country_code":"AU","latitude":"-37.51884000","longitude":"143.77284000"},{"id":"4088","name":"Balnarring","state_id":3903,"state_code":"VIC","country_id":14,"country_code":"AU","latitude":"-38.36667000","longitude":"145.13333000"},{"id":"4091","name":"Balwyn","state_id":3903,"state_code":"VIC","country_id":14,"country_code":"AU","latitude":"-37.80914000","longitude":"145.07890000"},{"id":"4092","name":"Balwyn North","state_id":3903,"state_code":"VIC","country_id":14,"country_code":"AU","latitude":"-37.79086000","longitude":"145.09386000"},{"id":"4104","name":"Bannockburn","state_id":3903,"state_code":"VIC","country_id":14,"country_code":"AU","latitude":"-38.04894000","longitude":"144.16882000"},{"id":"4107","name":"Banyule","state_id":3903,"state_code":"VIC","country_id":14,"country_code":"AU","latitude":"-37.73386000","longitude":"145.08576000"},{"id":"4109","name":"Baranduda","state_id":3903,"state_code":"VIC","country_id":14,"country_code":"AU","latitude":"-36.19114000","longitude":"146.95380000"},{"id":"4131","name":"Barwon Heads","state_id":3903,"state_code":"VIC","country_id":14,"country_code":"AU","latitude":"-38.27448000","longitude":"144.48853000"},{"id":"4133","name":"Bass Coast","state_id":3903,"state_code":"VIC","country_id":14,"country_code":"AU","latitude":"-38.48507000","longitude":"145.46390000"},{"id":"4147","name":"Baw Baw","state_id":3903,"state_code":"VIC","country_id":14,"country_code":"AU","latitude":"-37.96998000","longitude":"146.14404000"},{"id":"4148","name":"Baxter","state_id":3903,"state_code":"VIC","country_id":14,"country_code":"AU","latitude":"-38.20000000","longitude":"145.15000000"},{"id":"4152","name":"Bayside","state_id":3903,"state_code":"VIC","country_id":14,"country_code":"AU","latitude":"-37.93986000","longitude":"145.01932000"},{"id":"4153","name":"Bayswater","state_id":3903,"state_code":"VIC","country_id":14,"country_code":"AU","latitude":"-37.85000000","longitude":"145.26667000"},{"id":"4155","name":"Bayswater North","state_id":3903,"state_code":"VIC","country_id":14,"country_code":"AU","latitude":"-37.82612000","longitude":"145.29831000"},{"id":"4161","name":"Beaconsfield","state_id":3903,"state_code":"VIC","country_id":14,"country_code":"AU","latitude":"-38.05000000","longitude":"145.36667000"},{"id":"4164","name":"Beaconsfield Upper","state_id":3903,"state_code":"VIC","country_id":14,"country_code":"AU","latitude":"-37.99415000","longitude":"145.41420000"},{"id":"4166","name":"Beaufort","state_id":3903,"state_code":"VIC","country_id":14,"country_code":"AU","latitude":"-37.42996000","longitude":"143.38347000"},{"id":"4167","name":"Beaumaris","state_id":3903,"state_code":"VIC","country_id":14,"country_code":"AU","latitude":"-37.98534000","longitude":"145.03361000"},{"id":"4176","name":"Beechworth","state_id":3903,"state_code":"VIC","country_id":14,"country_code":"AU","latitude":"-36.35828000","longitude":"146.68584000"},{"id":"4188","name":"Belgrave","state_id":3903,"state_code":"VIC","country_id":14,"country_code":"AU","latitude":"-37.91093000","longitude":"145.35359000"},{"id":"4189","name":"Belgrave Heights","state_id":3903,"state_code":"VIC","country_id":14,"country_code":"AU","latitude":"-37.92624000","longitude":"145.34367000"},{"id":"4190","name":"Belgrave South","state_id":3903,"state_code":"VIC","country_id":14,"country_code":"AU","latitude":"-37.93333000","longitude":"145.33333000"},{"id":"4191","name":"Bell Park","state_id":3903,"state_code":"VIC","country_id":14,"country_code":"AU","latitude":"-38.10793000","longitude":"144.33839000"},{"id":"4192","name":"Bell Post Hill","state_id":3903,"state_code":"VIC","country_id":14,"country_code":"AU","latitude":"-38.09564000","longitude":"144.31968000"},{"id":"4204","name":"Bellfield","state_id":3903,"state_code":"VIC","country_id":14,"country_code":"AU","latitude":"-37.75309000","longitude":"145.03848000"},{"id":"4210","name":"Belmont","state_id":3903,"state_code":"VIC","country_id":14,"country_code":"AU","latitude":"-38.17485000","longitude":"144.34276000"},{"id":"4216","name":"Benalla","state_id":3903,"state_code":"VIC","country_id":14,"country_code":"AU","latitude":"-36.59041000","longitude":"146.02812000"},{"id":"4218","name":"Bendigo","state_id":3903,"state_code":"VIC","country_id":14,"country_code":"AU","latitude":"-36.75818000","longitude":"144.28024000"},{"id":"4219","name":"Bendigo city centre","state_id":3903,"state_code":"VIC","country_id":14,"country_code":"AU","latitude":"-36.75698000","longitude":"144.27957000"},{"id":"4223","name":"Bentleigh","state_id":3903,"state_code":"VIC","country_id":14,"country_code":"AU","latitude":"-37.91806000","longitude":"145.03544000"},{"id":"4224","name":"Bentleigh East","state_id":3903,"state_code":"VIC","country_id":14,"country_code":"AU","latitude":"-37.91928000","longitude":"145.05301000"},{"id":"4246","name":"Berwick","state_id":3903,"state_code":"VIC","country_id":14,"country_code":"AU","latitude":"-38.03333000","longitude":"145.35000000"},{"id":"4248","name":"Beveridge","state_id":3903,"state_code":"VIC","country_id":14,"country_code":"AU","latitude":"-37.48333000","longitude":"144.98333000"},{"id":"4274","name":"Bittern","state_id":3903,"state_code":"VIC","country_id":14,"country_code":"AU","latitude":"-38.33333000","longitude":"145.16667000"},{"id":"4276","name":"Black Hill","state_id":3903,"state_code":"VIC","country_id":14,"country_code":"AU","latitude":"-37.55000000","longitude":"143.86667000"},{"id":"4279","name":"Black Rock","state_id":3903,"state_code":"VIC","country_id":14,"country_code":"AU","latitude":"-37.97357000","longitude":"145.01636000"},{"id":"4283","name":"Blackburn","state_id":3903,"state_code":"VIC","country_id":14,"country_code":"AU","latitude":"-37.81901000","longitude":"145.15326000"},{"id":"4284","name":"Blackburn North","state_id":3903,"state_code":"VIC","country_id":14,"country_code":"AU","latitude":"-37.80931000","longitude":"145.15180000"},{"id":"4285","name":"Blackburn South","state_id":3903,"state_code":"VIC","country_id":14,"country_code":"AU","latitude":"-37.83975000","longitude":"145.15549000"},{"id":"4299","name":"Blairgowrie","state_id":3903,"state_code":"VIC","country_id":14,"country_code":"AU","latitude":"-38.36131000","longitude":"144.77955000"},{"id":"4307","name":"Blind Bight","state_id":3903,"state_code":"VIC","country_id":14,"country_code":"AU","latitude":"-38.21427000","longitude":"145.33770000"},{"id":"4325","name":"Bonbeach","state_id":3903,"state_code":"VIC","country_id":14,"country_code":"AU","latitude":"-38.06528000","longitude":"145.12278000"},{"id":"4349","name":"Boronia","state_id":3903,"state_code":"VIC","country_id":14,"country_code":"AU","latitude":"-37.86667000","longitude":"145.28333000"},{"id":"4351","name":"Boroondara","state_id":3903,"state_code":"VIC","country_id":14,"country_code":"AU","latitude":"-37.82640000","longitude":"145.05299000"},{"id":"4353","name":"Botanic Ridge","state_id":3903,"state_code":"VIC","country_id":14,"country_code":"AU","latitude":"-38.13922000","longitude":"145.26841000"},{"id":"4368","name":"Box Hill","state_id":3903,"state_code":"VIC","country_id":14,"country_code":"AU","latitude":"-37.81887000","longitude":"145.12545000"},{"id":"4369","name":"Box Hill North","state_id":3903,"state_code":"VIC","country_id":14,"country_code":"AU","latitude":"-37.80266000","longitude":"145.12656000"},{"id":"4370","name":"Box Hill South","state_id":3903,"state_code":"VIC","country_id":14,"country_code":"AU","latitude":"-37.83236000","longitude":"145.12098000"},{"id":"4386","name":"Braybrook","state_id":3903,"state_code":"VIC","country_id":14,"country_code":"AU","latitude":"-37.78671000","longitude":"144.85484000"},{"id":"4392","name":"Briagolong","state_id":3903,"state_code":"VIC","country_id":14,"country_code":"AU","latitude":"-37.84356000","longitude":"147.07268000"},{"id":"4393","name":"Briar Hill","state_id":3903,"state_code":"VIC","country_id":14,"country_code":"AU","latitude":"-37.70631000","longitude":"145.12100000"},{"id":"4400","name":"Bright","state_id":3903,"state_code":"VIC","country_id":14,"country_code":"AU","latitude":"-36.72998000","longitude":"146.95978000"},{"id":"4403","name":"Brighton","state_id":3903,"state_code":"VIC","country_id":14,"country_code":"AU","latitude":"-37.90561000","longitude":"145.00279000"},{"id":"4405","name":"Brighton East","state_id":3903,"state_code":"VIC","country_id":14,"country_code":"AU","latitude":"-37.90232000","longitude":"145.01734000"},{"id":"4407","name":"Brimbank","state_id":3903,"state_code":"VIC","country_id":14,"country_code":"AU","latitude":"-37.74287000","longitude":"144.81644000"},{"id":"4414","name":"Broadford","state_id":3903,"state_code":"VIC","country_id":14,"country_code":"AU","latitude":"-37.20276000","longitude":"145.04837000"},{"id":"4416","name":"Broadmeadows","state_id":3903,"state_code":"VIC","country_id":14,"country_code":"AU","latitude":"-37.68015000","longitude":"144.91877000"},{"id":"4425","name":"Brookfield","state_id":3903,"state_code":"VIC","country_id":14,"country_code":"AU","latitude":"-37.70080000","longitude":"144.56025000"},{"id":"4427","name":"Brooklyn","state_id":3903,"state_code":"VIC","country_id":14,"country_code":"AU","latitude":"-37.81609000","longitude":"144.84150000"},{"id":"4435","name":"Brown Hill","state_id":3903,"state_code":"VIC","country_id":14,"country_code":"AU","latitude":"-37.54654000","longitude":"143.91553000"},{"id":"4438","name":"Brunswick","state_id":3903,"state_code":"VIC","country_id":14,"country_code":"AU","latitude":"-37.76667000","longitude":"144.96667000"},{"id":"4440","name":"Brunswick East","state_id":3903,"state_code":"VIC","country_id":14,"country_code":"AU","latitude":"-37.77255000","longitude":"144.97241000"},{"id":"4442","name":"Brunswick West","state_id":3903,"state_code":"VIC","country_id":14,"country_code":"AU","latitude":"-37.76461000","longitude":"144.94383000"},{"id":"4455","name":"Bulleen","state_id":3903,"state_code":"VIC","country_id":14,"country_code":"AU","latitude":"-37.76667000","longitude":"145.08333000"},{"id":"4459","name":"Buloke","state_id":3903,"state_code":"VIC","country_id":14,"country_code":"AU","latitude":"-35.84638000","longitude":"143.05201000"},{"id":"4470","name":"Bundoora","state_id":3903,"state_code":"VIC","country_id":14,"country_code":"AU","latitude":"-37.69825000","longitude":"145.05967000"},{"id":"4474","name":"Buninyong","state_id":3903,"state_code":"VIC","country_id":14,"country_code":"AU","latitude":"-37.65019000","longitude":"143.88388000"},{"id":"4476","name":"Bunyip","state_id":3903,"state_code":"VIC","country_id":14,"country_code":"AU","latitude":"-38.09789000","longitude":"145.71606000"},{"id":"4487","name":"Burnside","state_id":3903,"state_code":"VIC","country_id":14,"country_code":"AU","latitude":"-37.74937000","longitude":"144.75301000"},{"id":"4489","name":"Burnside Heights","state_id":3903,"state_code":"VIC","country_id":14,"country_code":"AU","latitude":"-37.72691000","longitude":"144.75225000"},{"id":"4500","name":"Burwood","state_id":3903,"state_code":"VIC","country_id":14,"country_code":"AU","latitude":"-37.84978000","longitude":"145.11901000"},{"id":"4502","name":"Burwood East","state_id":3903,"state_code":"VIC","country_id":14,"country_code":"AU","latitude":"-37.85000000","longitude":"145.15000000"},{"id":"4523","name":"Cairnlea","state_id":3903,"state_code":"VIC","country_id":14,"country_code":"AU","latitude":"-37.75931000","longitude":"144.78781000"},{"id":"4529","name":"California Gully","state_id":3903,"state_code":"VIC","country_id":14,"country_code":"AU","latitude":"-36.72887000","longitude":"144.26089000"},{"id":"4537","name":"Camberwell","state_id":3903,"state_code":"VIC","country_id":14,"country_code":"AU","latitude":"-37.84205000","longitude":"145.06940000"},{"id":"4554","name":"Campaspe","state_id":3903,"state_code":"VIC","country_id":14,"country_code":"AU","latitude":"-36.32338000","longitude":"144.70844000"},{"id":"4556","name":"Campbellfield","state_id":3903,"state_code":"VIC","country_id":14,"country_code":"AU","latitude":"-37.66386000","longitude":"144.95953000"},{"id":"4557","name":"Campbells Creek","state_id":3903,"state_code":"VIC","country_id":14,"country_code":"AU","latitude":"-37.08665000","longitude":"144.20203000"},{"id":"4562","name":"Camperdown","state_id":3903,"state_code":"VIC","country_id":14,"country_code":"AU","latitude":"-38.23392000","longitude":"143.14983000"},{"id":"4565","name":"Canadian","state_id":3903,"state_code":"VIC","country_id":14,"country_code":"AU","latitude":"-37.57606000","longitude":"143.87742000"},{"id":"4575","name":"Canterbury","state_id":3903,"state_code":"VIC","country_id":14,"country_code":"AU","latitude":"-37.82470000","longitude":"145.08476000"},{"id":"4580","name":"Cape Woolamai","state_id":3903,"state_code":"VIC","country_id":14,"country_code":"AU","latitude":"-38.54285000","longitude":"145.34407000"},{"id":"4588","name":"Cardinia","state_id":3903,"state_code":"VIC","country_id":14,"country_code":"AU","latitude":"-38.09508000","longitude":"145.56455000"},{"id":"4597","name":"Carisbrook","state_id":3903,"state_code":"VIC","country_id":14,"country_code":"AU","latitude":"-37.04808000","longitude":"143.81665000"},{"id":"4600","name":"Carlton","state_id":3903,"state_code":"VIC","country_id":14,"country_code":"AU","latitude":"-37.80000000","longitude":"144.96667000"},{"id":"4602","name":"Carlton North","state_id":3903,"state_code":"VIC","country_id":14,"country_code":"AU","latitude":"-37.78818000","longitude":"144.97014000"},{"id":"4605","name":"Carnegie","state_id":3903,"state_code":"VIC","country_id":14,"country_code":"AU","latitude":"-37.89359000","longitude":"145.05534000"},{"id":"4607","name":"Caroline Springs","state_id":3903,"state_code":"VIC","country_id":14,"country_code":"AU","latitude":"-37.74124000","longitude":"144.73631000"},{"id":"4614","name":"Carrum","state_id":3903,"state_code":"VIC","country_id":14,"country_code":"AU","latitude":"-38.08333000","longitude":"145.13333000"},{"id":"4615","name":"Carrum Downs","state_id":3903,"state_code":"VIC","country_id":14,"country_code":"AU","latitude":"-38.09968000","longitude":"145.17248000"},{"id":"4620","name":"Casey","state_id":3903,"state_code":"VIC","country_id":14,"country_code":"AU","latitude":"-38.09519000","longitude":"145.32279000"},{"id":"4625","name":"Casterton","state_id":3903,"state_code":"VIC","country_id":14,"country_code":"AU","latitude":"-37.58489000","longitude":"141.40297000"},{"id":"4629","name":"Castlemaine","state_id":3903,"state_code":"VIC","country_id":14,"country_code":"AU","latitude":"-37.06709000","longitude":"144.21684000"},{"id":"4637","name":"Caulfield","state_id":3903,"state_code":"VIC","country_id":14,"country_code":"AU","latitude":"-37.88251000","longitude":"145.02288000"},{"id":"4638","name":"Caulfield East","state_id":3903,"state_code":"VIC","country_id":14,"country_code":"AU","latitude":"-37.88121000","longitude":"145.04208000"},{"id":"4639","name":"Caulfield North","state_id":3903,"state_code":"VIC","country_id":14,"country_code":"AU","latitude":"-37.87390000","longitude":"145.02485000"},{"id":"4640","name":"Caulfield South","state_id":3903,"state_code":"VIC","country_id":14,"country_code":"AU","latitude":"-37.89562000","longitude":"145.02597000"},{"id":"4652","name":"Central Goldfields","state_id":3903,"state_code":"VIC","country_id":14,"country_code":"AU","latitude":"-36.97889000","longitude":"143.73857000"},{"id":"4656","name":"Chadstone","state_id":3903,"state_code":"VIC","country_id":14,"country_code":"AU","latitude":"-37.88766000","longitude":"145.09519000"},{"id":"4667","name":"Charlton","state_id":3903,"state_code":"VIC","country_id":14,"country_code":"AU","latitude":"-36.26437000","longitude":"143.34901000"},{"id":"4676","name":"Chelsea","state_id":3903,"state_code":"VIC","country_id":14,"country_code":"AU","latitude":"-38.05000000","longitude":"145.11667000"},{"id":"4677","name":"Chelsea Heights","state_id":3903,"state_code":"VIC","country_id":14,"country_code":"AU","latitude":"-38.03333000","longitude":"145.13333000"},{"id":"4679","name":"Cheltenham","state_id":3903,"state_code":"VIC","country_id":14,"country_code":"AU","latitude":"-37.96944000","longitude":"145.04806000"},{"id":"4685","name":"Chewton","state_id":3903,"state_code":"VIC","country_id":14,"country_code":"AU","latitude":"-37.08137000","longitude":"144.25682000"},{"id":"4691","name":"Chiltern","state_id":3903,"state_code":"VIC","country_id":14,"country_code":"AU","latitude":"-36.15044000","longitude":"146.60843000"},{"id":"4696","name":"Chirnside Park","state_id":3903,"state_code":"VIC","country_id":14,"country_code":"AU","latitude":"-37.73860000","longitude":"145.31431000"},{"id":"4704","name":"Churchill","state_id":3903,"state_code":"VIC","country_id":14,"country_code":"AU","latitude":"-38.30776000","longitude":"146.41367000"},{"id":"4726","name":"Clarinda","state_id":3903,"state_code":"VIC","country_id":14,"country_code":"AU","latitude":"-37.94066000","longitude":"145.10238000"},{"id":"4730","name":"Clayton","state_id":3903,"state_code":"VIC","country_id":14,"country_code":"AU","latitude":"-37.91667000","longitude":"145.11667000"},{"id":"4731","name":"Clayton South","state_id":3903,"state_code":"VIC","country_id":14,"country_code":"AU","latitude":"-37.93333000","longitude":"145.11667000"},{"id":"4740","name":"Clifton Hill","state_id":3903,"state_code":"VIC","country_id":14,"country_code":"AU","latitude":"-37.79798000","longitude":"144.99533000"},{"id":"4741","name":"Clifton Springs","state_id":3903,"state_code":"VIC","country_id":14,"country_code":"AU","latitude":"-38.15670000","longitude":"144.55510000"},{"id":"4749","name":"Clunes","state_id":3903,"state_code":"VIC","country_id":14,"country_code":"AU","latitude":"-37.29473000","longitude":"143.78636000"},{"id":"4750","name":"Clyde","state_id":3903,"state_code":"VIC","country_id":14,"country_code":"AU","latitude":"-38.13333000","longitude":"145.33333000"},{"id":"4751","name":"Clyde North","state_id":3903,"state_code":"VIC","country_id":14,"country_code":"AU","latitude":"-38.11667000","longitude":"145.33333000"},{"id":"4755","name":"Cobden","state_id":3903,"state_code":"VIC","country_id":14,"country_code":"AU","latitude":"-38.32860000","longitude":"143.07484000"},{"id":"4756","name":"Cobram","state_id":3903,"state_code":"VIC","country_id":14,"country_code":"AU","latitude":"-35.92069000","longitude":"145.64066000"},{"id":"4757","name":"Coburg","state_id":3903,"state_code":"VIC","country_id":14,"country_code":"AU","latitude":"-37.75000000","longitude":"144.96667000"},{"id":"4758","name":"Coburg North","state_id":3903,"state_code":"VIC","country_id":14,"country_code":"AU","latitude":"-37.72867000","longitude":"144.96134000"},{"id":"4759","name":"Cockatoo","state_id":3903,"state_code":"VIC","country_id":14,"country_code":"AU","latitude":"-37.93677000","longitude":"145.49376000"},{"id":"4764","name":"Cohuna","state_id":3903,"state_code":"VIC","country_id":14,"country_code":"AU","latitude":"-35.80697000","longitude":"144.21886000"},{"id":"4765","name":"Colac","state_id":3903,"state_code":"VIC","country_id":14,"country_code":"AU","latitude":"-38.33900000","longitude":"143.58489000"},{"id":"4766","name":"Colac-Otway","state_id":3903,"state_code":"VIC","country_id":14,"country_code":"AU","latitude":"-38.43873000","longitude":"143.59669000"},{"id":"4767","name":"Coldstream","state_id":3903,"state_code":"VIC","country_id":14,"country_code":"AU","latitude":"-37.72490000","longitude":"145.37804000"},{"id":"4775","name":"Collingwood","state_id":3903,"state_code":"VIC","country_id":14,"country_code":"AU","latitude":"-37.80253000","longitude":"144.98872000"},{"id":"4806","name":"Coolaroo","state_id":3903,"state_code":"VIC","country_id":14,"country_code":"AU","latitude":"-37.65675000","longitude":"144.93460000"},{"id":"4834","name":"Corangamite","state_id":3903,"state_code":"VIC","country_id":14,"country_code":"AU","latitude":"-38.21596000","longitude":"143.23542000"},{"id":"4838","name":"Corio","state_id":3903,"state_code":"VIC","country_id":14,"country_code":"AU","latitude":"-38.08333000","longitude":"144.38333000"},{"id":"4845","name":"Corryong","state_id":3903,"state_code":"VIC","country_id":14,"country_code":"AU","latitude":"-36.19705000","longitude":"147.90256000"},{"id":"4853","name":"Cowes","state_id":3903,"state_code":"VIC","country_id":14,"country_code":"AU","latitude":"-38.45231000","longitude":"145.23865000"},{"id":"4860","name":"Craigieburn","state_id":3903,"state_code":"VIC","country_id":14,"country_code":"AU","latitude":"-37.60000000","longitude":"144.95000000"},{"id":"4864","name":"Cranbourne","state_id":3903,"state_code":"VIC","country_id":14,"country_code":"AU","latitude":"-38.11342000","longitude":"145.28326000"},{"id":"4865","name":"Cranbourne East","state_id":3903,"state_code":"VIC","country_id":14,"country_code":"AU","latitude":"-38.11531000","longitude":"145.29814000"},{"id":"4866","name":"Cranbourne North","state_id":3903,"state_code":"VIC","country_id":14,"country_code":"AU","latitude":"-38.07758000","longitude":"145.29871000"},{"id":"4867","name":"Cranbourne South","state_id":3903,"state_code":"VIC","country_id":14,"country_code":"AU","latitude":"-38.13502000","longitude":"145.23958000"},{"id":"4868","name":"Cranbourne West","state_id":3903,"state_code":"VIC","country_id":14,"country_code":"AU","latitude":"-38.09650000","longitude":"145.26707000"},{"id":"4874","name":"Cremorne","state_id":3903,"state_code":"VIC","country_id":14,"country_code":"AU","latitude":"-37.83180000","longitude":"144.99380000"},{"id":"4881","name":"Creswick","state_id":3903,"state_code":"VIC","country_id":14,"country_code":"AU","latitude":"-37.42404000","longitude":"143.89470000"},{"id":"4882","name":"Crib Point","state_id":3903,"state_code":"VIC","country_id":14,"country_code":"AU","latitude":"-38.35000000","longitude":"145.20000000"},{"id":"4890","name":"Croydon","state_id":3903,"state_code":"VIC","country_id":14,"country_code":"AU","latitude":"-37.80000000","longitude":"145.28333000"},{"id":"4892","name":"Croydon Hills","state_id":3903,"state_code":"VIC","country_id":14,"country_code":"AU","latitude":"-37.77651000","longitude":"145.26355000"},{"id":"4893","name":"Croydon North","state_id":3903,"state_code":"VIC","country_id":14,"country_code":"AU","latitude":"-37.76741000","longitude":"145.29073000"},{"id":"4895","name":"Croydon South","state_id":3903,"state_code":"VIC","country_id":14,"country_code":"AU","latitude":"-37.81232000","longitude":"145.26810000"},{"id":"4924","name":"Dallas","state_id":3903,"state_code":"VIC","country_id":14,"country_code":"AU","latitude":"-37.67083000","longitude":"144.93542000"},{"id":"4931","name":"Dandenong","state_id":3903,"state_code":"VIC","country_id":14,"country_code":"AU","latitude":"-37.98333000","longitude":"145.20000000"},{"id":"4932","name":"Dandenong North","state_id":3903,"state_code":"VIC","country_id":14,"country_code":"AU","latitude":"-37.96649000","longitude":"145.20810000"},{"id":"4936","name":"Darebin","state_id":3903,"state_code":"VIC","country_id":14,"country_code":"AU","latitude":"-37.75153000","longitude":"145.02193000"},{"id":"4937","name":"Darley","state_id":3903,"state_code":"VIC","country_id":14,"country_code":"AU","latitude":"-37.65807000","longitude":"144.44344000"},{"id":"4954","name":"Daylesford","state_id":3903,"state_code":"VIC","country_id":14,"country_code":"AU","latitude":"-37.34113000","longitude":"144.14256000"},{"id":"4962","name":"Deer Park","state_id":3903,"state_code":"VIC","country_id":14,"country_code":"AU","latitude":"-37.76722000","longitude":"144.76657000"},{"id":"4964","name":"Delacombe","state_id":3903,"state_code":"VIC","country_id":14,"country_code":"AU","latitude":"-37.58911000","longitude":"143.81472000"},{"id":"4965","name":"Delahey","state_id":3903,"state_code":"VIC","country_id":14,"country_code":"AU","latitude":"-37.71980000","longitude":"144.77732000"},{"id":"4975","name":"Dennington","state_id":3903,"state_code":"VIC","country_id":14,"country_code":"AU","latitude":"-38.35519000","longitude":"142.43361000"},{"id":"4980","name":"Derrimut","state_id":3903,"state_code":"VIC","country_id":14,"country_code":"AU","latitude":"-37.79238000","longitude":"144.76994000"},{"id":"4983","name":"Devon Meadows","state_id":3903,"state_code":"VIC","country_id":14,"country_code":"AU","latitude":"-38.16667000","longitude":"145.30000000"},{"id":"4987","name":"Diamond Creek","state_id":3903,"state_code":"VIC","country_id":14,"country_code":"AU","latitude":"-37.66667000","longitude":"145.15000000"},{"id":"4992","name":"Diggers Rest","state_id":3903,"state_code":"VIC","country_id":14,"country_code":"AU","latitude":"-37.62597000","longitude":"144.71881000"},{"id":"4993","name":"Dimboola","state_id":3903,"state_code":"VIC","country_id":14,"country_code":"AU","latitude":"-36.45616000","longitude":"142.03287000"},{"id":"4995","name":"Dingley Village","state_id":3903,"state_code":"VIC","country_id":14,"country_code":"AU","latitude":"-37.98270000","longitude":"145.13420000"},{"id":"4996","name":"Dinner Plain","state_id":3903,"state_code":"VIC","country_id":14,"country_code":"AU","latitude":"-37.02360000","longitude":"147.24124000"},{"id":"4998","name":"Docklands","state_id":3903,"state_code":"VIC","country_id":14,"country_code":"AU","latitude":"-37.81490000","longitude":"144.95052000"},{"id":"5001","name":"Donald","state_id":3903,"state_code":"VIC","country_id":14,"country_code":"AU","latitude":"-36.36864000","longitude":"142.98106000"},{"id":"5002","name":"Doncaster","state_id":3903,"state_code":"VIC","country_id":14,"country_code":"AU","latitude":"-37.78828000","longitude":"145.12373000"},{"id":"5003","name":"Doncaster East","state_id":3903,"state_code":"VIC","country_id":14,"country_code":"AU","latitude":"-37.78761000","longitude":"145.14888000"},{"id":"5007","name":"Donvale","state_id":3903,"state_code":"VIC","country_id":14,"country_code":"AU","latitude":"-37.78910000","longitude":"145.17488000"},{"id":"5013","name":"Doreen","state_id":3903,"state_code":"VIC","country_id":14,"country_code":"AU","latitude":"-37.60000000","longitude":"145.15000000"},{"id":"5022","name":"Doveton","state_id":3903,"state_code":"VIC","country_id":14,"country_code":"AU","latitude":"-37.99346000","longitude":"145.23891000"},{"id":"5028","name":"Dromana","state_id":3903,"state_code":"VIC","country_id":14,"country_code":"AU","latitude":"-38.33375000","longitude":"144.96458000"},{"id":"5029","name":"Drouin","state_id":3903,"state_code":"VIC","country_id":14,"country_code":"AU","latitude":"-38.13658000","longitude":"145.85838000"},{"id":"5032","name":"Drysdale","state_id":3903,"state_code":"VIC","country_id":14,"country_code":"AU","latitude":"-38.17237000","longitude":"144.56988000"},{"id":"5055","name":"Eagle Point","state_id":3903,"state_code":"VIC","country_id":14,"country_code":"AU","latitude":"-37.90000000","longitude":"147.68333000"},{"id":"5058","name":"Eaglehawk","state_id":3903,"state_code":"VIC","country_id":14,"country_code":"AU","latitude":"-36.71611000","longitude":"144.25049000"},{"id":"5059","name":"Eaglemont","state_id":3903,"state_code":"VIC","country_id":14,"country_code":"AU","latitude":"-37.76379000","longitude":"145.06380000"},{"id":"5064","name":"East Bairnsdale","state_id":3903,"state_code":"VIC","country_id":14,"country_code":"AU","latitude":"-37.83426000","longitude":"147.65548000"},{"id":"5066","name":"East Bendigo","state_id":3903,"state_code":"VIC","country_id":14,"country_code":"AU","latitude":"-36.74157000","longitude":"144.31894000"},{"id":"5075","name":"East Geelong","state_id":3903,"state_code":"VIC","country_id":14,"country_code":"AU","latitude":"-38.15568000","longitude":"144.37202000"},{"id":"5076","name":"East Gippsland","state_id":3903,"state_code":"VIC","country_id":14,"country_code":"AU","latitude":"-37.34564000","longitude":"148.58295000"},{"id":"5090","name":"East Melbourne","state_id":3903,"state_code":"VIC","country_id":14,"country_code":"AU","latitude":"-37.81667000","longitude":"144.98790000"},{"id":"5103","name":"Echuca","state_id":3903,"state_code":"VIC","country_id":14,"country_code":"AU","latitude":"-36.14057000","longitude":"144.75185000"},{"id":"5108","name":"Eden Park","state_id":3903,"state_code":"VIC","country_id":14,"country_code":"AU","latitude":"-37.48333000","longitude":"145.08333000"},{"id":"5115","name":"Edithvale","state_id":3903,"state_code":"VIC","country_id":14,"country_code":"AU","latitude":"-38.03724000","longitude":"145.10974000"},{"id":"5142","name":"Elliminyt","state_id":3903,"state_code":"VIC","country_id":14,"country_code":"AU","latitude":"-38.37110000","longitude":"143.58003000"},{"id":"5145","name":"Elsternwick","state_id":3903,"state_code":"VIC","country_id":14,"country_code":"AU","latitude":"-37.88639000","longitude":"145.00250000"},{"id":"5146","name":"Eltham","state_id":3903,"state_code":"VIC","country_id":14,"country_code":"AU","latitude":"-37.73333000","longitude":"145.15000000"},{"id":"5147","name":"Eltham North","state_id":3903,"state_code":"VIC","country_id":14,"country_code":"AU","latitude":"-37.70000000","longitude":"145.15000000"},{"id":"5148","name":"Elwood","state_id":3903,"state_code":"VIC","country_id":14,"country_code":"AU","latitude":"-37.88214000","longitude":"144.98215000"},{"id":"5150","name":"Emerald","state_id":3903,"state_code":"VIC","country_id":14,"country_code":"AU","latitude":"-37.93167000","longitude":"145.44093000"},{"id":"5159","name":"Endeavour Hills","state_id":3903,"state_code":"VIC","country_id":14,"country_code":"AU","latitude":"-37.97695000","longitude":"145.25866000"},{"id":"5164","name":"Epping","state_id":3903,"state_code":"VIC","country_id":14,"country_code":"AU","latitude":"-37.65000000","longitude":"145.03333000"},{"id":"5166","name":"Epsom","state_id":3903,"state_code":"VIC","country_id":14,"country_code":"AU","latitude":"-36.71667000","longitude":"144.31667000"},{"id":"5177","name":"Essendon","state_id":3903,"state_code":"VIC","country_id":14,"country_code":"AU","latitude":"-37.74981000","longitude":"144.91090000"},{"id":"5178","name":"Essendon North","state_id":3903,"state_code":"VIC","country_id":14,"country_code":"AU","latitude":"-37.74225000","longitude":"144.90546000"},{"id":"5179","name":"Essendon West","state_id":3903,"state_code":"VIC","country_id":14,"country_code":"AU","latitude":"-37.75489000","longitude":"144.88338000"},{"id":"5187","name":"Eumemmerring","state_id":3903,"state_code":"VIC","country_id":14,"country_code":"AU","latitude":"-37.99780000","longitude":"145.24821000"},{"id":"5189","name":"Euroa","state_id":3903,"state_code":"VIC","country_id":14,"country_code":"AU","latitude":"-36.75555000","longitude":"145.57075000"},{"id":"5203","name":"Eynesbury","state_id":3903,"state_code":"VIC","country_id":14,"country_code":"AU","latitude":"-37.80043000","longitude":"144.57458000"},{"id":"5205","name":"Fairfield","state_id":3903,"state_code":"VIC","country_id":14,"country_code":"AU","latitude":"-37.77977000","longitude":"145.01764000"},{"id":"5215","name":"Falls Creek","state_id":3903,"state_code":"VIC","country_id":14,"country_code":"AU","latitude":"-36.86535000","longitude":"147.27782000"},{"id":"5221","name":"Fawkner","state_id":3903,"state_code":"VIC","country_id":14,"country_code":"AU","latitude":"-37.71667000","longitude":"144.96667000"},{"id":"5227","name":"Ferntree Gully","state_id":3903,"state_code":"VIC","country_id":14,"country_code":"AU","latitude":"-37.88461000","longitude":"145.29539000"},{"id":"5229","name":"Ferny Creek","state_id":3903,"state_code":"VIC","country_id":14,"country_code":"AU","latitude":"-37.88333000","longitude":"145.33333000"},{"id":"5241","name":"Fitzroy","state_id":3903,"state_code":"VIC","country_id":14,"country_code":"AU","latitude":"-37.79839000","longitude":"144.97833000"},{"id":"5243","name":"Fitzroy North","state_id":3903,"state_code":"VIC","country_id":14,"country_code":"AU","latitude":"-37.78862000","longitude":"144.97885000"},{"id":"5246","name":"Flemington","state_id":3903,"state_code":"VIC","country_id":14,"country_code":"AU","latitude":"-37.78825000","longitude":"144.93001000"},{"id":"5254","name":"Flora Hill","state_id":3903,"state_code":"VIC","country_id":14,"country_code":"AU","latitude":"-36.78123000","longitude":"144.29562000"},{"id":"5259","name":"Footscray","state_id":3903,"state_code":"VIC","country_id":14,"country_code":"AU","latitude":"-37.80000000","longitude":"144.90000000"},{"id":"5264","name":"Forest Hill","state_id":3903,"state_code":"VIC","country_id":14,"country_code":"AU","latitude":"-37.83333000","longitude":"145.18333000"},{"id":"5276","name":"Foster","state_id":3903,"state_code":"VIC","country_id":14,"country_code":"AU","latitude":"-38.65275000","longitude":"146.20073000"},{"id":"5280","name":"Frankston","state_id":3903,"state_code":"VIC","country_id":14,"country_code":"AU","latitude":"-38.13402000","longitude":"145.16875000"},{"id":"5281","name":"Frankston East","state_id":3903,"state_code":"VIC","country_id":14,"country_code":"AU","latitude":"-38.13333000","longitude":"145.13333000"},{"id":"5282","name":"Frankston North","state_id":3903,"state_code":"VIC","country_id":14,"country_code":"AU","latitude":"-38.12352000","longitude":"145.14836000"},{"id":"5283","name":"Frankston South","state_id":3903,"state_code":"VIC","country_id":14,"country_code":"AU","latitude":"-38.16604000","longitude":"145.13643000"},{"id":"5301","name":"Gannawarra","state_id":3903,"state_code":"VIC","country_id":14,"country_code":"AU","latitude":"-35.73211000","longitude":"143.85316000"},{"id":"5305","name":"Garfield","state_id":3903,"state_code":"VIC","country_id":14,"country_code":"AU","latitude":"-38.08985000","longitude":"145.67502000"},{"id":"5316","name":"Geelong","state_id":3903,"state_code":"VIC","country_id":14,"country_code":"AU","latitude":"-38.14711000","longitude":"144.36069000"},{"id":"5318","name":"Geelong city centre","state_id":3903,"state_code":"VIC","country_id":14,"country_code":"AU","latitude":"-38.14996000","longitude":"144.36176000"},{"id":"5317","name":"Geelong West","state_id":3903,"state_code":"VIC","country_id":14,"country_code":"AU","latitude":"-38.13888000","longitude":"144.34842000"},{"id":"5322","name":"Gembrook","state_id":3903,"state_code":"VIC","country_id":14,"country_code":"AU","latitude":"-37.95321000","longitude":"145.55536000"},{"id":"5345","name":"Gisborne","state_id":3903,"state_code":"VIC","country_id":14,"country_code":"AU","latitude":"-37.48858000","longitude":"144.59421000"},{"id":"5349","name":"Gladstone Park","state_id":3903,"state_code":"VIC","country_id":14,"country_code":"AU","latitude":"-37.68742000","longitude":"144.88675000"},{"id":"5356","name":"Glen Eira","state_id":3903,"state_code":"VIC","country_id":14,"country_code":"AU","latitude":"-37.89949000","longitude":"145.04099000"},{"id":"5358","name":"Glen Huntly","state_id":3903,"state_code":"VIC","country_id":14,"country_code":"AU","latitude":"-37.89237000","longitude":"145.04135000"},{"id":"5362","name":"Glen Iris","state_id":3903,"state_code":"VIC","country_id":14,"country_code":"AU","latitude":"-37.86667000","longitude":"145.06667000"},{"id":"5364","name":"Glen Waverley","state_id":3903,"state_code":"VIC","country_id":14,"country_code":"AU","latitude":"-37.87811000","longitude":"145.16476000"},{"id":"5372","name":"Glenelg","state_id":3903,"state_code":"VIC","country_id":14,"country_code":"AU","latitude":"-37.89083000","longitude":"141.44238000"},{"id":"5377","name":"Glenferrie","state_id":3903,"state_code":"VIC","country_id":14,"country_code":"AU","latitude":"-37.83333000","longitude":"145.05000000"},{"id":"5380","name":"Glengarry","state_id":3903,"state_code":"VIC","country_id":14,"country_code":"AU","latitude":"-38.11667000","longitude":"146.56667000"},{"id":"5387","name":"Glenroy","state_id":3903,"state_code":"VIC","country_id":14,"country_code":"AU","latitude":"-37.70000000","longitude":"144.93333000"},{"id":"5404","name":"Golden Plains","state_id":3903,"state_code":"VIC","country_id":14,"country_code":"AU","latitude":"-37.85231000","longitude":"143.86352000"},{"id":"5405","name":"Golden Point","state_id":3903,"state_code":"VIC","country_id":14,"country_code":"AU","latitude":"-37.57493000","longitude":"143.86870000"},{"id":"5406","name":"Golden Square","state_id":3903,"state_code":"VIC","country_id":14,"country_code":"AU","latitude":"-36.77265000","longitude":"144.25271000"},{"id":"5419","name":"Gordon","state_id":3903,"state_code":"VIC","country_id":14,"country_code":"AU","latitude":"-37.58230000","longitude":"144.10925000"},{"id":"5428","name":"Gowanbrae","state_id":3903,"state_code":"VIC","country_id":14,"country_code":"AU","latitude":"-37.70823000","longitude":"144.89079000"},{"id":"5445","name":"Greater Bendigo","state_id":3903,"state_code":"VIC","country_id":14,"country_code":"AU","latitude":"-36.72278000","longitude":"144.43974000"},{"id":"5446","name":"Greater Dandenong","state_id":3903,"state_code":"VIC","country_id":14,"country_code":"AU","latitude":"-38.00112000","longitude":"145.19073000"},{"id":"5447","name":"Greater Geelong","state_id":3903,"state_code":"VIC","country_id":14,"country_code":"AU","latitude":"-38.05182000","longitude":"144.46137000"},{"id":"5449","name":"Greater Shepparton","state_id":3903,"state_code":"VIC","country_id":14,"country_code":"AU","latitude":"-36.42742000","longitude":"145.41519000"},{"id":"5458","name":"Greensborough","state_id":3903,"state_code":"VIC","country_id":14,"country_code":"AU","latitude":"-37.70462000","longitude":"145.10302000"},{"id":"5460","name":"Greenvale","state_id":3903,"state_code":"VIC","country_id":14,"country_code":"AU","latitude":"-37.63333000","longitude":"144.86667000"},{"id":"5474","name":"Grovedale","state_id":3903,"state_code":"VIC","country_id":14,"country_code":"AU","latitude":"-38.20000000","longitude":"144.35000000"},{"id":"5501","name":"Haddon","state_id":3903,"state_code":"VIC","country_id":14,"country_code":"AU","latitude":"-37.60000000","longitude":"143.71667000"},{"id":"5502","name":"Hadfield","state_id":3903,"state_code":"VIC","country_id":14,"country_code":"AU","latitude":"-37.70728000","longitude":"144.94160000"},{"id":"5506","name":"Hallam","state_id":3903,"state_code":"VIC","country_id":14,"country_code":"AU","latitude":"-38.01667000","longitude":"145.26667000"},{"id":"5511","name":"Hamilton","state_id":3903,"state_code":"VIC","country_id":14,"country_code":"AU","latitude":"-37.74425000","longitude":"142.02202000"},{"id":"5515","name":"Hamlyn Heights","state_id":3903,"state_code":"VIC","country_id":14,"country_code":"AU","latitude":"-38.12108000","longitude":"144.32799000"},{"id":"5520","name":"Hampton","state_id":3903,"state_code":"VIC","country_id":14,"country_code":"AU","latitude":"-37.95000000","longitude":"145.00000000"},{"id":"5521","name":"Hampton East","state_id":3903,"state_code":"VIC","country_id":14,"country_code":"AU","latitude":"-37.93695000","longitude":"145.02863000"},{"id":"5522","name":"Hampton Park","state_id":3903,"state_code":"VIC","country_id":14,"country_code":"AU","latitude":"-38.03333000","longitude":"145.25000000"},{"id":"5535","name":"Hastings","state_id":3903,"state_code":"VIC","country_id":14,"country_code":"AU","latitude":"-38.30000000","longitude":"145.18333000"},{"id":"5537","name":"Haven","state_id":3903,"state_code":"VIC","country_id":14,"country_code":"AU","latitude":"-36.76072000","longitude":"142.19426000"},{"id":"5541","name":"Hawthorn","state_id":3903,"state_code":"VIC","country_id":14,"country_code":"AU","latitude":"-37.81992000","longitude":"145.03580000"},{"id":"5543","name":"Hawthorn East","state_id":3903,"state_code":"VIC","country_id":14,"country_code":"AU","latitude":"-37.82484000","longitude":"145.04640000"},{"id":"5544","name":"Hawthorn South","state_id":3903,"state_code":"VIC","country_id":14,"country_code":"AU","latitude":"-37.83290000","longitude":"145.03670000"},{"id":"5552","name":"Hazelwood North","state_id":3903,"state_code":"VIC","country_id":14,"country_code":"AU","latitude":"-38.26763000","longitude":"146.48286000"},{"id":"5554","name":"Healesville","state_id":3903,"state_code":"VIC","country_id":14,"country_code":"AU","latitude":"-37.65395000","longitude":"145.51718000"},{"id":"5557","name":"Heathcote","state_id":3903,"state_code":"VIC","country_id":14,"country_code":"AU","latitude":"-36.92214000","longitude":"144.70837000"},{"id":"5558","name":"Heatherton","state_id":3903,"state_code":"VIC","country_id":14,"country_code":"AU","latitude":"-37.96667000","longitude":"145.10000000"},{"id":"5559","name":"Heathmont","state_id":3903,"state_code":"VIC","country_id":14,"country_code":"AU","latitude":"-37.83333000","longitude":"145.25000000"},{"id":"5567","name":"Heidelberg","state_id":3903,"state_code":"VIC","country_id":14,"country_code":"AU","latitude":"-37.75000000","longitude":"145.06667000"},{"id":"5568","name":"Heidelberg Heights","state_id":3903,"state_code":"VIC","country_id":14,"country_code":"AU","latitude":"-37.74313000","longitude":"145.05695000"},{"id":"5569","name":"Heidelberg West","state_id":3903,"state_code":"VIC","country_id":14,"country_code":"AU","latitude":"-37.73922000","longitude":"145.04034000"},{"id":"5580","name":"Hepburn","state_id":3903,"state_code":"VIC","country_id":14,"country_code":"AU","latitude":"-37.31707000","longitude":"144.03355000"},{"id":"5586","name":"Herne Hill","state_id":3903,"state_code":"VIC","country_id":14,"country_code":"AU","latitude":"-38.13427000","longitude":"144.32406000"},{"id":"5590","name":"Heyfield","state_id":3903,"state_code":"VIC","country_id":14,"country_code":"AU","latitude":"-37.98130000","longitude":"146.78559000"},{"id":"5591","name":"Heywood","state_id":3903,"state_code":"VIC","country_id":14,"country_code":"AU","latitude":"-38.13294000","longitude":"141.62949000"},{"id":"5595","name":"Highett","state_id":3903,"state_code":"VIC","country_id":14,"country_code":"AU","latitude":"-37.95000000","longitude":"145.05000000"},{"id":"5601","name":"Highton","state_id":3903,"state_code":"VIC","country_id":14,"country_code":"AU","latitude":"-38.17058000","longitude":"144.31140000"},{"id":"5612","name":"Hillside","state_id":3903,"state_code":"VIC","country_id":14,"country_code":"AU","latitude":"-37.69047000","longitude":"144.74172000"},{"id":"5618","name":"Hindmarsh","state_id":3903,"state_code":"VIC","country_id":14,"country_code":"AU","latitude":"-36.03293000","longitude":"141.73282000"},{"id":"5620","name":"Hmas Cerberus","state_id":3903,"state_code":"VIC","country_id":14,"country_code":"AU","latitude":"-38.36491000","longitude":"145.20038000"},{"id":"5624","name":"Hobsons Bay","state_id":3903,"state_code":"VIC","country_id":14,"country_code":"AU","latitude":"-37.85694000","longitude":"144.83347000"},{"id":"5647","name":"Hoppers Crossing","state_id":3903,"state_code":"VIC","country_id":14,"country_code":"AU","latitude":"-37.88264000","longitude":"144.70030000"},{"id":"5652","name":"Horsham","state_id":3903,"state_code":"VIC","country_id":14,"country_code":"AU","latitude":"-36.82857000","longitude":"142.11448000"},{"id":"5655","name":"Hotham Heights","state_id":3903,"state_code":"VIC","country_id":14,"country_code":"AU","latitude":"-36.99298000","longitude":"147.15225000"},{"id":"5664","name":"Hughesdale","state_id":3903,"state_code":"VIC","country_id":14,"country_code":"AU","latitude":"-37.90000000","longitude":"145.08333000"},{"id":"5665","name":"Hume","state_id":3903,"state_code":"VIC","country_id":14,"country_code":"AU","latitude":"-37.59717000","longitude":"144.80511000"},{"id":"5670","name":"Huntingdale","state_id":3903,"state_code":"VIC","country_id":14,"country_code":"AU","latitude":"-37.90766000","longitude":"145.10847000"},{"id":"5672","name":"Huntly","state_id":3903,"state_code":"VIC","country_id":14,"country_code":"AU","latitude":"-36.66451000","longitude":"144.33382000"},{"id":"5676","name":"Hurstbridge","state_id":3903,"state_code":"VIC","country_id":14,"country_code":"AU","latitude":"-37.64157000","longitude":"145.19408000"},{"id":"5686","name":"Indented Head","state_id":3903,"state_code":"VIC","country_id":14,"country_code":"AU","latitude":"-38.14305000","longitude":"144.71343000"},{"id":"5687","name":"Indigo","state_id":3903,"state_code":"VIC","country_id":14,"country_code":"AU","latitude":"-36.20854000","longitude":"146.68628000"},{"id":"5698","name":"Inverleigh","state_id":3903,"state_code":"VIC","country_id":14,"country_code":"AU","latitude":"-38.10177000","longitude":"144.05132000"},{"id":"5699","name":"Inverloch","state_id":3903,"state_code":"VIC","country_id":14,"country_code":"AU","latitude":"-38.62659000","longitude":"145.72260000"},{"id":"5701","name":"Invermay Park","state_id":3903,"state_code":"VIC","country_id":14,"country_code":"AU","latitude":"-37.53063000","longitude":"143.85798000"},{"id":"5703","name":"Ironbark","state_id":3903,"state_code":"VIC","country_id":14,"country_code":"AU","latitude":"-36.75478000","longitude":"144.26378000"},{"id":"5705","name":"Irymple","state_id":3903,"state_code":"VIC","country_id":14,"country_code":"AU","latitude":"-34.23537000","longitude":"142.17101000"},{"id":"5710","name":"Ivanhoe","state_id":3903,"state_code":"VIC","country_id":14,"country_code":"AU","latitude":"-37.76903000","longitude":"145.04308000"},{"id":"5711","name":"Ivanhoe East","state_id":3903,"state_code":"VIC","country_id":14,"country_code":"AU","latitude":"-37.77340000","longitude":"145.06195000"},{"id":"5713","name":"Jacana","state_id":3903,"state_code":"VIC","country_id":14,"country_code":"AU","latitude":"-37.68778000","longitude":"144.91111000"},{"id":"5714","name":"Jackass Flat","state_id":3903,"state_code":"VIC","country_id":14,"country_code":"AU","latitude":"-36.71589000","longitude":"144.28597000"},{"id":"5720","name":"Jan Juc","state_id":3903,"state_code":"VIC","country_id":14,"country_code":"AU","latitude":"-38.34455000","longitude":"144.29518000"},{"id":"5749","name":"Junction Village","state_id":3903,"state_code":"VIC","country_id":14,"country_code":"AU","latitude":"-38.13636000","longitude":"145.29684000"},{"id":"5751","name":"Junortoun","state_id":3903,"state_code":"VIC","country_id":14,"country_code":"AU","latitude":"-36.77106000","longitude":"144.36311000"},{"id":"5761","name":"Kalimna","state_id":3903,"state_code":"VIC","country_id":14,"country_code":"AU","latitude":"-37.87011000","longitude":"147.96664000"},{"id":"5766","name":"Kallista","state_id":3903,"state_code":"VIC","country_id":14,"country_code":"AU","latitude":"-37.89815000","longitude":"145.38226000"},{"id":"5767","name":"Kalorama","state_id":3903,"state_code":"VIC","country_id":14,"country_code":"AU","latitude":"-37.81667000","longitude":"145.36667000"},{"id":"5774","name":"Kangaroo Flat","state_id":3903,"state_code":"VIC","country_id":14,"country_code":"AU","latitude":"-36.80000000","longitude":"144.25000000"},{"id":"5775","name":"Kangaroo Ground","state_id":3903,"state_code":"VIC","country_id":14,"country_code":"AU","latitude":"-37.68919000","longitude":"145.23170000"},{"id":"5803","name":"Kealba","state_id":3903,"state_code":"VIC","country_id":14,"country_code":"AU","latitude":"-37.73710000","longitude":"144.82830000"},{"id":"5807","name":"Keilor","state_id":3903,"state_code":"VIC","country_id":14,"country_code":"AU","latitude":"-37.71667000","longitude":"144.83333000"},{"id":"5808","name":"Keilor Downs","state_id":3903,"state_code":"VIC","country_id":14,"country_code":"AU","latitude":"-37.72337000","longitude":"144.80839000"},{"id":"5809","name":"Keilor East","state_id":3903,"state_code":"VIC","country_id":14,"country_code":"AU","latitude":"-37.73261000","longitude":"144.86504000"},{"id":"5810","name":"Keilor Lodge","state_id":3903,"state_code":"VIC","country_id":14,"country_code":"AU","latitude":"-37.69997000","longitude":"144.80332000"},{"id":"5811","name":"Keilor Park","state_id":3903,"state_code":"VIC","country_id":14,"country_code":"AU","latitude":"-37.72025000","longitude":"144.85422000"},{"id":"5826","name":"Kennington","state_id":3903,"state_code":"VIC","country_id":14,"country_code":"AU","latitude":"-36.77128000","longitude":"144.30298000"},{"id":"5827","name":"Kensington","state_id":3903,"state_code":"VIC","country_id":14,"country_code":"AU","latitude":"-37.79188000","longitude":"144.93114000"},{"id":"5839","name":"Kerang","state_id":3903,"state_code":"VIC","country_id":14,"country_code":"AU","latitude":"-35.73489000","longitude":"143.92027000"},{"id":"5841","name":"Kew","state_id":3903,"state_code":"VIC","country_id":14,"country_code":"AU","latitude":"-37.80639000","longitude":"145.03086000"},{"id":"5843","name":"Kew East","state_id":3903,"state_code":"VIC","country_id":14,"country_code":"AU","latitude":"-37.79758000","longitude":"145.05378000"},{"id":"5846","name":"Keysborough","state_id":3903,"state_code":"VIC","country_id":14,"country_code":"AU","latitude":"-37.99116000","longitude":"145.17385000"},{"id":"5847","name":"Kialla","state_id":3903,"state_code":"VIC","country_id":14,"country_code":"AU","latitude":"-36.44729000","longitude":"145.41422000"},{"id":"5859","name":"Kilmore","state_id":3903,"state_code":"VIC","country_id":14,"country_code":"AU","latitude":"-37.29577000","longitude":"144.95252000"},{"id":"5860","name":"Kilsyth","state_id":3903,"state_code":"VIC","country_id":14,"country_code":"AU","latitude":"-37.80000000","longitude":"145.31667000"},{"id":"5861","name":"Kilsyth South","state_id":3903,"state_code":"VIC","country_id":14,"country_code":"AU","latitude":"-37.82033000","longitude":"145.31599000"},{"id":"5868","name":"Kinglake","state_id":3903,"state_code":"VIC","country_id":14,"country_code":"AU","latitude":"-37.53291000","longitude":"145.33964000"},{"id":"5869","name":"Kinglake West","state_id":3903,"state_code":"VIC","country_id":14,"country_code":"AU","latitude":"-37.46667000","longitude":"145.23333000"},{"id":"5874","name":"Kings Park","state_id":3903,"state_code":"VIC","country_id":14,"country_code":"AU","latitude":"-37.73397000","longitude":"144.77766000"},{"id":"5875","name":"Kingsbury","state_id":3903,"state_code":"VIC","country_id":14,"country_code":"AU","latitude":"-37.71406000","longitude":"145.03509000"},{"id":"5884","name":"Kingston","state_id":3903,"state_code":"VIC","country_id":14,"country_code":"AU","latitude":"-38.00450000","longitude":"145.09531000"},{"id":"5889","name":"Kingsville","state_id":3903,"state_code":"VIC","country_id":14,"country_code":"AU","latitude":"-37.80819000","longitude":"144.87911000"},{"id":"5899","name":"Knox","state_id":3903,"state_code":"VIC","country_id":14,"country_code":"AU","latitude":"-37.89895000","longitude":"145.26923000"},{"id":"5900","name":"Knoxfield","state_id":3903,"state_code":"VIC","country_id":14,"country_code":"AU","latitude":"-37.88978000","longitude":"145.24962000"},{"id":"5905","name":"Koo-Wee-Rup","state_id":3903,"state_code":"VIC","country_id":14,"country_code":"AU","latitude":"-38.19941000","longitude":"145.49081000"},{"id":"5913","name":"Koroit","state_id":3903,"state_code":"VIC","country_id":14,"country_code":"AU","latitude":"-38.29180000","longitude":"142.36729000"},{"id":"5915","name":"Korumburra","state_id":3903,"state_code":"VIC","country_id":14,"country_code":"AU","latitude":"-38.43194000","longitude":"145.82355000"},{"id":"5931","name":"Kurunjang","state_id":3903,"state_code":"VIC","country_id":14,"country_code":"AU","latitude":"-37.67587000","longitude":"144.59690000"},{"id":"5934","name":"Kyabram","state_id":3903,"state_code":"VIC","country_id":14,"country_code":"AU","latitude":"-36.31335000","longitude":"145.05035000"},{"id":"5936","name":"Kyneton","state_id":3903,"state_code":"VIC","country_id":14,"country_code":"AU","latitude":"-37.24444000","longitude":"144.45148000"},{"id":"5944","name":"Lake Gardens","state_id":3903,"state_code":"VIC","country_id":14,"country_code":"AU","latitude":"-37.54632000","longitude":"143.81653000"},{"id":"5952","name":"Lake Wendouree","state_id":3903,"state_code":"VIC","country_id":14,"country_code":"AU","latitude":"-37.54993000","longitude":"143.84730000"},{"id":"5956","name":"Lakes Entrance","state_id":3903,"state_code":"VIC","country_id":14,"country_code":"AU","latitude":"-37.86679000","longitude":"148.00159000"},{"id":"5958","name":"Lalor","state_id":3903,"state_code":"VIC","country_id":14,"country_code":"AU","latitude":"-37.66667000","longitude":"145.01667000"},{"id":"5963","name":"Lancefield","state_id":3903,"state_code":"VIC","country_id":14,"country_code":"AU","latitude":"-37.27733000","longitude":"144.73596000"},{"id":"5969","name":"Lang Lang","state_id":3903,"state_code":"VIC","country_id":14,"country_code":"AU","latitude":"-38.26605000","longitude":"145.56210000"},{"id":"5971","name":"Langwarrin","state_id":3903,"state_code":"VIC","country_id":14,"country_code":"AU","latitude":"-38.16667000","longitude":"145.16667000"},{"id":"5972","name":"Langwarrin South","state_id":3903,"state_code":"VIC","country_id":14,"country_code":"AU","latitude":"-38.18947000","longitude":"145.19350000"},{"id":"5974","name":"Lara","state_id":3903,"state_code":"VIC","country_id":14,"country_code":"AU","latitude":"-38.02388000","longitude":"144.40617000"},{"id":"5983","name":"Latrobe","state_id":3903,"state_code":"VIC","country_id":14,"country_code":"AU","latitude":"-38.25379000","longitude":"146.46124000"},{"id":"5987","name":"Launching Place","state_id":3903,"state_code":"VIC","country_id":14,"country_code":"AU","latitude":"-37.78058000","longitude":"145.56834000"},{"id":"5988","name":"Laverton","state_id":3903,"state_code":"VIC","country_id":14,"country_code":"AU","latitude":"-37.86201000","longitude":"144.76979000"},{"id":"6008","name":"Leongatha","state_id":3903,"state_code":"VIC","country_id":14,"country_code":"AU","latitude":"-38.47607000","longitude":"145.94685000"},{"id":"6010","name":"Leopold","state_id":3903,"state_code":"VIC","country_id":14,"country_code":"AU","latitude":"-38.19001000","longitude":"144.46825000"},{"id":"6024","name":"Lilydale","state_id":3903,"state_code":"VIC","country_id":14,"country_code":"AU","latitude":"-37.75000000","longitude":"145.35000000"},{"id":"6039","name":"Little River","state_id":3903,"state_code":"VIC","country_id":14,"country_code":"AU","latitude":"-37.96667000","longitude":"144.50000000"},{"id":"6051","name":"Loddon","state_id":3903,"state_code":"VIC","country_id":14,"country_code":"AU","latitude":"-36.40406000","longitude":"143.82964000"},{"id":"6062","name":"Long Gully","state_id":3903,"state_code":"VIC","country_id":14,"country_code":"AU","latitude":"-36.74305000","longitude":"144.25788000"},{"id":"6065","name":"Longford","state_id":3903,"state_code":"VIC","country_id":14,"country_code":"AU","latitude":"-38.16237000","longitude":"147.08591000"},{"id":"6068","name":"Longwarry","state_id":3903,"state_code":"VIC","country_id":14,"country_code":"AU","latitude":"-38.11279000","longitude":"145.76849000"},{"id":"6070","name":"Lorne","state_id":3903,"state_code":"VIC","country_id":14,"country_code":"AU","latitude":"-38.54043000","longitude":"143.97636000"},{"id":"6072","name":"Lovely Banks","state_id":3903,"state_code":"VIC","country_id":14,"country_code":"AU","latitude":"-38.06667000","longitude":"144.33333000"},{"id":"6078","name":"Lower Plenty","state_id":3903,"state_code":"VIC","country_id":14,"country_code":"AU","latitude":"-37.73333000","longitude":"145.11667000"},{"id":"6082","name":"Lucknow","state_id":3903,"state_code":"VIC","country_id":14,"country_code":"AU","latitude":"-37.81667000","longitude":"147.65000000"},{"id":"6089","name":"Lynbrook","state_id":3903,"state_code":"VIC","country_id":14,"country_code":"AU","latitude":"-38.05588000","longitude":"145.25615000"},{"id":"6095","name":"Lysterfield","state_id":3903,"state_code":"VIC","country_id":14,"country_code":"AU","latitude":"-37.93333000","longitude":"145.30000000"},{"id":"6099","name":"Macedon","state_id":3903,"state_code":"VIC","country_id":14,"country_code":"AU","latitude":"-37.41963000","longitude":"144.56242000"},{"id":"6100","name":"Macedon Ranges","state_id":3903,"state_code":"VIC","country_id":14,"country_code":"AU","latitude":"-37.33343000","longitude":"144.61581000"},{"id":"6110","name":"Macleod","state_id":3903,"state_code":"VIC","country_id":14,"country_code":"AU","latitude":"-37.73333000","longitude":"145.06667000"},{"id":"6117","name":"Maddingley","state_id":3903,"state_code":"VIC","country_id":14,"country_code":"AU","latitude":"-37.68518000","longitude":"144.43245000"},{"id":"6121","name":"Maffra","state_id":3903,"state_code":"VIC","country_id":14,"country_code":"AU","latitude":"-37.97132000","longitude":"146.98366000"},{"id":"6125","name":"Maiden Gully","state_id":3903,"state_code":"VIC","country_id":14,"country_code":"AU","latitude":"-36.75389000","longitude":"144.20789000"},{"id":"6126","name":"Maidstone","state_id":3903,"state_code":"VIC","country_id":14,"country_code":"AU","latitude":"-37.78035000","longitude":"144.87353000"},{"id":"6135","name":"Maldon","state_id":3903,"state_code":"VIC","country_id":14,"country_code":"AU","latitude":"-36.99570000","longitude":"144.06834000"},{"id":"6137","name":"Mallacoota","state_id":3903,"state_code":"VIC","country_id":14,"country_code":"AU","latitude":"-37.55896000","longitude":"149.75407000"},{"id":"6140","name":"Malvern","state_id":3903,"state_code":"VIC","country_id":14,"country_code":"AU","latitude":"-37.86259000","longitude":"145.02811000"},{"id":"6142","name":"Malvern East","state_id":3903,"state_code":"VIC","country_id":14,"country_code":"AU","latitude":"-37.87397000","longitude":"145.04253000"},{"id":"6147","name":"Manifold Heights","state_id":3903,"state_code":"VIC","country_id":14,"country_code":"AU","latitude":"-38.13762000","longitude":"144.33369000"},{"id":"6156","name":"Manningham","state_id":3903,"state_code":"VIC","country_id":14,"country_code":"AU","latitude":"-37.75710000","longitude":"145.18053000"},{"id":"6161","name":"Mansfield","state_id":3903,"state_code":"VIC","country_id":14,"country_code":"AU","latitude":"-37.24130000","longitude":"146.14803000"},{"id":"6180","name":"Maribyrnong","state_id":3903,"state_code":"VIC","country_id":14,"country_code":"AU","latitude":"-37.79141000","longitude":"144.87786000"},{"id":"6186","name":"Marong","state_id":3903,"state_code":"VIC","country_id":14,"country_code":"AU","latitude":"-36.73333000","longitude":"144.13333000"},{"id":"6189","name":"Maroondah","state_id":3903,"state_code":"VIC","country_id":14,"country_code":"AU","latitude":"-37.80288000","longitude":"145.26603000"},{"id":"6197","name":"Maryborough","state_id":3903,"state_code":"VIC","country_id":14,"country_code":"AU","latitude":"-37.04562000","longitude":"143.73923000"},{"id":"6214","name":"McCrae","state_id":3903,"state_code":"VIC","country_id":14,"country_code":"AU","latitude":"-38.34972000","longitude":"144.92806000"},{"id":"6220","name":"McKinnon","state_id":3903,"state_code":"VIC","country_id":14,"country_code":"AU","latitude":"-37.91667000","longitude":"145.05000000"},{"id":"6224","name":"Meadow Heights","state_id":3903,"state_code":"VIC","country_id":14,"country_code":"AU","latitude":"-37.65117000","longitude":"144.91855000"},{"id":"6235","name":"Melbourne","state_id":3903,"state_code":"VIC","country_id":14,"country_code":"AU","latitude":"-37.81400000","longitude":"144.96332000"},{"id":"6236","name":"Melbourne City Centre","state_id":3903,"state_code":"VIC","country_id":14,"country_code":"AU","latitude":"-37.81501000","longitude":"144.96657000"},{"id":"6239","name":"Melton","state_id":3903,"state_code":"VIC","country_id":14,"country_code":"AU","latitude":"-37.68144000","longitude":"144.62292000"},{"id":"6240","name":"Melton South","state_id":3903,"state_code":"VIC","country_id":14,"country_code":"AU","latitude":"-37.70773000","longitude":"144.57493000"},{"id":"6241","name":"Melton West","state_id":3903,"state_code":"VIC","country_id":14,"country_code":"AU","latitude":"-37.67852000","longitude":"144.56883000"},{"id":"6247","name":"Mentone","state_id":3903,"state_code":"VIC","country_id":14,"country_code":"AU","latitude":"-37.98333000","longitude":"145.06667000"},{"id":"6250","name":"Merbein","state_id":3903,"state_code":"VIC","country_id":14,"country_code":"AU","latitude":"-34.16802000","longitude":"142.06599000"},{"id":"6258","name":"Mernda","state_id":3903,"state_code":"VIC","country_id":14,"country_code":"AU","latitude":"-37.60075000","longitude":"145.09555000"},{"id":"6266","name":"Metung","state_id":3903,"state_code":"VIC","country_id":14,"country_code":"AU","latitude":"-37.89154000","longitude":"147.85300000"},{"id":"6269","name":"Mickleham","state_id":3903,"state_code":"VIC","country_id":14,"country_code":"AU","latitude":"-37.53664000","longitude":"144.90204000"},{"id":"6273","name":"Middle Park","state_id":3903,"state_code":"VIC","country_id":14,"country_code":"AU","latitude":"-37.85116000","longitude":"144.96201000"},{"id":"6283","name":"Mildura","state_id":3903,"state_code":"VIC","country_id":14,"country_code":"AU","latitude":"-34.18551000","longitude":"142.16251000"},{"id":"6284","name":"Mildura Shire","state_id":3903,"state_code":"VIC","country_id":14,"country_code":"AU","latitude":"-34.86450000","longitude":"141.85232000"},{"id":"6288","name":"Mill Park","state_id":3903,"state_code":"VIC","country_id":14,"country_code":"AU","latitude":"-37.66667000","longitude":"145.06667000"},{"id":"6294","name":"Millgrove","state_id":3903,"state_code":"VIC","country_id":14,"country_code":"AU","latitude":"-37.75527000","longitude":"145.65347000"},{"id":"6308","name":"Miners Rest","state_id":3903,"state_code":"VIC","country_id":14,"country_code":"AU","latitude":"-37.48080000","longitude":"143.80107000"},{"id":"6316","name":"Mirboo North","state_id":3903,"state_code":"VIC","country_id":14,"country_code":"AU","latitude":"-38.40101000","longitude":"146.16135000"},{"id":"6320","name":"Mitcham","state_id":3903,"state_code":"VIC","country_id":14,"country_code":"AU","latitude":"-37.81667000","longitude":"145.20000000"},{"id":"6322","name":"Mitchell","state_id":3903,"state_code":"VIC","country_id":14,"country_code":"AU","latitude":"-37.17535000","longitude":"144.97999000"},{"id":"6333","name":"Moe","state_id":3903,"state_code":"VIC","country_id":14,"country_code":"AU","latitude":"-38.17828000","longitude":"146.26099000"},{"id":"6337","name":"Moira","state_id":3903,"state_code":"VIC","country_id":14,"country_code":"AU","latitude":"-36.05060000","longitude":"145.53815000"},{"id":"6344","name":"Monash","state_id":3903,"state_code":"VIC","country_id":14,"country_code":"AU","latitude":"-37.89675000","longitude":"145.14714000"},{"id":"6346","name":"Monbulk","state_id":3903,"state_code":"VIC","country_id":14,"country_code":"AU","latitude":"-37.87427000","longitude":"145.42592000"},{"id":"6348","name":"Mont Albert","state_id":3903,"state_code":"VIC","country_id":14,"country_code":"AU","latitude":"-37.81788000","longitude":"145.10799000"},{"id":"6349","name":"Mont Albert North","state_id":3903,"state_code":"VIC","country_id":14,"country_code":"AU","latitude":"-37.80043000","longitude":"145.10828000"},{"id":"6352","name":"Montmorency","state_id":3903,"state_code":"VIC","country_id":14,"country_code":"AU","latitude":"-37.71667000","longitude":"145.11667000"},{"id":"6354","name":"Montrose","state_id":3903,"state_code":"VIC","country_id":14,"country_code":"AU","latitude":"-37.81667000","longitude":"145.35000000"},{"id":"6357","name":"Moolap","state_id":3903,"state_code":"VIC","country_id":14,"country_code":"AU","latitude":"-38.18333000","longitude":"144.43333000"},{"id":"6362","name":"Moonee Ponds","state_id":3903,"state_code":"VIC","country_id":14,"country_code":"AU","latitude":"-37.76667000","longitude":"144.91667000"},{"id":"6363","name":"Moonee Valley","state_id":3903,"state_code":"VIC","country_id":14,"country_code":"AU","latitude":"-37.74941000","longitude":"144.89325000"},{"id":"6366","name":"Moorabbin","state_id":3903,"state_code":"VIC","country_id":14,"country_code":"AU","latitude":"-37.94146000","longitude":"145.05779000"},{"id":"6367","name":"Moorabool","state_id":3903,"state_code":"VIC","country_id":14,"country_code":"AU","latitude":"-37.63338000","longitude":"144.21946000"},{"id":"6372","name":"Moorooduc","state_id":3903,"state_code":"VIC","country_id":14,"country_code":"AU","latitude":"-38.21667000","longitude":"145.11667000"},{"id":"6374","name":"Mooroolbark","state_id":3903,"state_code":"VIC","country_id":14,"country_code":"AU","latitude":"-37.78247000","longitude":"145.31682000"},{"id":"6375","name":"Mooroopna","state_id":3903,"state_code":"VIC","country_id":14,"country_code":"AU","latitude":"-36.40000000","longitude":"145.35000000"},{"id":"6379","name":"Mordialloc","state_id":3903,"state_code":"VIC","country_id":14,"country_code":"AU","latitude":"-38.00000000","longitude":"145.08333000"},{"id":"6382","name":"Moreland","state_id":3903,"state_code":"VIC","country_id":14,"country_code":"AU","latitude":"-37.73557000","longitude":"144.93745000"},{"id":"6387","name":"Mornington","state_id":3903,"state_code":"VIC","country_id":14,"country_code":"AU","latitude":"-38.21792000","longitude":"145.03876000"},{"id":"6390","name":"Mornington Peninsula","state_id":3903,"state_code":"VIC","country_id":14,"country_code":"AU","latitude":"-38.34004000","longitude":"145.05455000"},{"id":"6395","name":"Mortlake","state_id":3903,"state_code":"VIC","country_id":14,"country_code":"AU","latitude":"-38.08102000","longitude":"142.80827000"},{"id":"6398","name":"Morwell","state_id":3903,"state_code":"VIC","country_id":14,"country_code":"AU","latitude":"-38.23476000","longitude":"146.39499000"},{"id":"6404","name":"Mount Alexander","state_id":3903,"state_code":"VIC","country_id":14,"country_code":"AU","latitude":"-37.07607000","longitude":"144.18825000"},{"id":"6409","name":"Mount Buller","state_id":3903,"state_code":"VIC","country_id":14,"country_code":"AU","latitude":"-37.14595000","longitude":"146.43694000"},{"id":"6411","name":"Mount Clear","state_id":3903,"state_code":"VIC","country_id":14,"country_code":"AU","latitude":"-37.60000000","longitude":"143.88333000"},{"id":"6417","name":"Mount Dandenong","state_id":3903,"state_code":"VIC","country_id":14,"country_code":"AU","latitude":"-37.83333000","longitude":"145.36667000"},{"id":"6419","name":"Mount Duneed","state_id":3903,"state_code":"VIC","country_id":14,"country_code":"AU","latitude":"-38.24089000","longitude":"144.33748000"},{"id":"6420","name":"Mount Eliza","state_id":3903,"state_code":"VIC","country_id":14,"country_code":"AU","latitude":"-38.18333000","longitude":"145.08333000"},{"id":"6421","name":"Mount Evelyn","state_id":3903,"state_code":"VIC","country_id":14,"country_code":"AU","latitude":"-37.78333000","longitude":"145.38333000"},{"id":"6426","name":"Mount Helen","state_id":3903,"state_code":"VIC","country_id":14,"country_code":"AU","latitude":"-37.62463000","longitude":"143.87890000"},{"id":"6438","name":"Mount Macedon","state_id":3903,"state_code":"VIC","country_id":14,"country_code":"AU","latitude":"-37.40048000","longitude":"144.58412000"},{"id":"6441","name":"Mount Martha","state_id":3903,"state_code":"VIC","country_id":14,"country_code":"AU","latitude":"-38.26667000","longitude":"145.01667000"},{"id":"6449","name":"Mount Pleasant","state_id":3903,"state_code":"VIC","country_id":14,"country_code":"AU","latitude":"-37.58333000","longitude":"143.86667000"},{"id":"6464","name":"Mount Waverley","state_id":3903,"state_code":"VIC","country_id":14,"country_code":"AU","latitude":"-37.87709000","longitude":"145.12939000"},{"id":"6468","name":"Moyne","state_id":3903,"state_code":"VIC","country_id":14,"country_code":"AU","latitude":"-38.18785000","longitude":"142.46217000"},{"id":"6476","name":"Mulgrave","state_id":3903,"state_code":"VIC","country_id":14,"country_code":"AU","latitude":"-37.92845000","longitude":"145.17708000"},{"id":"6496","name":"Murrindindi","state_id":3903,"state_code":"VIC","country_id":14,"country_code":"AU","latitude":"-37.28104000","longitude":"145.67437000"},{"id":"6499","name":"Murrumbeena","state_id":3903,"state_code":"VIC","country_id":14,"country_code":"AU","latitude":"-37.90000000","longitude":"145.06667000"},{"id":"6507","name":"Myrtleford","state_id":3903,"state_code":"VIC","country_id":14,"country_code":"AU","latitude":"-36.56104000","longitude":"146.72371000"},{"id":"6509","name":"Nagambie","state_id":3903,"state_code":"VIC","country_id":14,"country_code":"AU","latitude":"-36.78515000","longitude":"145.15375000"},{"id":"6537","name":"Narre Warren","state_id":3903,"state_code":"VIC","country_id":14,"country_code":"AU","latitude":"-38.03333000","longitude":"145.30000000"},{"id":"6538","name":"Narre Warren North","state_id":3903,"state_code":"VIC","country_id":14,"country_code":"AU","latitude":"-37.98333000","longitude":"145.31667000"},{"id":"6539","name":"Narre Warren South","state_id":3903,"state_code":"VIC","country_id":14,"country_code":"AU","latitude":"-38.04369000","longitude":"145.29230000"},{"id":"6543","name":"Nathalia","state_id":3903,"state_code":"VIC","country_id":14,"country_code":"AU","latitude":"-36.05772000","longitude":"145.20406000"},{"id":"6547","name":"Neerim South","state_id":3903,"state_code":"VIC","country_id":14,"country_code":"AU","latitude":"-38.01683000","longitude":"145.95447000"},{"id":"6557","name":"New Gisborne","state_id":3903,"state_code":"VIC","country_id":14,"country_code":"AU","latitude":"-37.46065000","longitude":"144.59930000"},{"id":"6562","name":"Newborough","state_id":3903,"state_code":"VIC","country_id":14,"country_code":"AU","latitude":"-38.17171000","longitude":"146.29264000"},{"id":"6566","name":"Newcomb","state_id":3903,"state_code":"VIC","country_id":14,"country_code":"AU","latitude":"-38.16623000","longitude":"144.39429000"},{"id":"6567","name":"Newington","state_id":3903,"state_code":"VIC","country_id":14,"country_code":"AU","latitude":"-37.55846000","longitude":"143.82485000"},{"id":"6573","name":"Newport","state_id":3903,"state_code":"VIC","country_id":14,"country_code":"AU","latitude":"-37.84427000","longitude":"144.88483000"},{"id":"6580","name":"Newtown","state_id":3903,"state_code":"VIC","country_id":14,"country_code":"AU","latitude":"-38.15391000","longitude":"144.33507000"},{"id":"6584","name":"Nhill","state_id":3903,"state_code":"VIC","country_id":14,"country_code":"AU","latitude":"-36.33333000","longitude":"141.65006000"},{"id":"6588","name":"Nichols Point","state_id":3903,"state_code":"VIC","country_id":14,"country_code":"AU","latitude":"-34.21210000","longitude":"142.21443000"},{"id":"6589","name":"Nicholson","state_id":3903,"state_code":"VIC","country_id":14,"country_code":"AU","latitude":"-37.81667000","longitude":"147.73333000"},{"id":"6591","name":"Niddrie","state_id":3903,"state_code":"VIC","country_id":14,"country_code":"AU","latitude":"-37.73750000","longitude":"144.89212000"},{"id":"6593","name":"Nillumbik","state_id":3903,"state_code":"VIC","country_id":14,"country_code":"AU","latitude":"-37.61474000","longitude":"145.21706000"},{"id":"6598","name":"Noble Park","state_id":3903,"state_code":"VIC","country_id":14,"country_code":"AU","latitude":"-37.96667000","longitude":"145.16667000"},{"id":"6599","name":"Noble Park North","state_id":3903,"state_code":"VIC","country_id":14,"country_code":"AU","latitude":"-37.94978000","longitude":"145.19257000"},{"id":"6606","name":"Norlane","state_id":3903,"state_code":"VIC","country_id":14,"country_code":"AU","latitude":"-38.10139000","longitude":"144.35417000"},{"id":"6617","name":"North Bendigo","state_id":3903,"state_code":"VIC","country_id":14,"country_code":"AU","latitude":"-36.74363000","longitude":"144.28791000"},{"id":"6621","name":"North Brighton","state_id":3903,"state_code":"VIC","country_id":14,"country_code":"AU","latitude":"-37.90694000","longitude":"145.00528000"},{"id":"6628","name":"North Geelong","state_id":3903,"state_code":"VIC","country_id":14,"country_code":"AU","latitude":"-38.10953000","longitude":"144.35134000"},{"id":"6640","name":"North Melbourne","state_id":3903,"state_code":"VIC","country_id":14,"country_code":"AU","latitude":"-37.79798000","longitude":"144.94512000"},{"id":"6657","name":"North Warrandyte","state_id":3903,"state_code":"VIC","country_id":14,"country_code":"AU","latitude":"-37.72924000","longitude":"145.21574000"},{"id":"6660","name":"North Wonthaggi","state_id":3903,"state_code":"VIC","country_id":14,"country_code":"AU","latitude":"-38.57769000","longitude":"145.59302000"},{"id":"6665","name":"Northcote","state_id":3903,"state_code":"VIC","country_id":14,"country_code":"AU","latitude":"-37.76667000","longitude":"145.00000000"},{"id":"6667","name":"Northern Grampians","state_id":3903,"state_code":"VIC","country_id":14,"country_code":"AU","latitude":"-36.84962000","longitude":"142.87303000"},{"id":"6677","name":"Notting Hill","state_id":3903,"state_code":"VIC","country_id":14,"country_code":"AU","latitude":"-37.90500000","longitude":"145.14270000"},{"id":"6684","name":"Numurkah","state_id":3903,"state_code":"VIC","country_id":14,"country_code":"AU","latitude":"-36.08846000","longitude":"145.44215000"},{"id":"6685","name":"Nunawading","state_id":3903,"state_code":"VIC","country_id":14,"country_code":"AU","latitude":"-37.82043000","longitude":"145.17308000"},{"id":"6690","name":"Nyora","state_id":3903,"state_code":"VIC","country_id":14,"country_code":"AU","latitude":"-38.33364000","longitude":"145.67248000"},{"id":"6694","name":"Oak Park","state_id":3903,"state_code":"VIC","country_id":14,"country_code":"AU","latitude":"-37.71842000","longitude":"144.91945000"},{"id":"6703","name":"Oakleigh","state_id":3903,"state_code":"VIC","country_id":14,"country_code":"AU","latitude":"-37.89809000","longitude":"145.08837000"},{"id":"6704","name":"Oakleigh East","state_id":3903,"state_code":"VIC","country_id":14,"country_code":"AU","latitude":"-37.90000000","longitude":"145.11667000"},{"id":"6705","name":"Oakleigh South","state_id":3903,"state_code":"VIC","country_id":14,"country_code":"AU","latitude":"-37.92416000","longitude":"145.09146000"},{"id":"6710","name":"Ocean Grove","state_id":3903,"state_code":"VIC","country_id":14,"country_code":"AU","latitude":"-38.25772000","longitude":"144.51919000"},{"id":"6713","name":"Officer","state_id":3903,"state_code":"VIC","country_id":14,"country_code":"AU","latitude":"-38.05916000","longitude":"145.40947000"},{"id":"6721","name":"Olinda","state_id":3903,"state_code":"VIC","country_id":14,"country_code":"AU","latitude":"-37.85000000","longitude":"145.36667000"},{"id":"6734","name":"Orbost","state_id":3903,"state_code":"VIC","country_id":14,"country_code":"AU","latitude":"-37.69644000","longitude":"148.45700000"},{"id":"6740","name":"Ormond","state_id":3903,"state_code":"VIC","country_id":14,"country_code":"AU","latitude":"-37.90000000","longitude":"145.03333000"},{"id":"6746","name":"Ouyen","state_id":3903,"state_code":"VIC","country_id":14,"country_code":"AU","latitude":"-35.07087000","longitude":"142.32034000"},{"id":"6763","name":"Pakenham","state_id":3903,"state_code":"VIC","country_id":14,"country_code":"AU","latitude":"-38.07018000","longitude":"145.47411000"},{"id":"6764","name":"Pakenham Upper","state_id":3903,"state_code":"VIC","country_id":14,"country_code":"AU","latitude":"-38.01667000","longitude":"145.51667000"},{"id":"6775","name":"Panton Hill","state_id":3903,"state_code":"VIC","country_id":14,"country_code":"AU","latitude":"-37.64082000","longitude":"145.23991000"},{"id":"6789","name":"Park Orchards","state_id":3903,"state_code":"VIC","country_id":14,"country_code":"AU","latitude":"-37.77688000","longitude":"145.21463000"},{"id":"6792","name":"Parkdale","state_id":3903,"state_code":"VIC","country_id":14,"country_code":"AU","latitude":"-37.99187000","longitude":"145.08128000"},{"id":"6800","name":"Parkville","state_id":3903,"state_code":"VIC","country_id":14,"country_code":"AU","latitude":"-37.78333000","longitude":"144.95000000"},{"id":"6809","name":"Pascoe Vale","state_id":3903,"state_code":"VIC","country_id":14,"country_code":"AU","latitude":"-37.73333000","longitude":"144.93333000"},{"id":"6810","name":"Pascoe Vale South","state_id":3903,"state_code":"VIC","country_id":14,"country_code":"AU","latitude":"-37.73973000","longitude":"144.94615000"},{"id":"6811","name":"Patterson Lakes","state_id":3903,"state_code":"VIC","country_id":14,"country_code":"AU","latitude":"-38.06934000","longitude":"145.14327000"},{"id":"6814","name":"Paynesville","state_id":3903,"state_code":"VIC","country_id":14,"country_code":"AU","latitude":"-37.91886000","longitude":"147.71944000"},{"id":"6821","name":"Pearcedale","state_id":3903,"state_code":"VIC","country_id":14,"country_code":"AU","latitude":"-38.20300000","longitude":"145.23488000"},{"id":"6849","name":"Phillip Island","state_id":3903,"state_code":"VIC","country_id":14,"country_code":"AU","latitude":"-38.48349000","longitude":"145.23102000"},{"id":"6867","name":"Plenty","state_id":3903,"state_code":"VIC","country_id":14,"country_code":"AU","latitude":"-37.66667000","longitude":"145.11667000"},{"id":"6868","name":"Plumpton","state_id":3903,"state_code":"VIC","country_id":14,"country_code":"AU","latitude":"-37.68701000","longitude":"144.69082000"},{"id":"6873","name":"Point Cook","state_id":3903,"state_code":"VIC","country_id":14,"country_code":"AU","latitude":"-37.91482000","longitude":"144.75088000"},{"id":"6875","name":"Point Lonsdale","state_id":3903,"state_code":"VIC","country_id":14,"country_code":"AU","latitude":"-38.28173000","longitude":"144.61055000"},{"id":"6890","name":"Port Fairy","state_id":3903,"state_code":"VIC","country_id":14,"country_code":"AU","latitude":"-38.38535000","longitude":"142.23710000"},{"id":"6898","name":"Port Melbourne","state_id":3903,"state_code":"VIC","country_id":14,"country_code":"AU","latitude":"-37.83961000","longitude":"144.94228000"},{"id":"6901","name":"Port Phillip","state_id":3903,"state_code":"VIC","country_id":14,"country_code":"AU","latitude":"-37.85159000","longitude":"144.96992000"},{"id":"6909","name":"Portarlington","state_id":3903,"state_code":"VIC","country_id":14,"country_code":"AU","latitude":"-38.11542000","longitude":"144.65559000"},{"id":"6911","name":"Portland","state_id":3903,"state_code":"VIC","country_id":14,"country_code":"AU","latitude":"-38.34620000","longitude":"141.60257000"},{"id":"6915","name":"Prahran","state_id":3903,"state_code":"VIC","country_id":14,"country_code":"AU","latitude":"-37.85114000","longitude":"144.99318000"},{"id":"6917","name":"Preston","state_id":3903,"state_code":"VIC","country_id":14,"country_code":"AU","latitude":"-37.75000000","longitude":"145.01667000"},{"id":"6920","name":"Princes Hill","state_id":3903,"state_code":"VIC","country_id":14,"country_code":"AU","latitude":"-37.78185000","longitude":"144.96656000"},{"id":"6925","name":"Puckapunyal","state_id":3903,"state_code":"VIC","country_id":14,"country_code":"AU","latitude":"-36.99493000","longitude":"145.04005000"},{"id":"6930","name":"Pyrenees","state_id":3903,"state_code":"VIC","country_id":14,"country_code":"AU","latitude":"-37.32756000","longitude":"143.36472000"},{"id":"6934","name":"Quarry Hill","state_id":3903,"state_code":"VIC","country_id":14,"country_code":"AU","latitude":"-36.77646000","longitude":"144.28024000"},{"id":"6940","name":"Queenscliff","state_id":3903,"state_code":"VIC","country_id":14,"country_code":"AU","latitude":"-38.26789000","longitude":"144.66193000"},{"id":"6942","name":"Queenscliffe","state_id":3903,"state_code":"VIC","country_id":14,"country_code":"AU","latitude":"-38.26896000","longitude":"144.66248000"},{"id":"6967","name":"Ravenhall","state_id":3903,"state_code":"VIC","country_id":14,"country_code":"AU","latitude":"-37.76552000","longitude":"144.75105000"},{"id":"6975","name":"Red Cliffs","state_id":3903,"state_code":"VIC","country_id":14,"country_code":"AU","latitude":"-34.30942000","longitude":"142.18971000"},{"id":"6978","name":"Redan","state_id":3903,"state_code":"VIC","country_id":14,"country_code":"AU","latitude":"-37.57649000","longitude":"143.83862000"},{"id":"6997","name":"Research","state_id":3903,"state_code":"VIC","country_id":14,"country_code":"AU","latitude":"-37.70000000","longitude":"145.18333000"},{"id":"6998","name":"Reservoir","state_id":3903,"state_code":"VIC","country_id":14,"country_code":"AU","latitude":"-37.71667000","longitude":"145.00000000"},{"id":"7007","name":"Richmond","state_id":3903,"state_code":"VIC","country_id":14,"country_code":"AU","latitude":"-37.81819000","longitude":"145.00176000"},{"id":"7015","name":"Ringwood","state_id":3903,"state_code":"VIC","country_id":14,"country_code":"AU","latitude":"-37.81667000","longitude":"145.23333000"},{"id":"7016","name":"Ringwood East","state_id":3903,"state_code":"VIC","country_id":14,"country_code":"AU","latitude":"-37.81667000","longitude":"145.25000000"},{"id":"7017","name":"Ringwood North","state_id":3903,"state_code":"VIC","country_id":14,"country_code":"AU","latitude":"-37.80000000","longitude":"145.23333000"},{"id":"7018","name":"Ripponlea","state_id":3903,"state_code":"VIC","country_id":14,"country_code":"AU","latitude":"-37.88333000","longitude":"145.00000000"},{"id":"7036","name":"Robinvale","state_id":3903,"state_code":"VIC","country_id":14,"country_code":"AU","latitude":"-34.58356000","longitude":"142.77228000"},{"id":"7040","name":"Rochester","state_id":3903,"state_code":"VIC","country_id":14,"country_code":"AU","latitude":"-36.36352000","longitude":"144.70077000"},{"id":"7041","name":"Rockbank","state_id":3903,"state_code":"VIC","country_id":14,"country_code":"AU","latitude":"-37.73353000","longitude":"144.67003000"},{"id":"7054","name":"Romsey","state_id":3903,"state_code":"VIC","country_id":14,"country_code":"AU","latitude":"-37.35075000","longitude":"144.74300000"},{"id":"7058","name":"Rosanna","state_id":3903,"state_code":"VIC","country_id":14,"country_code":"AU","latitude":"-37.73895000","longitude":"145.06735000"},{"id":"7062","name":"Rosebud","state_id":3903,"state_code":"VIC","country_id":14,"country_code":"AU","latitude":"-38.35542000","longitude":"144.90680000"},{"id":"7063","name":"Rosebud West","state_id":3903,"state_code":"VIC","country_id":14,"country_code":"AU","latitude":"-38.36444000","longitude":"144.87748000"},{"id":"7064","name":"Rosedale","state_id":3903,"state_code":"VIC","country_id":14,"country_code":"AU","latitude":"-38.15452000","longitude":"146.78860000"},{"id":"7076","name":"Ross Creek","state_id":3903,"state_code":"VIC","country_id":14,"country_code":"AU","latitude":"-37.65000000","longitude":"143.75000000"},{"id":"7083","name":"Rowville","state_id":3903,"state_code":"VIC","country_id":14,"country_code":"AU","latitude":"-37.93333000","longitude":"145.23333000"},{"id":"7084","name":"Roxburgh Park","state_id":3903,"state_code":"VIC","country_id":14,"country_code":"AU","latitude":"-37.62581000","longitude":"144.92555000"},{"id":"7094","name":"Rushworth","state_id":3903,"state_code":"VIC","country_id":14,"country_code":"AU","latitude":"-36.58669000","longitude":"145.01750000"},{"id":"7099","name":"Rutherglen","state_id":3903,"state_code":"VIC","country_id":14,"country_code":"AU","latitude":"-36.05430000","longitude":"146.46212000"},{"id":"7102","name":"Rye","state_id":3903,"state_code":"VIC","country_id":14,"country_code":"AU","latitude":"-38.38528000","longitude":"144.81221000"},{"id":"7107","name":"Safety Beach","state_id":3903,"state_code":"VIC","country_id":14,"country_code":"AU","latitude":"-38.31535000","longitude":"145.00027000"},{"id":"7108","name":"Saint Albans","state_id":3903,"state_code":"VIC","country_id":14,"country_code":"AU","latitude":"-37.73333000","longitude":"144.80000000"},{"id":"7109","name":"Saint Andrews","state_id":3903,"state_code":"VIC","country_id":14,"country_code":"AU","latitude":"-37.60151000","longitude":"145.27235000"},{"id":"7110","name":"Saint Andrews Beach","state_id":3903,"state_code":"VIC","country_id":14,"country_code":"AU","latitude":"-38.41410000","longitude":"144.82436000"},{"id":"7111","name":"Saint Helena","state_id":3903,"state_code":"VIC","country_id":14,"country_code":"AU","latitude":"-37.70000000","longitude":"145.13333000"},{"id":"7113","name":"Saint Kilda","state_id":3903,"state_code":"VIC","country_id":14,"country_code":"AU","latitude":"-37.86760000","longitude":"144.98099000"},{"id":"7114","name":"Saint Leonards","state_id":3903,"state_code":"VIC","country_id":14,"country_code":"AU","latitude":"-38.17051000","longitude":"144.71803000"},{"id":"7118","name":"Sale","state_id":3903,"state_code":"VIC","country_id":14,"country_code":"AU","latitude":"-38.11095000","longitude":"147.06802000"},{"id":"7131","name":"San Remo","state_id":3903,"state_code":"VIC","country_id":14,"country_code":"AU","latitude":"-38.52547000","longitude":"145.37616000"},{"id":"7136","name":"Sandhurst","state_id":3903,"state_code":"VIC","country_id":14,"country_code":"AU","latitude":"-38.08100000","longitude":"145.20767000"},{"id":"7137","name":"Sandringham","state_id":3903,"state_code":"VIC","country_id":14,"country_code":"AU","latitude":"-37.95218000","longitude":"145.01129000"},{"id":"7147","name":"Sassafras","state_id":3903,"state_code":"VIC","country_id":14,"country_code":"AU","latitude":"-37.86667000","longitude":"145.35000000"},{"id":"7155","name":"Scoresby","state_id":3903,"state_code":"VIC","country_id":14,"country_code":"AU","latitude":"-37.90000000","longitude":"145.23333000"},{"id":"7158","name":"Seabrook","state_id":3903,"state_code":"VIC","country_id":14,"country_code":"AU","latitude":"-37.88092000","longitude":"144.75866000"},{"id":"7163","name":"Seaford","state_id":3903,"state_code":"VIC","country_id":14,"country_code":"AU","latitude":"-38.10000000","longitude":"145.13333000"},{"id":"7168","name":"Seaholme","state_id":3903,"state_code":"VIC","country_id":14,"country_code":"AU","latitude":"-37.86400000","longitude":"144.84504000"},{"id":"7171","name":"Sebastopol","state_id":3903,"state_code":"VIC","country_id":14,"country_code":"AU","latitude":"-37.58532000","longitude":"143.83953000"},{"id":"7173","name":"Seddon","state_id":3903,"state_code":"VIC","country_id":14,"country_code":"AU","latitude":"-37.80607000","longitude":"144.89070000"},{"id":"7176","name":"Selby","state_id":3903,"state_code":"VIC","country_id":14,"country_code":"AU","latitude":"-37.91667000","longitude":"145.38333000"},{"id":"7187","name":"Seville","state_id":3903,"state_code":"VIC","country_id":14,"country_code":"AU","latitude":"-37.79802000","longitude":"145.48763000"},{"id":"7189","name":"Seymour","state_id":3903,"state_code":"VIC","country_id":14,"country_code":"AU","latitude":"-37.02655000","longitude":"145.13924000"},{"id":"7203","name":"Shepparton","state_id":3903,"state_code":"VIC","country_id":14,"country_code":"AU","latitude":"-36.38047000","longitude":"145.39867000"},{"id":"7204","name":"Shepparton East","state_id":3903,"state_code":"VIC","country_id":14,"country_code":"AU","latitude":"-36.40156000","longitude":"145.47765000"},{"id":"7213","name":"Silvan","state_id":3903,"state_code":"VIC","country_id":14,"country_code":"AU","latitude":"-37.81667000","longitude":"145.41667000"},{"id":"7224","name":"Skye","state_id":3903,"state_code":"VIC","country_id":14,"country_code":"AU","latitude":"-38.10505000","longitude":"145.21630000"},{"id":"7232","name":"Smythes Creek","state_id":3903,"state_code":"VIC","country_id":14,"country_code":"AU","latitude":"-37.60000000","longitude":"143.78333000"},{"id":"7233","name":"Smythesdale","state_id":3903,"state_code":"VIC","country_id":14,"country_code":"AU","latitude":"-37.64308000","longitude":"143.68617000"},{"id":"7235","name":"Soldiers Hill","state_id":3903,"state_code":"VIC","country_id":14,"country_code":"AU","latitude":"-37.54962000","longitude":"143.85872000"},{"id":"7239","name":"Somers","state_id":3903,"state_code":"VIC","country_id":14,"country_code":"AU","latitude":"-38.38134000","longitude":"145.15898000"},{"id":"7244","name":"Somerville","state_id":3903,"state_code":"VIC","country_id":14,"country_code":"AU","latitude":"-38.21667000","longitude":"145.16667000"},{"id":"7247","name":"Sorrento","state_id":3903,"state_code":"VIC","country_id":14,"country_code":"AU","latitude":"-38.33958000","longitude":"144.74126000"},{"id":"7259","name":"South Gippsland","state_id":3903,"state_code":"VIC","country_id":14,"country_code":"AU","latitude":"-38.69897000","longitude":"146.06702000"},{"id":"7269","name":"South Kingsville","state_id":3903,"state_code":"VIC","country_id":14,"country_code":"AU","latitude":"-37.83018000","longitude":"144.87090000"},{"id":"7276","name":"South Melbourne","state_id":3903,"state_code":"VIC","country_id":14,"country_code":"AU","latitude":"-37.83333000","longitude":"144.96667000"},{"id":"7277","name":"South Morang","state_id":3903,"state_code":"VIC","country_id":14,"country_code":"AU","latitude":"-37.65000000","longitude":"145.10000000"},{"id":"7290","name":"South Yarra","state_id":3903,"state_code":"VIC","country_id":14,"country_code":"AU","latitude":"-37.83834000","longitude":"144.99149000"},{"id":"7292","name":"Southbank","state_id":3903,"state_code":"VIC","country_id":14,"country_code":"AU","latitude":"-37.82280000","longitude":"144.96434000"},{"id":"7294","name":"Southern Grampians","state_id":3903,"state_code":"VIC","country_id":14,"country_code":"AU","latitude":"-37.52989000","longitude":"142.02533000"},{"id":"7305","name":"Spotswood","state_id":3903,"state_code":"VIC","country_id":14,"country_code":"AU","latitude":"-37.82975000","longitude":"144.88516000"},{"id":"7313","name":"Springvale","state_id":3903,"state_code":"VIC","country_id":14,"country_code":"AU","latitude":"-37.94853000","longitude":"145.15274000"},{"id":"7315","name":"Springvale South","state_id":3903,"state_code":"VIC","country_id":14,"country_code":"AU","latitude":"-37.96667000","longitude":"145.15000000"},{"id":"7319","name":"St Albans Park","state_id":3903,"state_code":"VIC","country_id":14,"country_code":"AU","latitude":"-38.18802000","longitude":"144.39207000"},{"id":"7325","name":"St Helena","state_id":3903,"state_code":"VIC","country_id":14,"country_code":"AU","latitude":"-37.68988000","longitude":"145.12315000"},{"id":"7332","name":"St Kilda East","state_id":3903,"state_code":"VIC","country_id":14,"country_code":"AU","latitude":"-37.86594000","longitude":"145.00018000"},{"id":"7333","name":"St Kilda West","state_id":3903,"state_code":"VIC","country_id":14,"country_code":"AU","latitude":"-37.85988000","longitude":"144.97108000"},{"id":"7345","name":"Stawell","state_id":3903,"state_code":"VIC","country_id":14,"country_code":"AU","latitude":"-37.05632000","longitude":"142.78088000"},{"id":"7352","name":"Stonnington","state_id":3903,"state_code":"VIC","country_id":14,"country_code":"AU","latitude":"-37.86130000","longitude":"145.03776000"},{"id":"7354","name":"Stratford","state_id":3903,"state_code":"VIC","country_id":14,"country_code":"AU","latitude":"-37.96340000","longitude":"147.08260000"},{"id":"7357","name":"Strathbogie","state_id":3903,"state_code":"VIC","country_id":14,"country_code":"AU","latitude":"-36.72402000","longitude":"145.32938000"},{"id":"7358","name":"Strathdale","state_id":3903,"state_code":"VIC","country_id":14,"country_code":"AU","latitude":"-36.76572000","longitude":"144.31548000"},{"id":"7361","name":"Strathfieldsaye","state_id":3903,"state_code":"VIC","country_id":14,"country_code":"AU","latitude":"-36.80667000","longitude":"144.35487000"},{"id":"7362","name":"Strathmerton","state_id":3903,"state_code":"VIC","country_id":14,"country_code":"AU","latitude":"-35.92533000","longitude":"145.47865000"},{"id":"7363","name":"Strathmore","state_id":3903,"state_code":"VIC","country_id":14,"country_code":"AU","latitude":"-37.73563000","longitude":"144.92065000"},{"id":"7378","name":"Sunbury","state_id":3903,"state_code":"VIC","country_id":14,"country_code":"AU","latitude":"-37.57742000","longitude":"144.72607000"},{"id":"7384","name":"Sunshine","state_id":3903,"state_code":"VIC","country_id":14,"country_code":"AU","latitude":"-37.78333000","longitude":"144.83333000"},{"id":"7388","name":"Sunshine North","state_id":3903,"state_code":"VIC","country_id":14,"country_code":"AU","latitude":"-37.76987000","longitude":"144.82787000"},{"id":"7389","name":"Sunshine West","state_id":3903,"state_code":"VIC","country_id":14,"country_code":"AU","latitude":"-37.79117000","longitude":"144.81637000"},{"id":"7390","name":"Surf Coast","state_id":3903,"state_code":"VIC","country_id":14,"country_code":"AU","latitude":"-38.33997000","longitude":"144.11530000"},{"id":"7394","name":"Surrey Hills","state_id":3903,"state_code":"VIC","country_id":14,"country_code":"AU","latitude":"-37.81667000","longitude":"145.10000000"},{"id":"7402","name":"Swan Hill","state_id":3903,"state_code":"VIC","country_id":14,"country_code":"AU","latitude":"-35.10061000","longitude":"143.16810000"},{"id":"7406","name":"Sydenham","state_id":3903,"state_code":"VIC","country_id":14,"country_code":"AU","latitude":"-37.70000000","longitude":"144.76667000"},{"id":"7418","name":"Tallangatta","state_id":3903,"state_code":"VIC","country_id":14,"country_code":"AU","latitude":"-36.21791000","longitude":"147.17699000"},{"id":"7440","name":"Tarneit","state_id":3903,"state_code":"VIC","country_id":14,"country_code":"AU","latitude":"-37.83634000","longitude":"144.65952000"},{"id":"7450","name":"Tatura","state_id":3903,"state_code":"VIC","country_id":14,"country_code":"AU","latitude":"-36.43962000","longitude":"145.22994000"},{"id":"7451","name":"Taylors Hill","state_id":3903,"state_code":"VIC","country_id":14,"country_code":"AU","latitude":"-37.70988000","longitude":"144.75483000"},{"id":"7452","name":"Taylors Lakes","state_id":3903,"state_code":"VIC","country_id":14,"country_code":"AU","latitude":"-37.69863000","longitude":"144.78631000"},