[{"id":"66993","name":"Ajdabiya","state_id":2964,"state_code":"WA","country_id":124,"country_code":"LY","latitude":"30.75545000","longitude":"20.22625000"},{"id":"66997","name":"Al Burayqah","state_id":2964,"state_code":"WA","country_id":124,"country_code":"LY","latitude":"30.40624000","longitude":"19.57386000"},{"id":"67006","name":"Awjilah","state_id":2964,"state_code":"WA","country_id":124,"country_code":"LY","latitude":"29.10806000","longitude":"21.28694000"},{"id":"67007","name":"Az Zuwaytinah","state_id":2964,"state_code":"WA","country_id":124,"country_code":"LY","latitude":"30.95220000","longitude":"20.12022000"},{"id":"67017","name":"Gialo","state_id":2964,"state_code":"WA","country_id":124,"country_code":"LY","latitude":"29.03333000","longitude":"21.55000000"},{"id":"67020","name":"Maradah","state_id":2964,"state_code":"WA","country_id":124,"country_code":"LY","latitude":"29.22054000","longitude":"19.20454000"}]