[{"id":"31917","name":"Abrera","state_id":1203,"state_code":"CT","country_id":207,"country_code":"ES","latitude":"41.51682000","longitude":"1.90100000"},{"id":"31948","name":"Agramunt","state_id":1203,"state_code":"CT","country_id":207,"country_code":"ES","latitude":"41.78686000","longitude":"1.09683000"},{"id":"31963","name":"Aguilar de Segarra","state_id":1203,"state_code":"CT","country_id":207,"country_code":"ES","latitude":"41.74822000","longitude":"1.62919000"},{"id":"31967","name":"Agullana","state_id":1203,"state_code":"CT","country_id":207,"country_code":"ES","latitude":"42.39408000","longitude":"2.84666000"},{"id":"31980","name":"Aiguafreda","state_id":1203,"state_code":"CT","country_id":207,"country_code":"ES","latitude":"41.76807000","longitude":"2.25051000"},{"id":"31981","name":"Aiguaviva","state_id":1203,"state_code":"CT","country_id":207,"country_code":"ES","latitude":"41.93840000","longitude":"2.76217000"},{"id":"31983","name":"Aitona","state_id":1203,"state_code":"CT","country_id":207,"country_code":"ES","latitude":"41.48333000","longitude":"0.46667000"},{"id":"32345","name":"Al\u00e0s i Cerc","state_id":1203,"state_code":"CT","country_id":207,"country_code":"ES","latitude":"42.35000000","longitude":"1.51667000"},{"id":"32043","name":"Albesa","state_id":1203,"state_code":"CT","country_id":207,"country_code":"ES","latitude":"41.75282000","longitude":"0.65936000"},{"id":"32050","name":"Albons","state_id":1203,"state_code":"CT","country_id":207,"country_code":"ES","latitude":"42.10389000","longitude":"3.08433000"},{"id":"32083","name":"Alcanar","state_id":1203,"state_code":"CT","country_id":207,"country_code":"ES","latitude":"40.54316000","longitude":"0.48082000"},{"id":"32086","name":"Alcan\u00f3","state_id":1203,"state_code":"CT","country_id":207,"country_code":"ES","latitude":"41.48064000","longitude":"0.61659000"},{"id":"32089","name":"Alcarr\u00e0s","state_id":1203,"state_code":"CT","country_id":207,"country_code":"ES","latitude":"41.56667000","longitude":"0.51667000"},{"id":"32110","name":"Alcoletge","state_id":1203,"state_code":"CT","country_id":207,"country_code":"ES","latitude":"41.64762000","longitude":"0.69383000"},{"id":"32122","name":"Alcover","state_id":1203,"state_code":"CT","country_id":207,"country_code":"ES","latitude":"41.26267000","longitude":"1.17010000"},{"id":"32183","name":"Alella","state_id":1203,"state_code":"CT","country_id":207,"country_code":"ES","latitude":"41.49379000","longitude":"2.29451000"},{"id":"32201","name":"Alfarr\u00e0s","state_id":1203,"state_code":"CT","country_id":207,"country_code":"ES","latitude":"41.81667000","longitude":"0.58333000"},{"id":"32207","name":"Alf\u00e9s","state_id":1203,"state_code":"CT","country_id":207,"country_code":"ES","latitude":"41.52143000","longitude":"0.62050000"},{"id":"32204","name":"Alforja","state_id":1203,"state_code":"CT","country_id":207,"country_code":"ES","latitude":"41.21108000","longitude":"0.97542000"},{"id":"32218","name":"Algerri","state_id":1203,"state_code":"CT","country_id":207,"country_code":"ES","latitude":"41.81482000","longitude":"0.63633000"},{"id":"32228","name":"Alguaire","state_id":1203,"state_code":"CT","country_id":207,"country_code":"ES","latitude":"41.73703000","longitude":"0.58450000"},{"id":"32250","name":"Ali\u00f3","state_id":1203,"state_code":"CT","country_id":207,"country_code":"ES","latitude":"41.29422000","longitude":"1.30585000"},{"id":"32259","name":"Almacelles","state_id":1203,"state_code":"CT","country_id":207,"country_code":"ES","latitude":"41.73216000","longitude":"0.43722000"},{"id":"32280","name":"Almenar","state_id":1203,"state_code":"CT","country_id":207,"country_code":"ES","latitude":"41.79604000","longitude":"0.56834000"},{"id":"32308","name":"Almoster","state_id":1203,"state_code":"CT","country_id":207,"country_code":"ES","latitude":"41.19758000","longitude":"1.11167000"},{"id":"32328","name":"Alpens","state_id":1203,"state_code":"CT","country_id":207,"country_code":"ES","latitude":"42.11930000","longitude":"2.10135000"},{"id":"32331","name":"Alpicat","state_id":1203,"state_code":"CT","country_id":207,"country_code":"ES","latitude":"41.66570000","longitude":"0.55564000"},{"id":"32338","name":"Altafulla","state_id":1203,"state_code":"CT","country_id":207,"country_code":"ES","latitude":"41.14286000","longitude":"1.37269000"},{"id":"32358","name":"Amposta","state_id":1203,"state_code":"CT","country_id":207,"country_code":"ES","latitude":"40.70995000","longitude":"0.57856000"},{"id":"32379","name":"Angl\u00e8s","state_id":1203,"state_code":"CT","country_id":207,"country_code":"ES","latitude":"41.95617000","longitude":"2.63603000"},{"id":"32378","name":"Anglesola","state_id":1203,"state_code":"CT","country_id":207,"country_code":"ES","latitude":"41.65649000","longitude":"1.08286000"},{"id":"32427","name":"Arb\u00facies","state_id":1203,"state_code":"CT","country_id":207,"country_code":"ES","latitude":"41.81667000","longitude":"2.51667000"},{"id":"32422","name":"Arbeca","state_id":1203,"state_code":"CT","country_id":207,"country_code":"ES","latitude":"41.54153000","longitude":"0.92457000"},{"id":"32451","name":"Arenys de Mar","state_id":1203,"state_code":"CT","country_id":207,"country_code":"ES","latitude":"41.58190000","longitude":"2.54936000"},{"id":"32452","name":"Arenys de Munt","state_id":1203,"state_code":"CT","country_id":207,"country_code":"ES","latitude":"41.61424000","longitude":"2.53972000"},{"id":"32468","name":"Argelaguer","state_id":1203,"state_code":"CT","country_id":207,"country_code":"ES","latitude":"42.21563000","longitude":"2.64193000"},{"id":"32471","name":"Argentona","state_id":1203,"state_code":"CT","country_id":207,"country_code":"ES","latitude":"41.55336000","longitude":"2.40114000"},{"id":"32527","name":"Art\u00e9s","state_id":1203,"state_code":"CT","country_id":207,"country_code":"ES","latitude":"41.79800000","longitude":"1.95428000"},{"id":"32524","name":"Artesa de Segre","state_id":1203,"state_code":"CT","country_id":207,"country_code":"ES","latitude":"41.89467000","longitude":"1.04625000"},{"id":"32534","name":"Asc\u00f3","state_id":1203,"state_code":"CT","country_id":207,"country_code":"ES","latitude":"41.18333000","longitude":"0.56667000"},{"id":"32535","name":"Aspa","state_id":1203,"state_code":"CT","country_id":207,"country_code":"ES","latitude":"41.49472000","longitude":"0.67277000"},{"id":"32568","name":"Aviny\u00f3","state_id":1203,"state_code":"CT","country_id":207,"country_code":"ES","latitude":"41.86367000","longitude":"1.97095000"},{"id":"38581","name":"\u00d2dena","state_id":1203,"state_code":"CT","country_id":207,"country_code":"ES","latitude":"41.60000000","longitude":"1.65000000"},{"id":"38582","name":"\u00d2rrius","state_id":1203,"state_code":"CT","country_id":207,"country_code":"ES","latitude":"41.55000000","longitude":"2.35000000"},{"id":"38578","name":"\u00c9ller","state_id":1203,"state_code":"CT","country_id":207,"country_code":"ES","latitude":"42.41636000","longitude":"1.79223000"},{"id":"38571","name":"\u00c0ger","state_id":1203,"state_code":"CT","country_id":207,"country_code":"ES","latitude":"42.00000000","longitude":"0.76667000"},{"id":"32602","name":"Badalona","state_id":1203,"state_code":"CT","country_id":207,"country_code":"ES","latitude":"41.45004000","longitude":"2.24741000"},{"id":"32609","name":"Bag\u00e0","state_id":1203,"state_code":"CT","country_id":207,"country_code":"ES","latitude":"42.25289000","longitude":"1.86098000"},{"id":"32619","name":"Balaguer","state_id":1203,"state_code":"CT","country_id":207,"country_code":"ES","latitude":"41.79117000","longitude":"0.81094000"},{"id":"32628","name":"Balsareny","state_id":1203,"state_code":"CT","country_id":207,"country_code":"ES","latitude":"41.86311000","longitude":"1.87356000"},{"id":"32634","name":"Banyoles","state_id":1203,"state_code":"CT","country_id":207,"country_code":"ES","latitude":"42.11667000","longitude":"2.76667000"},{"id":"32686","name":"Bar\u00f3 de Viver","state_id":1203,"state_code":"CT","country_id":207,"country_code":"ES","latitude":"41.44584000","longitude":"2.19902000"},{"id":"32647","name":"Barber\u00e0 del Vall\u00e8s","state_id":1203,"state_code":"CT","country_id":207,"country_code":"ES","latitude":"41.51590000","longitude":"2.12457000"},{"id":"32653","name":"Barcelona","state_id":1203,"state_code":"CT","country_id":207,"country_code":"ES","latitude":"41.38879000","longitude":"2.15899000"},{"id":"32675","name":"Barri de les Corts","state_id":1203,"state_code":"CT","country_id":207,"country_code":"ES","latitude":"41.38697000","longitude":"2.13472000"},{"id":"32674","name":"Barri de Sant Andreu","state_id":1203,"state_code":"CT","country_id":207,"country_code":"ES","latitude":"41.43693000","longitude":"2.19022000"},{"id":"32673","name":"Barri G\u00f2tic","state_id":1203,"state_code":"CT","country_id":207,"country_code":"ES","latitude":"41.38364000","longitude":"2.17628000"},{"id":"32693","name":"Batea","state_id":1203,"state_code":"CT","country_id":207,"country_code":"ES","latitude":"41.09434000","longitude":"0.31100000"},{"id":"33047","name":"B\u00e0scara","state_id":1203,"state_code":"CT","country_id":207,"country_code":"ES","latitude":"42.15998000","longitude":"2.91028000"},{"id":"32728","name":"Begues","state_id":1203,"state_code":"CT","country_id":207,"country_code":"ES","latitude":"41.33333000","longitude":"1.93333000"},{"id":"32729","name":"Begur","state_id":1203,"state_code":"CT","country_id":207,"country_code":"ES","latitude":"41.95000000","longitude":"3.21667000"},{"id":"32740","name":"Bellcaire d'Urgell","state_id":1203,"state_code":"CT","country_id":207,"country_code":"ES","latitude":"41.75000000","longitude":"0.91667000"},{"id":"32742","name":"Bellprat","state_id":1203,"state_code":"CT","country_id":207,"country_code":"ES","latitude":"41.51695000","longitude":"1.43333000"},{"id":"32743","name":"Bellpuig","state_id":1203,"state_code":"CT","country_id":207,"country_code":"ES","latitude":"41.62595000","longitude":"1.01144000"},{"id":"32746","name":"Bellv\u00eds","state_id":1203,"state_code":"CT","country_id":207,"country_code":"ES","latitude":"41.67269000","longitude":"0.81768000"},{"id":"32745","name":"Bellver de Cerdanya","state_id":1203,"state_code":"CT","country_id":207,"country_code":"ES","latitude":"42.36667000","longitude":"1.78333000"},{"id":"32803","name":"Benifallet","state_id":1203,"state_code":"CT","country_id":207,"country_code":"ES","latitude":"40.97422000","longitude":"0.51767000"},{"id":"32846","name":"Berga","state_id":1203,"state_code":"CT","country_id":207,"country_code":"ES","latitude":"42.10429000","longitude":"1.84628000"},{"id":"32877","name":"Besal\u00fa","state_id":1203,"state_code":"CT","country_id":207,"country_code":"ES","latitude":"42.19893000","longitude":"2.69953000"},{"id":"32878","name":"Bescan\u00f3","state_id":1203,"state_code":"CT","country_id":207,"country_code":"ES","latitude":"41.96603000","longitude":"2.73922000"},{"id":"32883","name":"Beuda","state_id":1203,"state_code":"CT","country_id":207,"country_code":"ES","latitude":"42.23722000","longitude":"2.70942000"},{"id":"32893","name":"Bigues i Riells","state_id":1203,"state_code":"CT","country_id":207,"country_code":"ES","latitude":"41.68333000","longitude":"2.23333000"},{"id":"32906","name":"Blancafort","state_id":1203,"state_code":"CT","country_id":207,"country_code":"ES","latitude":"41.43740000","longitude":"1.15983000"},{"id":"32909","name":"Blanes","state_id":1203,"state_code":"CT","country_id":207,"country_code":"ES","latitude":"41.67419000","longitude":"2.79036000"},{"id":"32942","name":"Bolvir","state_id":1203,"state_code":"CT","country_id":207,"country_code":"ES","latitude":"42.41775000","longitude":"1.87986000"},{"id":"32945","name":"Bonastre","state_id":1203,"state_code":"CT","country_id":207,"country_code":"ES","latitude":"41.22031000","longitude":"1.43936000"},{"id":"32952","name":"Bordils","state_id":1203,"state_code":"CT","country_id":207,"country_code":"ES","latitude":"42.04336000","longitude":"2.91088000"},{"id":"32960","name":"Borrass\u00e0","state_id":1203,"state_code":"CT","country_id":207,"country_code":"ES","latitude":"42.22316000","longitude":"2.92610000"},{"id":"32963","name":"Bot","state_id":1203,"state_code":"CT","country_id":207,"country_code":"ES","latitude":"41.00916000","longitude":"0.38392000"},{"id":"32964","name":"Botarell","state_id":1203,"state_code":"CT","country_id":207,"country_code":"ES","latitude":"41.13627000","longitude":"0.98919000"},{"id":"32976","name":"Breda","state_id":1203,"state_code":"CT","country_id":207,"country_code":"ES","latitude":"41.74833000","longitude":"2.55964000"},{"id":"33066","name":"Cabanelles","state_id":1203,"state_code":"CT","country_id":207,"country_code":"ES","latitude":"42.23068000","longitude":"2.81997000"},{"id":"33104","name":"Cabrera de Mar","state_id":1203,"state_code":"CT","country_id":207,"country_code":"ES","latitude":"41.51667000","longitude":"2.40000000"},{"id":"33111","name":"Cabrils","state_id":1203,"state_code":"CT","country_id":207,"country_code":"ES","latitude":"41.52760000","longitude":"2.36996000"},{"id":"33116","name":"Cadaqu\u00e9s","state_id":1203,"state_code":"CT","country_id":207,"country_code":"ES","latitude":"42.28856000","longitude":"3.27706000"},{"id":"33124","name":"Calaf","state_id":1203,"state_code":"CT","country_id":207,"country_code":"ES","latitude":"41.73289000","longitude":"1.51375000"},{"id":"33125","name":"Calafell","state_id":1203,"state_code":"CT","country_id":207,"country_code":"ES","latitude":"41.19997000","longitude":"1.56830000"},{"id":"33138","name":"Caldes de Montbui","state_id":1203,"state_code":"CT","country_id":207,"country_code":"ES","latitude":"41.63333000","longitude":"2.16667000"},{"id":"33139","name":"Calella","state_id":1203,"state_code":"CT","country_id":207,"country_code":"ES","latitude":"41.61381000","longitude":"2.65423000"},{"id":"33150","name":"Calonge","state_id":1203,"state_code":"CT","country_id":207,"country_code":"ES","latitude":"41.85869000","longitude":"3.07926000"},{"id":"33163","name":"Camarasa","state_id":1203,"state_code":"CT","country_id":207,"country_code":"ES","latitude":"41.87486000","longitude":"0.87814000"},{"id":"33215","name":"Cam\u00f3s","state_id":1203,"state_code":"CT","country_id":207,"country_code":"ES","latitude":"42.08776000","longitude":"2.76288000"},{"id":"33177","name":"Cambrils","state_id":1203,"state_code":"CT","country_id":207,"country_code":"ES","latitude":"41.06997000","longitude":"1.05949000"},{"id":"33185","name":"Campdev\u00e0nol","state_id":1203,"state_code":"CT","country_id":207,"country_code":"ES","latitude":"42.22445000","longitude":"2.16860000"},{"id":"33198","name":"Campins","state_id":1203,"state_code":"CT","country_id":207,"country_code":"ES","latitude":"41.71667000","longitude":"2.46667000"},{"id":"33213","name":"Camprodon","state_id":1203,"state_code":"CT","country_id":207,"country_code":"ES","latitude":"42.31185000","longitude":"2.36506000"},{"id":"33216","name":"Can Bar\u00f3","state_id":1203,"state_code":"CT","country_id":207,"country_code":"ES","latitude":"41.41677000","longitude":"2.16242000"},{"id":"33218","name":"Can Peguera","state_id":1203,"state_code":"CT","country_id":207,"country_code":"ES","latitude":"41.43487000","longitude":"2.16646000"},{"id":"33234","name":"Canet de Mar","state_id":1203,"state_code":"CT","country_id":207,"country_code":"ES","latitude":"41.59054000","longitude":"2.58116000"},{"id":"33246","name":"Canovelles","state_id":1203,"state_code":"CT","country_id":207,"country_code":"ES","latitude":"41.61667000","longitude":"2.28333000"},{"id":"33252","name":"Cantallops","state_id":1203,"state_code":"CT","country_id":207,"country_code":"ES","latitude":"42.42216000","longitude":"2.92524000"},{"id":"33261","name":"Canyelles","state_id":1203,"state_code":"CT","country_id":207,"country_code":"ES","latitude":"41.44509000","longitude":"2.16346000"},{"id":"33262","name":"Capafonts","state_id":1203,"state_code":"CT","country_id":207,"country_code":"ES","latitude":"41.30000000","longitude":"1.03333000"},{"id":"33267","name":"Capellades","state_id":1203,"state_code":"CT","country_id":207,"country_code":"ES","latitude":"41.53005000","longitude":"1.68651000"},{"id":"33271","name":"Capmany","state_id":1203,"state_code":"CT","country_id":207,"country_code":"ES","latitude":"42.37351000","longitude":"2.92026000"},{"id":"33296","name":"Cardedeu","state_id":1203,"state_code":"CT","country_id":207,"country_code":"ES","latitude":"41.63976000","longitude":"2.35739000"},{"id":"33304","name":"Cardona","state_id":1203,"state_code":"CT","country_id":207,"country_code":"ES","latitude":"41.91371000","longitude":"1.67855000"},{"id":"33395","name":"Cass\u00e0 de la Selva","state_id":1203,"state_code":"CT","country_id":207,"country_code":"ES","latitude":"41.88784000","longitude":"2.87524000"},{"id":"33413","name":"Castell-Platja d'Aro","state_id":1203,"state_code":"CT","country_id":207,"country_code":"ES","latitude":"41.81751000","longitude":"3.06742000"},{"id":"33422","name":"Castellar del Vall\u00e8s","state_id":1203,"state_code":"CT","country_id":207,"country_code":"ES","latitude":"41.61667000","longitude":"2.08333000"},{"id":"33436","name":"Castell\u00f3 d'Emp\u00faries","state_id":1203,"state_code":"CT","country_id":207,"country_code":"ES","latitude":"42.25673000","longitude":"3.07446000"},{"id":"33423","name":"Castellbisbal","state_id":1203,"state_code":"CT","country_id":207,"country_code":"ES","latitude":"41.47534000","longitude":"1.98174000"},{"id":"33424","name":"Castellcir","state_id":1203,"state_code":"CT","country_id":207,"country_code":"ES","latitude":"41.76074000","longitude":"2.16128000"},{"id":"33425","name":"Castelldefels","state_id":1203,"state_code":"CT","country_id":207,"country_code":"ES","latitude":"41.27794000","longitude":"1.97033000"},{"id":"33426","name":"Castellet","state_id":1203,"state_code":"CT","country_id":207,"country_code":"ES","latitude":"41.26281000","longitude":"1.63369000"},{"id":"33427","name":"Castellfollit de Riubreg\u00f3s","state_id":1203,"state_code":"CT","country_id":207,"country_code":"ES","latitude":"41.76667000","longitude":"1.43333000"},{"id":"33429","name":"Castellnou de Seana","state_id":1203,"state_code":"CT","country_id":207,"country_code":"ES","latitude":"41.64802000","longitude":"0.97093000"},{"id":"33431","name":"Castellol\u00ed","state_id":1203,"state_code":"CT","country_id":207,"country_code":"ES","latitude":"41.59829000","longitude":"1.70057000"},{"id":"33434","name":"Castellser\u00e0","state_id":1203,"state_code":"CT","country_id":207,"country_code":"ES","latitude":"41.75000000","longitude":"1.00000000"},{"id":"33435","name":"Castellv\u00ed de Rosanes","state_id":1203,"state_code":"CT","country_id":207,"country_code":"ES","latitude":"41.45000000","longitude":"1.90000000"},{"id":"33890","name":"C\u00e0noves i Samal\u00fas","state_id":1203,"state_code":"CT","country_id":207,"country_code":"ES","latitude":"41.68333000","longitude":"2.35000000"},{"id":"33566","name":"Celr\u00e0","state_id":1203,"state_code":"CT","country_id":207,"country_code":"ES","latitude":"42.03333000","longitude":"2.88333000"},{"id":"33573","name":"Centelles","state_id":1203,"state_code":"CT","country_id":207,"country_code":"ES","latitude":"41.79746000","longitude":"2.21902000"},{"id":"33580","name":"Cerdanyola del Vall\u00e8s","state_id":1203,"state_code":"CT","country_id":207,"country_code":"ES","latitude":"41.49109000","longitude":"2.14079000"},{"id":"33594","name":"Cervell\u00f3","state_id":1203,"state_code":"CT","country_id":207,"country_code":"ES","latitude":"41.39587000","longitude":"1.95917000"},{"id":"33595","name":"Cervera","state_id":1203,"state_code":"CT","country_id":207,"country_code":"ES","latitude":"41.67003000","longitude":"1.27210000"},{"id":"33605","name":"Cervi\u00e0 de Ter","state_id":1203,"state_code":"CT","country_id":207,"country_code":"ES","latitude":"42.06650000","longitude":"2.90743000"},{"id":"33692","name":"Cistella","state_id":1203,"state_code":"CT","country_id":207,"country_code":"ES","latitude":"42.26870000","longitude":"2.84780000"},{"id":"33700","name":"Ciutadilla","state_id":1203,"state_code":"CT","country_id":207,"country_code":"ES","latitude":"41.56113000","longitude":"1.13935000"},{"id":"33701","name":"Ciutat Meridiana","state_id":1203,"state_code":"CT","country_id":207,"country_code":"ES","latitude":"41.46119000","longitude":"2.17494000"},{"id":"33702","name":"Ciutat Vella","state_id":1203,"state_code":"CT","country_id":207,"country_code":"ES","latitude":"41.38022000","longitude":"2.17319000"},{"id":"33726","name":"Colera","state_id":1203,"state_code":"CT","country_id":207,"country_code":"ES","latitude":"42.40394000","longitude":"3.15153000"},{"id":"33730","name":"Coll de Narg\u00f3","state_id":1203,"state_code":"CT","country_id":207,"country_code":"ES","latitude":"42.17473000","longitude":"1.31694000"},{"id":"33738","name":"Collbat\u00f3","state_id":1203,"state_code":"CT","country_id":207,"country_code":"ES","latitude":"41.57009000","longitude":"1.82712000"},{"id":"33739","name":"Colldejou","state_id":1203,"state_code":"CT","country_id":207,"country_code":"ES","latitude":"41.09970000","longitude":"0.88717000"},{"id":"33740","name":"Collsuspina","state_id":1203,"state_code":"CT","country_id":207,"country_code":"ES","latitude":"41.82580000","longitude":"2.17546000"},{"id":"33750","name":"Coma-ruga","state_id":1203,"state_code":"CT","country_id":207,"country_code":"ES","latitude":"41.17995000","longitude":"1.52538000"},{"id":"33756","name":"Conesa","state_id":1203,"state_code":"CT","country_id":207,"country_code":"ES","latitude":"41.51667000","longitude":"1.30000000"},{"id":"33766","name":"Constant\u00ed","state_id":1203,"state_code":"CT","country_id":207,"country_code":"ES","latitude":"41.15392000","longitude":"1.21262000"},{"id":"33775","name":"Corbera de Llobregat","state_id":1203,"state_code":"CT","country_id":207,"country_code":"ES","latitude":"41.41702000","longitude":"1.91970000"},{"id":"33777","name":"Corbins","state_id":1203,"state_code":"CT","country_id":207,"country_code":"ES","latitude":"41.68333000","longitude":"0.70000000"},{"id":"33794","name":"Cornell\u00e0 de Llobregat","state_id":1203,"state_code":"CT","country_id":207,"country_code":"ES","latitude":"41.35000000","longitude":"2.08333000"},{"id":"33795","name":"Cornell\u00e0 del Terri","state_id":1203,"state_code":"CT","country_id":207,"country_code":"ES","latitude":"42.08333000","longitude":"2.81667000"},{"id":"33832","name":"Creixell","state_id":1203,"state_code":"CT","country_id":207,"country_code":"ES","latitude":"41.16618000","longitude":"1.44032000"},{"id":"33833","name":"Crespi\u00e0","state_id":1203,"state_code":"CT","country_id":207,"country_code":"ES","latitude":"42.18333000","longitude":"2.80000000"},{"id":"33840","name":"Cru\u00eflles","state_id":1203,"state_code":"CT","country_id":207,"country_code":"ES","latitude":"41.95000000","longitude":"3.01667000"},{"id":"33847","name":"Cubelles","state_id":1203,"state_code":"CT","country_id":207,"country_code":"ES","latitude":"41.20772000","longitude":"1.67267000"},{"id":"33848","name":"Cubells","state_id":1203,"state_code":"CT","country_id":207,"country_code":"ES","latitude":"41.85062000","longitude":"0.95900000"},{"id":"33884","name":"Cunit","state_id":1203,"state_code":"CT","country_id":207,"country_code":"ES","latitude":"41.19829000","longitude":"1.63645000"},{"id":"33912","name":"Darnius","state_id":1203,"state_code":"CT","country_id":207,"country_code":"ES","latitude":"42.36667000","longitude":"2.83333000"},{"id":"33925","name":"Deltebre","state_id":1203,"state_code":"CT","country_id":207,"country_code":"ES","latitude":"40.71944000","longitude":"0.70835000"},{"id":"33932","name":"Diagonal Mar","state_id":1203,"state_code":"CT","country_id":207,"country_code":"ES","latitude":"41.40897000","longitude":"2.21615000"},{"id":"33952","name":"Dosrius","state_id":1203,"state_code":"CT","country_id":207,"country_code":"ES","latitude":"41.58333000","longitude":"2.41667000"},{"id":"33957","name":"Dreta de l'Eixample","state_id":1203,"state_code":"CT","country_id":207,"country_code":"ES","latitude":"41.39606000","longitude":"2.16688000"},{"id":"33973","name":"Eixample","state_id":1203,"state_code":"CT","country_id":207,"country_code":"ES","latitude":"41.38896000","longitude":"2.16179000"},{"id":"38514","name":"el Baix Guinard\u00f3","state_id":1203,"state_code":"CT","country_id":207,"country_code":"ES","latitude":"41.41175000","longitude":"2.16784000"},{"id":"38515","name":"el Bes\u00f2s i el Maresme","state_id":1203,"state_code":"CT","country_id":207,"country_code":"ES","latitude":"41.41309000","longitude":"2.21736000"},{"id":"38516","name":"el Bon Pastor","state_id":1203,"state_code":"CT","country_id":207,"country_code":"ES","latitude":"41.43700000","longitude":"2.20182000"},{"id":"38517","name":"el Camp d'en Grassot i Gr\u00e0cia Nova","state_id":1203,"state_code":"CT","country_id":207,"country_code":"ES","latitude":"41.40634000","longitude":"2.16503000"},{"id":"38518","name":"el Camp de l'Arpa del Clot","state_id":1203,"state_code":"CT","country_id":207,"country_code":"ES","latitude":"41.41204000","longitude":"2.18247000"},{"id":"33985","name":"El Carmel","state_id":1203,"state_code":"CT","country_id":207,"country_code":"ES","latitude":"41.41758000","longitude":"2.15914000"},{"id":"38519","name":"el Catllar","state_id":1203,"state_code":"CT","country_id":207,"country_code":"ES","latitude":"41.16667000","longitude":"1.31667000"},{"id":"38520","name":"el Clot","state_id":1203,"state_code":"CT","country_id":207,"country_code":"ES","latitude":"41.40986000","longitude":"2.19053000"},{"id":"38521","name":"el Cogul","state_id":1203,"state_code":"CT","country_id":207,"country_code":"ES","latitude":"41.46667000","longitude":"0.68333000"},{"id":"38522","name":"el Coll","state_id":1203,"state_code":"CT","country_id":207,"country_code":"ES","latitude":"41.41721000","longitude":"2.14723000"},{"id":"38523","name":"el Congr\u00e9s i els Indians","state_id":1203,"state_code":"CT","country_id":207,"country_code":"ES","latitude":"41.42460000","longitude":"2.18086000"},{"id":"38524","name":"el Guinard\u00f3","state_id":1203,"state_code":"CT","country_id":207,"country_code":"ES","latitude":"41.41885000","longitude":"2.17364000"},{"id":"34001","name":"El Masnou","state_id":1203,"state_code":"CT","country_id":207,"country_code":"ES","latitude":"41.47978000","longitude":"2.31880000"},{"id":"38525","name":"el Masroig","state_id":1203,"state_code":"CT","country_id":207,"country_code":"ES","latitude":"41.13333000","longitude":"0.73333000"},{"id":"38526","name":"el Parc i la Llacuna del Poblenou","state_id":1203,"state_code":"CT","country_id":207,"country_code":"ES","latitude":"41.39860000","longitude":"2.19030000"},{"id":"34007","name":"El Perell\u00f3","state_id":1203,"state_code":"CT","country_id":207,"country_code":"ES","latitude":"40.87431000","longitude":"0.71125000"},{"id":"34008","name":"El Pla de Santa Maria","state_id":1203,"state_code":"CT","country_id":207,"country_code":"ES","latitude":"41.36336000","longitude":"1.29152000"},{"id":"38527","name":"el Poblenou","state_id":1203,"state_code":"CT","country_id":207,"country_code":"ES","latitude":"41.40392000","longitude":"2.20413000"},{"id":"34010","name":"El Prat de Llobregat","state_id":1203,"state_code":"CT","country_id":207,"country_code":"ES","latitude":"41.32784000","longitude":"2.09472000"},{"id":"38528","name":"el Putxet i el Farr\u00f3","state_id":1203,"state_code":"CT","country_id":207,"country_code":"ES","latitude":"41.40693000","longitude":"2.14392000"},{"id":"38529","name":"el Raval","state_id":1203,"state_code":"CT","country_id":207,"country_code":"ES","latitude":"41.38042000","longitude":"2.16860000"},{"id":"38531","name":"el Tur\u00f3 de la Peira","state_id":1203,"state_code":"CT","country_id":207,"country_code":"ES","latitude":"41.43232000","longitude":"2.16895000"},{"id":"34025","name":"El Vendrell","state_id":1203,"state_code":"CT","country_id":207,"country_code":"ES","latitude":"41.21667000","longitude":"1.53333000"},{"id":"38532","name":"els Pallaresos","state_id":1203,"state_code":"CT","country_id":207,"country_code":"ES","latitude":"41.17491000","longitude":"1.27090000"},{"id":"34043","name":"Empuriabrava","state_id":1203,"state_code":"CT","country_id":207,"country_code":"ES","latitude":"42.24691000","longitude":"3.12059000"},{"id":"34108","name":"Esparreguera","state_id":1203,"state_code":"CT","country_id":207,"country_code":"ES","latitude":"41.53809000","longitude":"1.87025000"},{"id":"34127","name":"Esplugues de Llobregat","state_id":1203,"state_code":"CT","country_id":207,"country_code":"ES","latitude":"41.37732000","longitude":"2.08809000"},{"id":"34129","name":"Espolla","state_id":1203,"state_code":"CT","country_id":207,"country_code":"ES","latitude":"42.39120000","longitude":"3.00064000"},{"id":"34130","name":"Esponell\u00e0","state_id":1203,"state_code":"CT","country_id":207,"country_code":"ES","latitude":"42.16667000","longitude":"2.80000000"},{"id":"34132","name":"Espot","state_id":1203,"state_code":"CT","country_id":207,"country_code":"ES","latitude":"42.57838000","longitude":"1.08666000"},{"id":"34159","name":"Falset","state_id":1203,"state_code":"CT","country_id":207,"country_code":"ES","latitude":"41.14576000","longitude":"0.81979000"},{"id":"34166","name":"Farrera","state_id":1203,"state_code":"CT","country_id":207,"country_code":"ES","latitude":"42.49654000","longitude":"1.27216000"},{"id":"34183","name":"Figar\u00f3","state_id":1203,"state_code":"CT","country_id":207,"country_code":"ES","latitude":"41.72122000","longitude":"2.27297000"},{"id":"34184","name":"Figueres","state_id":1203,"state_code":"CT","country_id":207,"country_code":"ES","latitude":"42.26645000","longitude":"2.96163000"},{"id":"34195","name":"Flix","state_id":1203,"state_code":"CT","country_id":207,"country_code":"ES","latitude":"41.23074000","longitude":"0.55008000"},{"id":"34199","name":"Foix\u00e0","state_id":1203,"state_code":"CT","country_id":207,"country_code":"ES","latitude":"42.03626000","longitude":"3.00021000"},{"id":"34209","name":"Fonollosa","state_id":1203,"state_code":"CT","country_id":207,"country_code":"ES","latitude":"41.76303000","longitude":"1.66867000"},{"id":"34233","name":"For\u00e8s","state_id":1203,"state_code":"CT","country_id":207,"country_code":"ES","latitude":"41.48333000","longitude":"1.23333000"},{"id":"34225","name":"Fornells de la Selva","state_id":1203,"state_code":"CT","country_id":207,"country_code":"ES","latitude":"41.93159000","longitude":"2.80907000"},{"id":"34227","name":"Fort Pienc","state_id":1203,"state_code":"CT","country_id":207,"country_code":"ES","latitude":"41.39458000","longitude":"2.17946000"},{"id":"34230","name":"Forti\u00e0","state_id":1203,"state_code":"CT","country_id":207,"country_code":"ES","latitude":"42.24320000","longitude":"3.03881000"},{"id":"34364","name":"Fulleda","state_id":1203,"state_code":"CT","country_id":207,"country_code":"ES","latitude":"41.46334000","longitude":"1.02395000"},{"id":"34392","name":"Gallifa","state_id":1203,"state_code":"CT","country_id":207,"country_code":"ES","latitude":"41.69243000","longitude":"2.11346000"},{"id":"34402","name":"Gandesa","state_id":1203,"state_code":"CT","country_id":207,"country_code":"ES","latitude":"41.05375000","longitude":"0.43850000"},{"id":"34408","name":"Garcia","state_id":1203,"state_code":"CT","country_id":207,"country_code":"ES","latitude":"41.13333000","longitude":"0.65000000"},{"id":"34425","name":"Garrig\u00e0s","state_id":1203,"state_code":"CT","country_id":207,"country_code":"ES","latitude":"42.19343000","longitude":"2.95438000"},{"id":"34424","name":"Garriguella","state_id":1203,"state_code":"CT","country_id":207,"country_code":"ES","latitude":"42.34392000","longitude":"3.06506000"},{"id":"34441","name":"Gav\u00e0","state_id":1203,"state_code":"CT","country_id":207,"country_code":"ES","latitude":"41.30605000","longitude":"2.00123000"},{"id":"34565","name":"G\u00f3sol","state_id":1203,"state_code":"CT","country_id":207,"country_code":"ES","latitude":"42.23697000","longitude":"1.66010000"},{"id":"34446","name":"Gelida","state_id":1203,"state_code":"CT","country_id":207,"country_code":"ES","latitude":"41.43333000","longitude":"1.86667000"},{"id":"34468","name":"Ginestar","state_id":1203,"state_code":"CT","country_id":207,"country_code":"ES","latitude":"41.04184000","longitude":"0.63290000"},{"id":"34470","name":"Girona","state_id":1203,"state_code":"CT","country_id":207,"country_code":"ES","latitude":"41.98311000","longitude":"2.82493000"},{"id":"34471","name":"Gironella","state_id":1203,"state_code":"CT","country_id":207,"country_code":"ES","latitude":"42.03433000","longitude":"1.88019000"},{"id":"34479","name":"Golm\u00e9s","state_id":1203,"state_code":"CT","country_id":207,"country_code":"ES","latitude":"41.63354000","longitude":"0.93125000"},{"id":"34499","name":"Granera","state_id":1203,"state_code":"CT","country_id":207,"country_code":"ES","latitude":"41.72741000","longitude":"2.05924000"},{"id":"34503","name":"Granollers","state_id":1203,"state_code":"CT","country_id":207,"country_code":"ES","latitude":"41.60797000","longitude":"2.28773000"},{"id":"34517","name":"Gr\u00e0cia","state_id":1203,"state_code":"CT","country_id":207,"country_code":"ES","latitude":"41.40237000","longitude":"2.15641000"},{"id":"34534","name":"Gualta","state_id":1203,"state_code":"CT","country_id":207,"country_code":"ES","latitude":"42.02953000","longitude":"3.10312000"},{"id":"34549","name":"Guimer\u00e0","state_id":1203,"state_code":"CT","country_id":207,"country_code":"ES","latitude":"41.56450000","longitude":"1.18528000"},{"id":"34553","name":"Gurb","state_id":1203,"state_code":"CT","country_id":207,"country_code":"ES","latitude":"41.95419000","longitude":"2.23537000"},{"id":"34665","name":"Horta","state_id":1203,"state_code":"CT","country_id":207,"country_code":"ES","latitude":"41.43628000","longitude":"2.15725000"},{"id":"34666","name":"Horta-Guinard\u00f3","state_id":1203,"state_code":"CT","country_id":207,"country_code":"ES","latitude":"41.41849000","longitude":"2.16770000"},{"id":"34670","name":"Hostafrancs","state_id":1203,"state_code":"CT","country_id":207,"country_code":"ES","latitude":"41.37694000","longitude":"2.14306000"},{"id":"34671","name":"Hostalric","state_id":1203,"state_code":"CT","country_id":207,"country_code":"ES","latitude":"41.75000000","longitude":"2.63333000"},{"id":"34739","name":"Igualada","state_id":1203,"state_code":"CT","country_id":207,"country_code":"ES","latitude":"41.58098000","longitude":"1.61720000"},{"id":"34777","name":"Ivorra","state_id":1203,"state_code":"CT","country_id":207,"country_code":"ES","latitude":"41.76667000","longitude":"1.40000000"},{"id":"34790","name":"Jafre","state_id":1203,"state_code":"CT","country_id":207,"country_code":"ES","latitude":"42.07254000","longitude":"3.01062000"},{"id":"34821","name":"Jorba","state_id":1203,"state_code":"CT","country_id":207,"country_code":"ES","latitude":"41.60193000","longitude":"1.54750000"},{"id":"34827","name":"Jui\u00e0","state_id":1203,"state_code":"CT","country_id":207,"country_code":"ES","latitude":"42.01667000","longitude":"2.91667000"},{"id":"34831","name":"Juncosa","state_id":1203,"state_code":"CT","country_id":207,"country_code":"ES","latitude":"41.37033000","longitude":"0.77650000"},{"id":"34832","name":"Juneda","state_id":1203,"state_code":"CT","country_id":207,"country_code":"ES","latitude":"41.54847000","longitude":"0.82451000"},{"id":"34843","name":"L'Ametlla del Vall\u00e8s","state_id":1203,"state_code":"CT","country_id":207,"country_code":"ES","latitude":"41.66667000","longitude":"2.26667000"},{"id":"34844","name":"L'Ampolla","state_id":1203,"state_code":"CT","country_id":207,"country_code":"ES","latitude":"40.81235000","longitude":"0.71008000"},{"id":"38536","name":"l'Antiga Esquerra de l'Eixample","state_id":1203,"state_code":"CT","country_id":207,"country_code":"ES","latitude":"41.38939000","longitude":"2.15517000"},{"id":"38537","name":"l'Escala","state_id":1203,"state_code":"CT","country_id":207,"country_code":"ES","latitude":"42.12562000","longitude":"3.13261000"},{"id":"38538","name":"l'Estartit","state_id":1203,"state_code":"CT","country_id":207,"country_code":"ES","latitude":"42.05340000","longitude":"3.19767000"},{"id":"34846","name":"L'Hospitalet de Llobregat","state_id":1203,"state_code":"CT","country_id":207,"country_code":"ES","latitude":"41.35967000","longitude":"2.10028000"},{"id":"38539","name":"la Barceloneta","state_id":1203,"state_code":"CT","country_id":207,"country_code":"ES","latitude":"41.37990000","longitude":"2.18971000"},{"id":"38540","name":"la Bisbal d'Empord\u00e0","state_id":1203,"state_code":"CT","country_id":207,"country_code":"ES","latitude":"41.95000000","longitude":"3.05000000"},{"id":"34857","name":"La Bonanova","state_id":1203,"state_code":"CT","country_id":207,"country_code":"ES","latitude":"41.40585000","longitude":"2.13243000"},{"id":"34858","name":"La Bordeta","state_id":1203,"state_code":"CT","country_id":207,"country_code":"ES","latitude":"41.37397000","longitude":"2.14377000"},{"id":"34863","name":"La Canonja","state_id":1203,"state_code":"CT","country_id":207,"country_code":"ES","latitude":"41.12110000","longitude":"1.18065000"},{"id":"38541","name":"la Cellera de Ter","state_id":1203,"state_code":"CT","country_id":207,"country_code":"ES","latitude":"41.96919000","longitude":"2.62402000"},{"id":"38542","name":"la Fatarella","state_id":1203,"state_code":"CT","country_id":207,"country_code":"ES","latitude":"41.16667000","longitude":"0.48333000"},{"id":"38543","name":"la Font d'en Fargues","state_id":1203,"state_code":"CT","country_id":207,"country_code":"ES","latitude":"41.42461000","longitude":"2.16526000"},{"id":"38544","name":"la Font de la Guatlla","state_id":1203,"state_code":"CT","country_id":207,"country_code":"ES","latitude":"41.36978000","longitude":"2.14486000"},{"id":"34874","name":"La Fuliola","state_id":1203,"state_code":"CT","country_id":207,"country_code":"ES","latitude":"41.71358000","longitude":"1.01746000"},{"id":"38545","name":"la Garriga","state_id":1203,"state_code":"CT","country_id":207,"country_code":"ES","latitude":"41.68333000","longitude":"2.28333000"},{"id":"34879","name":"La Granada","state_id":1203,"state_code":"CT","country_id":207,"country_code":"ES","latitude":"41.37816000","longitude":"1.71902000"},{"id":"38546","name":"la Granadella","state_id":1203,"state_code":"CT","country_id":207,"country_code":"ES","latitude":"41.35000000","longitude":"0.66667000"},{"id":"38547","name":"la Granja d'Escarp","state_id":1203,"state_code":"CT","country_id":207,"country_code":"ES","latitude":"41.41667000","longitude":"0.36667000"},{"id":"38548","name":"la Guineueta","state_id":1203,"state_code":"CT","country_id":207,"country_code":"ES","latitude":"41.43884000","longitude":"2.16893000"},{"id":"34890","name":"La Llagosta","state_id":1203,"state_code":"CT","country_id":207,"country_code":"ES","latitude":"41.51435000","longitude":"2.19297000"},{"id":"38549","name":"la Marina de Port","state_id":1203,"state_code":"CT","country_id":207,"country_code":"ES","latitude":"41.36000000","longitude":"2.13986000"},{"id":"38550","name":"la Marina del Prat Vermell","state_id":1203,"state_code":"CT","country_id":207,"country_code":"ES","latitude":"41.33937000","longitude":"2.14262000"},{"id":"38551","name":"la Maternitat i Sant Ramon","state_id":1203,"state_code":"CT","country_id":207,"country_code":"ES","latitude":"41.38125000","longitude":"2.11744000"},{"id":"38552","name":"la Morera de Montsant","state_id":1203,"state_code":"CT","country_id":207,"country_code":"ES","latitude":"41.26529000","longitude":"0.84157000"},{"id":"38553","name":"la Nova Esquerra de l'Eixample","state_id":1203,"state_code":"CT","country_id":207,"country_code":"ES","latitude":"41.38309000","longitude":"2.14900000"},{"id":"34903","name":"La Pineda","state_id":1203,"state_code":"CT","country_id":207,"country_code":"ES","latitude":"41.07625000","longitude":"1.18515000"},{"id":"34905","name":"La Pobla de Claramunt","state_id":1203,"state_code":"CT","country_id":207,"country_code":"ES","latitude":"41.55423000","longitude":"1.67712000"},{"id":"38555","name":"la Pobla de Mafumet","state_id":1203,"state_code":"CT","country_id":207,"country_code":"ES","latitude":"41.18333000","longitude":"1.21667000"},{"id":"38556","name":"la Prosperitat","state_id":1203,"state_code":"CT","country_id":207,"country_code":"ES","latitude":"41.44269000","longitude":"2.18200000"},{"id":"34920","name":"La Roca del Vall\u00e8s","state_id":1203,"state_code":"CT","country_id":207,"country_code":"ES","latitude":"41.58333000","longitude":"2.33333000"},{"id":"34924","name":"La Sagrera","state_id":1203,"state_code":"CT","country_id":207,"country_code":"ES","latitude":"41.42271000","longitude":"2.18589000"},{"id":"38557","name":"la Salut","state_id":1203,"state_code":"CT","country_id":207,"country_code":"ES","latitude":"41.41243000","longitude":"2.15437000"},{"id":"34926","name":"La Secuita","state_id":1203,"state_code":"CT","country_id":207,"country_code":"ES","latitude":"41.20460000","longitude":"1.27996000"},{"id":"34927","name":"La Selva del Camp","state_id":1203,"state_code":"CT","country_id":207,"country_code":"ES","latitude":"41.21484000","longitude":"1.13883000"},{"id":"34928","name":"La Seu d'Urgell","state_id":1203,"state_code":"CT","country_id":207,"country_code":"ES","latitude":"42.35877000","longitude":"1.46144000"},{"id":"38558","name":"la Teixonera","state_id":1203,"state_code":"CT","country_id":207,"country_code":"ES","latitude":"41.42307000","longitude":"2.14654000"},{"id":"38559","name":"la Trinitat Nova","state_id":1203,"state_code":"CT","country_id":207,"country_code":"ES","latitude":"41.45051000","longitude":"2.18481000"},{"id":"38560","name":"la Trinitat Vella","state_id":1203,"state_code":"CT","country_id":207,"country_code":"ES","latitude":"41.45166000","longitude":"2.19289000"},{"id":"38561","name":"la Vall d'Hebron","state_id":1203,"state_code":"CT","country_id":207,"country_code":"ES","latitude":"41.43038000","longitude":"2.14830000"},{"id":"38562","name":"la Verneda i la Pau","state_id":1203,"state_code":"CT","country_id":207,"country_code":"ES","latitude":"41.42399000","longitude":"2.20304000"},{"id":"38564","name":"la Vila de Gr\u00e0cia","state_id":1203,"state_code":"CT","country_id":207,"country_code":"ES","latitude":"41.40315000","longitude":"2.15687000"},{"id":"38563","name":"la Vila Ol\u00edmpica del Poblenou","state_id":1203,"state_code":"CT","country_id":207,"country_code":"ES","latitude":"41.39074000","longitude":"2.19679000"},{"id":"34994","name":"Las Tres Torres","state_id":1203,"state_code":"CT","country_id":207,"country_code":"ES","latitude":"41.39989000","longitude":"2.12931000"},{"id":"35034","name":"Les","state_id":1203,"state_code":"CT","country_id":207,"country_code":"ES","latitude":"42.81076000","longitude":"0.71050000"},{"id":"38565","name":"les Borges del Camp","state_id":1203,"state_code":"CT","country_id":207,"country_code":"ES","latitude":"41.16667000","longitude":"1.01667000"},{"id":"35035","name":"Les Cases d'Alcanar","state_id":1203,"state_code":"CT","country_id":207,"country_code":"ES","latitude":"40.55359000","longitude":"0.53022000"},{"id":"35036","name":"Les Corts","state_id":1203,"state_code":"CT","country_id":207,"country_code":"ES","latitude":"41.38712000","longitude":"2.13007000"},{"id":"38566","name":"les Llosses","state_id":1203,"state_code":"CT","country_id":207,"country_code":"ES","latitude":"42.15000000","longitude":"2.11667000"},{"id":"38567","name":"les Planes d'Hostoles","state_id":1203,"state_code":"CT","country_id":207,"country_code":"ES","latitude":"42.05669000","longitude":"2.54093000"},{"id":"38568","name":"les Roquetes","state_id":1203,"state_code":"CT","country_id":207,"country_code":"ES","latitude":"41.44809000","longitude":"2.17519000"},{"id":"35056","name":"Linyola","state_id":1203,"state_code":"CT","country_id":207,"country_code":"ES","latitude":"41.70000000","longitude":"0.91667000"},{"id":"35063","name":"Llad\u00f3","state_id":1203,"state_code":"CT","country_id":207,"country_code":"ES","latitude":"42.24769000","longitude":"2.81373000"},{"id":"35064","name":"Llagostera","state_id":1203,"state_code":"CT","country_id":207,"country_code":"ES","latitude":"41.82688000","longitude":"2.89365000"},{"id":"35066","name":"Llambilles","state_id":1203,"state_code":"CT","country_id":207,"country_code":"ES","latitude":"41.92106000","longitude":"2.85078000"},{"id":"35070","name":"Llan\u00e7\u00e0","state_id":1203,"state_code":"CT","country_id":207,"country_code":"ES","latitude":"42.36241000","longitude":"3.15213000"},{"id":"35073","name":"Llefi\u00e0","state_id":1203,"state_code":"CT","country_id":207,"country_code":"ES","latitude":"41.43806000","longitude":"2.21950000"},{"id":"35074","name":"Lleida","state_id":1203,"state_code":"CT","country_id":207,"country_code":"ES","latitude":"41.61674000","longitude":"0.62218000"},{"id":"35077","name":"Llers","state_id":1203,"state_code":"CT","country_id":207,"country_code":"ES","latitude":"42.29571000","longitude":"2.91183000"},{"id":"35078","name":"Lles de Cerdanya","state_id":1203,"state_code":"CT","country_id":207,"country_code":"ES","latitude":"42.39025000","longitude":"1.68692000"},{"id":"35081","name":"Lli\u00e7\u00e0 d'Amunt","state_id":1203,"state_code":"CT","country_id":207,"country_code":"ES","latitude":"41.61667000","longitude":"2.23333000"},{"id":"35079","name":"Llimiana","state_id":1203,"state_code":"CT","country_id":207,"country_code":"ES","latitude":"42.07476000","longitude":"0.91621000"},{"id":"35080","name":"Llinars del Vall\u00e8s","state_id":1203,"state_code":"CT","country_id":207,"country_code":"ES","latitude":"41.63333000","longitude":"2.40000000"},{"id":"35084","name":"Lloret de Mar","state_id":1203,"state_code":"CT","country_id":207,"country_code":"ES","latitude":"41.69993000","longitude":"2.84565000"},{"id":"35185","name":"Madremanya","state_id":1203,"state_code":"CT","country_id":207,"country_code":"ES","latitude":"41.98333000","longitude":"2.96667000"},{"id":"35223","name":"Malgrat de Mar","state_id":1203,"state_code":"CT","country_id":207,"country_code":"ES","latitude":"41.64662000","longitude":"2.74135000"},{"id":"35254","name":"Manlleu","state_id":1203,"state_code":"CT","country_id":207,"country_code":"ES","latitude":"42.00228000","longitude":"2.28476000"},{"id":"35256","name":"Manresa","state_id":1203,"state_code":"CT","country_id":207,"country_code":"ES","latitude":"41.72815000","longitude":"1.82399000"},{"id":"35288","name":"Margalef","state_id":1203,"state_code":"CT","country_id":207,"country_code":"ES","latitude":"41.28496000","longitude":"0.75331000"},{"id":"35301","name":"Martorell","state_id":1203,"state_code":"CT","country_id":207,"country_code":"ES","latitude":"41.47402000","longitude":"1.93062000"},{"id":"35315","name":"Mas de Barberans","state_id":1203,"state_code":"CT","country_id":207,"country_code":"ES","latitude":"40.73333000","longitude":"0.36667000"},{"id":"35319","name":"Masdenverge","state_id":1203,"state_code":"CT","country_id":207,"country_code":"ES","latitude":"40.71600000","longitude":"0.53009000"},{"id":"35325","name":"Masquefa","state_id":1203,"state_code":"CT","country_id":207,"country_code":"ES","latitude":"41.50353000","longitude":"1.81136000"},{"id":"35327","name":"Massanes","state_id":1203,"state_code":"CT","country_id":207,"country_code":"ES","latitude":"41.76536000","longitude":"2.65324000"},{"id":"35332","name":"Matadepera","state_id":1203,"state_code":"CT","country_id":207,"country_code":"ES","latitude":"41.59886000","longitude":"2.02648000"},{"id":"35340","name":"Matar\u00f3","state_id":1203,"state_code":"CT","country_id":207,"country_code":"ES","latitude":"41.54211000","longitude":"2.44450000"},{"id":"35376","name":"Mediona","state_id":1203,"state_code":"CT","country_id":207,"country_code":"ES","latitude":"41.47798000","longitude":"1.61222000"},{"id":"35444","name":"Miralcamp","state_id":1203,"state_code":"CT","country_id":207,"country_code":"ES","latitude":"41.60516000","longitude":"0.87987000"},{"id":"35454","name":"Miravet","state_id":1203,"state_code":"CT","country_id":207,"country_code":"ES","latitude":"41.03930000","longitude":"0.59665000"},{"id":"35472","name":"Moi\u00e0","state_id":1203,"state_code":"CT","country_id":207,"country_code":"ES","latitude":"41.81112000","longitude":"2.09839000"},{"id":"35484","name":"Molins de Rei","state_id":1203,"state_code":"CT","country_id":207,"country_code":"ES","latitude":"41.41667000","longitude":"2.01667000"},{"id":"35486","name":"Mollerussa","state_id":1203,"state_code":"CT","country_id":207,"country_code":"ES","latitude":"41.63333000","longitude":"0.90000000"},{"id":"35487","name":"Mollet de Peralada","state_id":1203,"state_code":"CT","country_id":207,"country_code":"ES","latitude":"42.35959000","longitude":"3.00034000"},{"id":"35488","name":"Mollet del Vall\u00e8s","state_id":1203,"state_code":"CT","country_id":207,"country_code":"ES","latitude":"41.54026000","longitude":"2.21306000"},{"id":"35517","name":"Monistrol de Montserrat","state_id":1203,"state_code":"CT","country_id":207,"country_code":"ES","latitude":"41.61667000","longitude":"1.85000000"},{"id":"35528","name":"Mont-roig del Camp","state_id":1203,"state_code":"CT","country_id":207,"country_code":"ES","latitude":"41.08675000","longitude":"0.95925000"},{"id":"35538","name":"Montbau","state_id":1203,"state_code":"CT","country_id":207,"country_code":"ES","latitude":"41.43529000","longitude":"2.13781000"},{"id":"35539","name":"Montblanc","state_id":1203,"state_code":"CT","country_id":207,"country_code":"ES","latitude":"41.37636000","longitude":"1.16163000"},{"id":"35540","name":"Montcada i Reixac","state_id":1203,"state_code":"CT","country_id":207,"country_code":"ES","latitude":"41.48333000","longitude":"2.18333000"},{"id":"35572","name":"Montferri","state_id":1203,"state_code":"CT","country_id":207,"country_code":"ES","latitude":"41.26545000","longitude":"1.36517000"},{"id":"35573","name":"Montgat","state_id":1203,"state_code":"CT","country_id":207,"country_code":"ES","latitude":"41.46859000","longitude":"2.28001000"},{"id":"35580","name":"Montmel\u00f3","state_id":1203,"state_code":"CT","country_id":207,"country_code":"ES","latitude":"41.55002000","longitude":"2.24190000"},{"id":"35582","name":"Montorn\u00e8s del Vall\u00e8s","state_id":1203,"state_code":"CT","country_id":207,"country_code":"ES","latitude":"41.54206000","longitude":"2.26748000"},{"id":"35668","name":"Mura","state_id":1203,"state_code":"CT","country_id":207,"country_code":"ES","latitude":"41.69943000","longitude":"1.97612000"},{"id":"35765","name":"Navarcles","state_id":1203,"state_code":"CT","country_id":207,"country_code":"ES","latitude":"41.75171000","longitude":"1.90357000"},{"id":"35776","name":"Navas","state_id":1203,"state_code":"CT","country_id":207,"country_code":"ES","latitude":"41.41803000","longitude":"2.18596000"},{"id":"35786","name":"Navata","state_id":1203,"state_code":"CT","country_id":207,"country_code":"ES","latitude":"42.22353000","longitude":"2.86110000"},{"id":"35792","name":"Nav\u00e0s","state_id":1203,"state_code":"CT","country_id":207,"country_code":"ES","latitude":"41.89998000","longitude":"1.87763000"},{"id":"35825","name":"Nou Barris","state_id":1203,"state_code":"CT","country_id":207,"country_code":"ES","latitude":"41.44163000","longitude":"2.17727000"},{"id":"35878","name":"Olesa de Bonesvalls","state_id":1203,"state_code":"CT","country_id":207,"country_code":"ES","latitude":"41.35435000","longitude":"1.84907000"},{"id":"35879","name":"Olesa de Montserrat","state_id":1203,"state_code":"CT","country_id":207,"country_code":"ES","latitude":"41.54372000","longitude":"1.89407000"},{"id":"35880","name":"Oliana","state_id":1203,"state_code":"CT","country_id":207,"country_code":"ES","latitude":"42.06895000","longitude":"1.31353000"},{"id":"35883","name":"Olius","state_id":1203,"state_code":"CT","country_id":207,"country_code":"ES","latitude":"42.01035000","longitude":"1.56460000"},{"id":"35891","name":"Olivella","state_id":1203,"state_code":"CT","country_id":207,"country_code":"ES","latitude":"41.31667000","longitude":"1.81667000"},{"id":"35911","name":"Olost","state_id":1203,"state_code":"CT","country_id":207,"country_code":"ES","latitude":"41.98540000","longitude":"2.09457000"},{"id":"35912","name":"Olot","state_id":1203,"state_code":"CT","country_id":207,"country_code":"ES","latitude":"42.18096000","longitude":"2.49012000"},{"id":"35966","name":"Or\u00eds","state_id":1203,"state_code":"CT","country_id":207,"country_code":"ES","latitude":"42.05967000","longitude":"2.22066000"},{"id":"35940","name":"Ordis","state_id":1203,"state_code":"CT","country_id":207,"country_code":"ES","latitude":"42.21830000","longitude":"2.90705000"},{"id":"35953","name":"Orist\u00e0","state_id":1203,"state_code":"CT","country_id":207,"country_code":"ES","latitude":"41.93333000","longitude":"2.06667000"},{"id":"35960","name":"Orp\u00ed","state_id":1203,"state_code":"CT","country_id":207,"country_code":"ES","latitude":"41.51870000","longitude":"1.57536000"},{"id":"35968","name":"Os de Balaguer","state_id":1203,"state_code":"CT","country_id":207,"country_code":"ES","latitude":"41.87314000","longitude":"0.72017000"},{"id":"35974","name":"Oss\u00f3 de Si\u00f3","state_id":1203,"state_code":"CT","country_id":207,"country_code":"ES","latitude":"41.75485000","longitude":"1.15900000"},{"id":"36014","name":"Palafrugell","state_id":1203,"state_code":"CT","country_id":207,"country_code":"ES","latitude":"41.91738000","longitude":"3.16310000"},{"id":"36015","name":"Palam\u00f3s","state_id":1203,"state_code":"CT","country_id":207,"country_code":"ES","latitude":"41.84843000","longitude":"3.12912000"},{"id":"36017","name":"Palau-sator","state_id":1203,"state_code":"CT","country_id":207,"country_code":"ES","latitude":"41.98897000","longitude":"3.11016000"},{"id":"36026","name":"Pallej\u00e0","state_id":1203,"state_code":"CT","country_id":207,"country_code":"ES","latitude":"41.42394000","longitude":"1.99505000"},{"id":"36034","name":"Palol de Revardit","state_id":1203,"state_code":"CT","country_id":207,"country_code":"ES","latitude":"42.06667000","longitude":"2.80000000"},{"id":"36042","name":"Pals","state_id":1203,"state_code":"CT","country_id":207,"country_code":"ES","latitude":"41.97102000","longitude":"3.14814000"},{"id":"36069","name":"Parets del Vall\u00e8s","state_id":1203,"state_code":"CT","country_id":207,"country_code":"ES","latitude":"41.57481000","longitude":"2.23306000"},{"id":"36083","name":"Pau","state_id":1203,"state_code":"CT","country_id":207,"country_code":"ES","latitude":"42.31607000","longitude":"3.11621000"},{"id":"36091","name":"Pedralbes","state_id":1203,"state_code":"CT","country_id":207,"country_code":"ES","latitude":"41.39046000","longitude":"2.11019000"},{"id":"36186","name":"Piera","state_id":1203,"state_code":"CT","country_id":207,"country_code":"ES","latitude":"41.52232000","longitude":"1.75076000"},{"id":"36197","name":"Pineda de Mar","state_id":1203,"state_code":"CT","country_id":207,"country_code":"ES","latitude":"41.62763000","longitude":"2.68890000"},{"id":"36235","name":"Planoles","state_id":1203,"state_code":"CT","country_id":207,"country_code":"ES","latitude":"42.31667000","longitude":"2.10000000"},{"id":"36253","name":"Poble Sec","state_id":1203,"state_code":"CT","country_id":207,"country_code":"ES","latitude":"41.37452000","longitude":"2.16326000"},{"id":"36260","name":"Poliny\u00e0","state_id":1203,"state_code":"CT","country_id":207,"country_code":"ES","latitude":"41.55000000","longitude":"2.15000000"},{"id":"36271","name":"Pont de Molins","state_id":1203,"state_code":"CT","country_id":207,"country_code":"ES","latitude":"42.31440000","longitude":"2.92996000"},{"id":"36276","name":"Pont\u00f3s","state_id":1203,"state_code":"CT","country_id":207,"country_code":"ES","latitude":"42.18665000","longitude":"2.91706000"},{"id":"36274","name":"Pontils","state_id":1203,"state_code":"CT","country_id":207,"country_code":"ES","latitude":"41.47734000","longitude":"1.38772000"},{"id":"36275","name":"Ponts","state_id":1203,"state_code":"CT","country_id":207,"country_code":"ES","latitude":"41.91607000","longitude":"1.18515000"},{"id":"36284","name":"Porta","state_id":1203,"state_code":"CT","country_id":207,"country_code":"ES","latitude":"41.43490000","longitude":"2.17883000"},{"id":"36287","name":"Portbou","state_id":1203,"state_code":"CT","country_id":207,"country_code":"ES","latitude":"42.42650000","longitude":"3.15805000"},{"id":"36350","name":"Premi\u00e0 de Mar","state_id":1203,"state_code":"CT","country_id":207,"country_code":"ES","latitude":"41.49206000","longitude":"2.36524000"},{"id":"36395","name":"Prov\u00edncia de Barcelona","state_id":1203,"state_code":"CT","country_id":207,"country_code":"ES","latitude":"41.66667000","longitude":"2.00000000"},{"id":"36397","name":"Prov\u00edncia de Girona","state_id":1203,"state_code":"CT","country_id":207,"country_code":"ES","latitude":"41.98916000","longitude":"2.81113000"},{"id":"36398","name":"Prov\u00edncia de Lleida","state_id":1203,"state_code":"CT","country_id":207,"country_code":"ES","latitude":"41.61878000","longitude":"0.57472000"},{"id":"36399","name":"Prov\u00edncia de Tarragona","state_id":1203,"state_code":"CT","country_id":207,"country_code":"ES","latitude":"41.12902000","longitude":"1.24901000"},{"id":"36357","name":"Provenals del Poblenou","state_id":1203,"state_code":"CT","country_id":207,"country_code":"ES","latitude":"41.41109000","longitude":"2.20260000"},{"id":"36462","name":"Puigcerd\u00e0","state_id":1203,"state_code":"CT","country_id":207,"country_code":"ES","latitude":"42.43160000","longitude":"1.92819000"},{"id":"36463","name":"Puigpelat","state_id":1203,"state_code":"CT","country_id":207,"country_code":"ES","latitude":"41.27899000","longitude":"1.29713000"},{"id":"36465","name":"Pujalt","state_id":1203,"state_code":"CT","country_id":207,"country_code":"ES","latitude":"41.71710000","longitude":"1.42088000"},{"id":"36489","name":"Quart d\u2019Onyar","state_id":1203,"state_code":"CT","country_id":207,"country_code":"ES","latitude":"41.94047000","longitude":"2.84079000"},{"id":"36496","name":"Querol","state_id":1203,"state_code":"CT","country_id":207,"country_code":"ES","latitude":"41.42293000","longitude":"1.39684000"},{"id":"36537","name":"Rab\u00f3s","state_id":1203,"state_code":"CT","country_id":207,"country_code":"ES","latitude":"42.37890000","longitude":"3.02828000"},{"id":"36543","name":"Rajadell","state_id":1203,"state_code":"CT","country_id":207,"country_code":"ES","latitude":"41.72802000","longitude":"1.70621000"},{"id":"36549","name":"Rasquera","state_id":1203,"state_code":"CT","country_id":207,"country_code":"ES","latitude":"41.00267000","longitude":"0.59967000"},{"id":"36564","name":"Regenc\u00f3s","state_id":1203,"state_code":"CT","country_id":207,"country_code":"ES","latitude":"41.95271000","longitude":"3.17006000"},{"id":"36576","name":"Renau","state_id":1203,"state_code":"CT","country_id":207,"country_code":"ES","latitude":"41.22448000","longitude":"1.31083000"},{"id":"36592","name":"Reus","state_id":1203,"state_code":"CT","country_id":207,"country_code":"ES","latitude":"41.15612000","longitude":"1.10687000"},{"id":"36617","name":"Ribes de Freser","state_id":1203,"state_code":"CT","country_id":207,"country_code":"ES","latitude":"42.30417000","longitude":"2.16757000"},{"id":"36632","name":"Ripoll","state_id":1203,"state_code":"CT","country_id":207,"country_code":"ES","latitude":"42.20064000","longitude":"2.19033000"},{"id":"36633","name":"Ripollet","state_id":1203,"state_code":"CT","country_id":207,"country_code":"ES","latitude":"41.49686000","longitude":"2.15739000"},{"id":"36634","name":"Riudecanyes","state_id":1203,"state_code":"CT","country_id":207,"country_code":"ES","latitude":"41.13333000","longitude":"0.96667000"},{"id":"36635","name":"Riudecols","state_id":1203,"state_code":"CT","country_id":207,"country_code":"ES","latitude":"41.16900000","longitude":"0.97625000"},{"id":"36636","name":"Riudellots de la Selva","state_id":1203,"state_code":"CT","country_id":207,"country_code":"ES","latitude":"41.89327000","longitude":"2.80452000"},{"id":"36637","name":"Riudoms","state_id":1203,"state_code":"CT","country_id":207,"country_code":"ES","latitude":"41.13333000","longitude":"1.05000000"},{"id":"36638","name":"Riumors","state_id":1203,"state_code":"CT","country_id":207,"country_code":"ES","latitude":"42.22726000","longitude":"3.04190000"},{"id":"36661","name":"Roda de Bar\u00e0","state_id":1203,"state_code":"CT","country_id":207,"country_code":"ES","latitude":"41.18645000","longitude":"1.45893000"},{"id":"36679","name":"Roses","state_id":1203,"state_code":"CT","country_id":207,"country_code":"ES","latitude":"42.26199000","longitude":"3.17689000"},{"id":"36694","name":"Rub\u00ed","state_id":1203,"state_code":"CT","country_id":207,"country_code":"ES","latitude":"41.49226000","longitude":"2.03305000"},{"id":"36704","name":"Rupi\u00e0","state_id":1203,"state_code":"CT","country_id":207,"country_code":"ES","latitude":"42.01667000","longitude":"3.01667000"},{"id":"36721","name":"S'Agar\u00f3","state_id":1203,"state_code":"CT","country_id":207,"country_code":"ES","latitude":"41.79368000","longitude":"3.05364000"},{"id":"36722","name":"Sabadell","state_id":1203,"state_code":"CT","country_id":207,"country_code":"ES","latitude":"41.54329000","longitude":"2.10942000"},{"id":"36740","name":"Sag\u00e0s","state_id":1203,"state_code":"CT","country_id":207,"country_code":"ES","latitude":"42.05000000","longitude":"1.96667000"},{"id":"36738","name":"Sagrada Fam\u00edlia","state_id":1203,"state_code":"CT","country_id":207,"country_code":"ES","latitude":"41.40408000","longitude":"2.17332000"},{"id":"36760","name":"Sales de Llierca","state_id":1203,"state_code":"CT","country_id":207,"country_code":"ES","latitude":"42.23333000","longitude":"2.65000000"},{"id":"36768","name":"Sallent","state_id":1203,"state_code":"CT","country_id":207,"country_code":"ES","latitude":"41.82602000","longitude":"1.89550000"},{"id":"36775","name":"Salom\u00f3","state_id":1203,"state_code":"CT","country_id":207,"country_code":"ES","latitude":"41.22955000","longitude":"1.37445000"},{"id":"36777","name":"Salou","state_id":1203,"state_code":"CT","country_id":207,"country_code":"ES","latitude":"41.07663000","longitude":"1.14163000"},{"id":"36778","name":"Salt","state_id":1203,"state_code":"CT","country_id":207,"country_code":"ES","latitude":"41.97489000","longitude":"2.79281000"},{"id":"36951","name":"Sant Adri\u00e0 de Bes\u00f2s","state_id":1203,"state_code":"CT","country_id":207,"country_code":"ES","latitude":"41.43073000","longitude":"2.21855000"},{"id":"36952","name":"Sant Andreu","state_id":1203,"state_code":"CT","country_id":207,"country_code":"ES","latitude":"41.43541000","longitude":"2.18982000"},{"id":"36955","name":"Sant Andreu de la Barca","state_id":1203,"state_code":"CT","country_id":207,"country_code":"ES","latitude":"41.44659000","longitude":"1.97187000"},{"id":"36954","name":"Sant Andreu de Llavaneres","state_id":1203,"state_code":"CT","country_id":207,"country_code":"ES","latitude":"41.56667000","longitude":"2.48333000"},{"id":"36953","name":"Sant Andreu Salou","state_id":1203,"state_code":"CT","country_id":207,"country_code":"ES","latitude":"41.86667000","longitude":"2.83333000"},{"id":"36956","name":"Sant Antoni","state_id":1203,"state_code":"CT","country_id":207,"country_code":"ES","latitude":"41.37857000","longitude":"2.15937000"},{"id":"36958","name":"Sant Boi de Llobregat","state_id":1203,"state_code":"CT","country_id":207,"country_code":"ES","latitude":"41.34357000","longitude":"2.03659000"},{"id":"36959","name":"Sant Carles de la R\u00e0pita","state_id":1203,"state_code":"CT","country_id":207,"country_code":"ES","latitude":"40.61667000","longitude":"0.60000000"},{"id":"36960","name":"Sant Celoni","state_id":1203,"state_code":"CT","country_id":207,"country_code":"ES","latitude":"41.68921000","longitude":"2.48965000"},{"id":"36961","name":"Sant Crist\u00f2fol de les Fonts","state_id":1203,"state_code":"CT","country_id":207,"country_code":"ES","latitude":"42.16964000","longitude":"2.49943000"},{"id":"36962","name":"Sant Cugat del Vall\u00e8s","state_id":1203,"state_code":"CT","country_id":207,"country_code":"ES","latitude":"41.47063000","longitude":"2.08611000"},{"id":"36963","name":"Sant Esteve d'en Bas","state_id":1203,"state_code":"CT","country_id":207,"country_code":"ES","latitude":"42.11809000","longitude":"2.45682000"},{"id":"36964","name":"Sant Feliu de Gu\u00edxols","state_id":1203,"state_code":"CT","country_id":207,"country_code":"ES","latitude":"41.78333000","longitude":"3.03333000"},{"id":"36965","name":"Sant Feliu de Llobregat","state_id":1203,"state_code":"CT","country_id":207,"country_code":"ES","latitude":"41.38333000","longitude":"2.05000000"},{"id":"36966","name":"Sant Ferriol","state_id":1203,"state_code":"CT","country_id":207,"country_code":"ES","latitude":"42.20000000","longitude":"2.66667000"},{"id":"36968","name":"Sant Gen\u00eds dels Agudells","state_id":1203,"state_code":"CT","country_id":207,"country_code":"ES","latitude":"41.42541000","longitude":"2.13019000"},{"id":"36969","name":"Sant Gervasi - Galvany","state_id":1203,"state_code":"CT","country_id":207,"country_code":"ES","latitude":"41.39750000","longitude":"2.14301000"},{"id":"36970","name":"Sant Hilari Sacalm","state_id":1203,"state_code":"CT","country_id":207,"country_code":"ES","latitude":"41.88333000","longitude":"2.51667000"},{"id":"36976","name":"Sant Joan de les Abadesses","state_id":1203,"state_code":"CT","country_id":207,"country_code":"ES","latitude":"42.23332000","longitude":"2.28524000"},{"id":"36974","name":"Sant Joan de Mediona","state_id":1203,"state_code":"CT","country_id":207,"country_code":"ES","latitude":"41.47862000","longitude":"1.61164000"},{"id":"36975","name":"Sant Joan de Vilatorrada","state_id":1203,"state_code":"CT","country_id":207,"country_code":"ES","latitude":"41.74549000","longitude":"1.80476000"},{"id":"36972","name":"Sant Joan Desp\u00ed","state_id":1203,"state_code":"CT","country_id":207,"country_code":"ES","latitude":"41.36718000","longitude":"2.05740000"},{"id":"36977","name":"Sant Joan les Fonts","state_id":1203,"state_code":"CT","country_id":207,"country_code":"ES","latitude":"42.21186000","longitude":"2.51291000"},{"id":"36979","name":"Sant Jordi Desvalls","state_id":1203,"state_code":"CT","country_id":207,"country_code":"ES","latitude":"42.06667000","longitude":"2.95000000"},{"id":"36981","name":"Sant Juli\u00e0 de Cerdanyola","state_id":1203,"state_code":"CT","country_id":207,"country_code":"ES","latitude":"42.22350000","longitude":"1.89308000"},{"id":"36982","name":"Sant Just Desvern","state_id":1203,"state_code":"CT","country_id":207,"country_code":"ES","latitude":"41.38389000","longitude":"2.06758000"},{"id":"36985","name":"Sant Mart\u00ed","state_id":1203,"state_code":"CT","country_id":207,"country_code":"ES","latitude":"41.41814000","longitude":"2.19933000"},{"id":"36988","name":"Sant Mart\u00ed de Centelles","state_id":1203,"state_code":"CT","country_id":207,"country_code":"ES","latitude":"41.76617000","longitude":"2.20566000"},{"id":"36989","name":"Sant Mart\u00ed de Proven\u00e7als","state_id":1203,"state_code":"CT","country_id":207,"country_code":"ES","latitude":"41.42020000","longitude":"2.19632000"},{"id":"36990","name":"Sant Mart\u00ed de Tous","state_id":1203,"state_code":"CT","country_id":207,"country_code":"ES","latitude":"41.55000000","longitude":"1.51667000"},{"id":"36986","name":"Sant Mart\u00ed Sarroca","state_id":1203,"state_code":"CT","country_id":207,"country_code":"ES","latitude":"41.38576000","longitude":"1.61121000"},{"id":"36987","name":"Sant Mart\u00ed Vell","state_id":1203,"state_code":"CT","country_id":207,"country_code":"ES","latitude":"42.01667000","longitude":"2.93333000"},{"id":"36991","name":"Sant Miquel de Campmajor","state_id":1203,"state_code":"CT","country_id":207,"country_code":"ES","latitude":"42.13333000","longitude":"2.68333000"},{"id":"36993","name":"Sant Pere de Ribes","state_id":1203,"state_code":"CT","country_id":207,"country_code":"ES","latitude":"41.26045000","longitude":"1.77391000"},{"id":"36994","name":"Sant Pere de Riudebitlles","state_id":1203,"state_code":"CT","country_id":207,"country_code":"ES","latitude":"41.45000000","longitude":"1.70000000"},{"id":"36992","name":"Sant Pere Pescador","state_id":1203,"state_code":"CT","country_id":207,"country_code":"ES","latitude":"42.18812000","longitude":"3.08212000"},{"id":"36995","name":"Sant Pere, Santa Caterina i La Ribera","state_id":1203,"state_code":"CT","country_id":207,"country_code":"ES","latitude":"41.38450000","longitude":"2.18152000"},{"id":"36996","name":"Sant Pol de Mar","state_id":1203,"state_code":"CT","country_id":207,"country_code":"ES","latitude":"41.60177000","longitude":"2.61741000"},{"id":"36997","name":"Sant Quirze del Vall\u00e8s","state_id":1203,"state_code":"CT","country_id":207,"country_code":"ES","latitude":"41.53333000","longitude":"2.08333000"},{"id":"36998","name":"Sant Sadurn\u00ed d'Anoia","state_id":1203,"state_code":"CT","country_id":207,"country_code":"ES","latitude":"41.42555000","longitude":"1.78519000"},{"id":"36999","name":"Sant Salvador de Guardiola","state_id":1203,"state_code":"CT","country_id":207,"country_code":"ES","latitude":"41.68333000","longitude":"1.76667000"},{"id":"37000","name":"Sant Vicen\u00e7 de Castellet","state_id":1203,"state_code":"CT","country_id":207,"country_code":"ES","latitude":"41.66667000","longitude":"1.86667000"},{"id":"37001","name":"Sant Vicen\u00e7 de Montalt","state_id":1203,"state_code":"CT","country_id":207,"country_code":"ES","latitude":"41.57853000","longitude":"2.50879000"},{"id":"37002","name":"Sant Vicen\u00e7 dels Horts","state_id":1203,"state_code":"CT","country_id":207,"country_code":"ES","latitude":"41.39317000","longitude":"2.00689000"},{"id":"37008","name":"Santa B\u00e1rbara","state_id":1203,"state_code":"CT","country_id":207,"country_code":"ES","latitude":"40.71542000","longitude":"0.49292000"},{"id":"37012","name":"Santa Cec\u00edlia de Voltreg\u00e0","state_id":1203,"state_code":"CT","country_id":207,"country_code":"ES","latitude":"42.00000000","longitude":"2.23333000"},{"id":"37015","name":"Santa Coloma de Cervell\u00f3","state_id":1203,"state_code":"CT","country_id":207,"country_code":"ES","latitude":"41.36736000","longitude":"2.01426000"},{"id":"37016","name":"Santa Coloma de Farners","state_id":1203,"state_code":"CT","country_id":207,"country_code":"ES","latitude":"41.86667000","longitude":"2.66667000"},{"id":"37017","name":"Santa Coloma de Gramenet","state_id":1203,"state_code":"CT","country_id":207,"country_code":"ES","latitude":"41.45152000","longitude":"2.20810000"},{"id":"37022","name":"Santa Cristina d'Aro","state_id":1203,"state_code":"CT","country_id":207,"country_code":"ES","latitude":"41.81667000","longitude":"3.00000000"},{"id":"37053","name":"Santa Eug\u00e8nia de Berga","state_id":1203,"state_code":"CT","country_id":207,"country_code":"ES","latitude":"41.90000000","longitude":"2.28333000"},{"id":"37057","name":"Santa Eul\u00e0lia de Ron\u00e7ana","state_id":1203,"state_code":"CT","country_id":207,"country_code":"ES","latitude":"41.65000000","longitude":"2.23333000"},{"id":"37065","name":"Santa Maria d'Ol\u00f3","state_id":1203,"state_code":"CT","country_id":207,"country_code":"ES","latitude":"41.86667000","longitude":"2.03333000"},{"id":"37066","name":"Santa Maria de Corc\u00f3","state_id":1203,"state_code":"CT","country_id":207,"country_code":"ES","latitude":"42.03333000","longitude":"2.36667000"},{"id":"37067","name":"Santa Maria de Palautordera","state_id":1203,"state_code":"CT","country_id":207,"country_code":"ES","latitude":"41.69417000","longitude":"2.44566000"},{"id":"37095","name":"Santa Oliva","state_id":1203,"state_code":"CT","country_id":207,"country_code":"ES","latitude":"41.25357000","longitude":"1.55086000"},{"id":"37096","name":"Santa Pau","state_id":1203,"state_code":"CT","country_id":207,"country_code":"ES","latitude":"42.14430000","longitude":"2.57123000"},{"id":"37097","name":"Santa Perp\u00e8tua de Mogoda","state_id":1203,"state_code":"CT","country_id":207,"country_code":"ES","latitude":"41.53333000","longitude":"2.18333000"},{"id":"37100","name":"Santa Susanna","state_id":1203,"state_code":"CT","country_id":207,"country_code":"ES","latitude":"41.63333000","longitude":"2.71667000"},{"id":"37151","name":"Sants","state_id":1203,"state_code":"CT","country_id":207,"country_code":"ES","latitude":"41.37426000","longitude":"2.13826000"},{"id":"37152","name":"Sants - Badal","state_id":1203,"state_code":"CT","country_id":207,"country_code":"ES","latitude":"41.37471000","longitude":"2.12775000"},{"id":"37153","name":"Sants-Montju\u00efc","state_id":1203,"state_code":"CT","country_id":207,"country_code":"ES","latitude":"41.37263000","longitude":"2.15460000"},{"id":"37170","name":"Sarri\u00e0","state_id":1203,"state_code":"CT","country_id":207,"country_code":"ES","latitude":"41.40269000","longitude":"2.11620000"},{"id":"37171","name":"Sarri\u00e0 de Ter","state_id":1203,"state_code":"CT","country_id":207,"country_code":"ES","latitude":"42.01667000","longitude":"2.83333000"},{"id":"37172","name":"Sarri\u00e0-Sant Gervasi","state_id":1203,"state_code":"CT","country_id":207,"country_code":"ES","latitude":"41.40104000","longitude":"2.13940000"},{"id":"37338","name":"S\u00faria","state_id":1203,"state_code":"CT","country_id":207,"country_code":"ES","latitude":"41.83333000","longitude":"1.75000000"},{"id":"37212","name":"Sentmenat","state_id":1203,"state_code":"CT","country_id":207,"country_code":"ES","latitude":"41.60862000","longitude":"2.13532000"},{"id":"37227","name":"Ser\u00f2s","state_id":1203,"state_code":"CT","country_id":207,"country_code":"ES","latitude":"41.46667000","longitude":"0.41667000"},{"id":"37219","name":"Serra de Dar\u00f3","state_id":1203,"state_code":"CT","country_id":207,"country_code":"ES","latitude":"42.02877000","longitude":"3.07222000"},{"id":"37238","name":"Seva","state_id":1203,"state_code":"CT","country_id":207,"country_code":"ES","latitude":"41.83831000","longitude":"2.28007000"},{"id":"37242","name":"Sidamon","state_id":1203,"state_code":"CT","country_id":207,"country_code":"ES","latitude":"41.63333000","longitude":"0.83333000"},{"id":"37257","name":"Sils","state_id":1203,"state_code":"CT","country_id":207,"country_code":"ES","latitude":"41.80842000","longitude":"2.74507000"},{"id":"37267","name":"Sitges","state_id":1203,"state_code":"CT","country_id":207,"country_code":"ES","latitude":"41.23506000","longitude":"1.81193000"},{"id":"37268","name":"Siurana","state_id":1203,"state_code":"CT","country_id":207,"country_code":"ES","latitude":"42.20916000","longitude":"2.99392000"},{"id":"37285","name":"Solsona","state_id":1203,"state_code":"CT","country_id":207,"country_code":"ES","latitude":"41.99395000","longitude":"1.51706000"},{"id":"37304","name":"Sort","state_id":1203,"state_code":"CT","country_id":207,"country_code":"ES","latitude":"42.41319000","longitude":"1.13045000"},{"id":"37308","name":"Soses","state_id":1203,"state_code":"CT","country_id":207,"country_code":"ES","latitude":"41.53333000","longitude":"0.48333000"},{"id":"37328","name":"Subirats","state_id":1203,"state_code":"CT","country_id":207,"country_code":"ES","latitude":"41.40000000","longitude":"1.83333000"},{"id":"37334","name":"Susqueda","state_id":1203,"state_code":"CT","country_id":207,"country_code":"ES","latitude":"41.97776000","longitude":"2.51652000"},{"id":"37349","name":"Tagamanent","state_id":1203,"state_code":"CT","country_id":207,"country_code":"ES","latitude":"41.73747000","longitude":"2.26720000"},{"id":"37353","name":"Talamanca","state_id":1203,"state_code":"CT","country_id":207,"country_code":"ES","latitude":"41.73740000","longitude":"1.97791000"},{"id":"37370","name":"Taradell","state_id":1203,"state_code":"CT","country_id":207,"country_code":"ES","latitude":"41.87495000","longitude":"2.28662000"},{"id":"37383","name":"Tarragona","state_id":1203,"state_code":"CT","country_id":207,"country_code":"ES","latitude":"41.11667000","longitude":"1.25000000"},{"id":"37388","name":"Tavertet","state_id":1203,"state_code":"CT","country_id":207,"country_code":"ES","latitude":"41.99572000","longitude":"2.41859000"},{"id":"37661","name":"T\u00e0rrega","state_id":1203,"state_code":"CT","country_id":207,"country_code":"ES","latitude":"41.64704000","longitude":"1.13957000"},{"id":"37665","name":"T\u00e9rmens","state_id":1203,"state_code":"CT","country_id":207,"country_code":"ES","latitude":"41.71667000","longitude":"0.76667000"},{"id":"37393","name":"Tei\u00e0","state_id":1203,"state_code":"CT","country_id":207,"country_code":"ES","latitude":"41.49804000","longitude":"2.32206000"},{"id":"37409","name":"Terrassa","state_id":1203,"state_code":"CT","country_id":207,"country_code":"ES","latitude":"41.56667000","longitude":"2.01667000"},{"id":"37419","name":"Tiana","state_id":1203,"state_code":"CT","country_id":207,"country_code":"ES","latitude":"41.48201000","longitude":"2.26702000"},{"id":"37432","name":"Tiurana","state_id":1203,"state_code":"CT","country_id":207,"country_code":"ES","latitude":"41.97527000","longitude":"1.25608000"},{"id":"37433","name":"Tivenys","state_id":1203,"state_code":"CT","country_id":207,"country_code":"ES","latitude":"40.90787000","longitude":"0.51236000"},{"id":"37446","name":"Toloriu","state_id":1203,"state_code":"CT","country_id":207,"country_code":"ES","latitude":"42.36210000","longitude":"1.62761000"},{"id":"37452","name":"Tona","state_id":1203,"state_code":"CT","country_id":207,"country_code":"ES","latitude":"41.84789000","longitude":"2.22808000"},{"id":"37600","name":"Tor\u00e0 de Riubreg\u00f3s","state_id":1203,"state_code":"CT","country_id":207,"country_code":"ES","latitude":"41.81667000","longitude":"1.40000000"},{"id":"37458","name":"Tordera","state_id":1203,"state_code":"CT","country_id":207,"country_code":"ES","latitude":"41.69914000","longitude":"2.71888000"},{"id":"37463","name":"Torell\u00f3","state_id":1203,"state_code":"CT","country_id":207,"country_code":"ES","latitude":"42.04627000","longitude":"2.26679000"},{"id":"37472","name":"Tornabous","state_id":1203,"state_code":"CT","country_id":207,"country_code":"ES","latitude":"41.70117000","longitude":"1.05384000"},{"id":"37488","name":"Torre Bar\u00f3","state_id":1203,"state_code":"CT","country_id":207,"country_code":"ES","latitude":"41.45490000","longitude":"2.17418000"},{"id":"37529","name":"Torredembarra","state_id":1203,"state_code":"CT","country_id":207,"country_code":"ES","latitude":"41.14505000","longitude":"1.39861000"},{"id":"37531","name":"Torrefarrera","state_id":1203,"state_code":"CT","country_id":207,"country_code":"ES","latitude":"41.67318000","longitude":"0.60671000"},{"id":"37549","name":"Torrelles de Llobregat","state_id":1203,"state_code":"CT","country_id":207,"country_code":"ES","latitude":"41.35000000","longitude":"1.98333000"},{"id":"37565","name":"Torrent","state_id":1203,"state_code":"CT","country_id":207,"country_code":"ES","latitude":"41.95243000","longitude":"3.12684000"},{"id":"37576","name":"Torres de Segre","state_id":1203,"state_code":"CT","country_id":207,"country_code":"ES","latitude":"41.53399000","longitude":"0.51420000"},{"id":"37590","name":"Torroella de Fluvi\u00e0","state_id":1203,"state_code":"CT","country_id":207,"country_code":"ES","latitude":"42.17522000","longitude":"3.04025000"},{"id":"37591","name":"Torroella de Montgr\u00ed","state_id":1203,"state_code":"CT","country_id":207,"country_code":"ES","latitude":"42.04254000","longitude":"3.12703000"},{"id":"37597","name":"Tortosa","state_id":1203,"state_code":"CT","country_id":207,"country_code":"ES","latitude":"40.81249000","longitude":"0.52160000"},{"id":"37604","name":"Tossa de Mar","state_id":1203,"state_code":"CT","country_id":207,"country_code":"ES","latitude":"41.71667000","longitude":"2.93333000"},{"id":"37628","name":"Tremp","state_id":1203,"state_code":"CT","country_id":207,"country_code":"ES","latitude":"42.16703000","longitude":"0.89487000"},{"id":"37680","name":"Ullastrell","state_id":1203,"state_code":"CT","country_id":207,"country_code":"ES","latitude":"41.52643000","longitude":"1.95537000"},{"id":"37683","name":"Ull\u00e0","state_id":1203,"state_code":"CT","country_id":207,"country_code":"ES","latitude":"42.04964000","longitude":"3.10754000"},{"id":"37681","name":"Ulldecona","state_id":1203,"state_code":"CT","country_id":207,"country_code":"ES","latitude":"40.59734000","longitude":"0.44718000"},{"id":"37682","name":"Ulldemolins","state_id":1203,"state_code":"CT","country_id":207,"country_code":"ES","latitude":"41.32216000","longitude":"0.87650000"},{"id":"37684","name":"Ultramort","state_id":1203,"state_code":"CT","country_id":207,"country_code":"ES","latitude":"42.03640000","longitude":"3.03455000"},{"id":"37702","name":"Ur\u00fas","state_id":1203,"state_code":"CT","country_id":207,"country_code":"ES","latitude":"42.35131000","longitude":"1.85343000"},{"id":"37839","name":"Vallbona","state_id":1203,"state_code":"CT","country_id":207,"country_code":"ES","latitude":"41.46341000","longitude":"2.18417000"},{"id":"37840","name":"Vallbona de les Monges","state_id":1203,"state_code":"CT","country_id":207,"country_code":"ES","latitude":"41.52631000","longitude":"1.08872000"},{"id":"37841","name":"Vallcarca","state_id":1203,"state_code":"CT","country_id":207,"country_code":"ES","latitude":"41.41209000","longitude":"2.14394000"},{"id":"37842","name":"Vallclara","state_id":1203,"state_code":"CT","country_id":207,"country_code":"ES","latitude":"41.37958000","longitude":"0.98342000"},{"id":"37858","name":"Vallfogona de Balaguer","state_id":1203,"state_code":"CT","country_id":207,"country_code":"ES","latitude":"41.75211000","longitude":"0.81385000"},{"id":"37859","name":"Vallgorguina","state_id":1203,"state_code":"CT","country_id":207,"country_code":"ES","latitude":"41.64822000","longitude":"2.50996000"},{"id":"37861","name":"Vallirana","state_id":1203,"state_code":"CT","country_id":207,"country_code":"ES","latitude":"41.38676000","longitude":"1.93205000"},{"id":"37862","name":"Vallmoll","state_id":1203,"state_code":"CT","country_id":207,"country_code":"ES","latitude":"41.24311000","longitude":"1.24900000"},{"id":"37863","name":"Valls","state_id":1203,"state_code":"CT","country_id":207,"country_code":"ES","latitude":"41.28612000","longitude":"1.24993000"},{"id":"37865","name":"Vallvidrera, el Tibidabo i les Planes","state_id":1203,"state_code":"CT","country_id":207,"country_code":"ES","latitude":"41.41970000","longitude":"2.08911000"},{"id":"37939","name":"Ventall\u00f3","state_id":1203,"state_code":"CT","country_id":207,"country_code":"ES","latitude":"42.14921000","longitude":"3.02635000"},{"id":"37950","name":"Verd\u00fa","state_id":1203,"state_code":"CT","country_id":207,"country_code":"ES","latitude":"41.61057000","longitude":"1.14284000"},{"id":"37949","name":"Verdun","state_id":1203,"state_code":"CT","country_id":207,"country_code":"ES","latitude":"41.44273000","longitude":"2.17564000"},{"id":"37953","name":"Verges","state_id":1203,"state_code":"CT","country_id":207,"country_code":"ES","latitude":"42.06283000","longitude":"3.04579000"},{"id":"37962","name":"Vic","state_id":1203,"state_code":"CT","country_id":207,"country_code":"ES","latitude":"41.93012000","longitude":"2.25486000"},{"id":"37967","name":"Vidr\u00e0","state_id":1203,"state_code":"CT","country_id":207,"country_code":"ES","latitude":"42.12285000","longitude":"2.30977000"},{"id":"37966","name":"Vidreres","state_id":1203,"state_code":"CT","country_id":207,"country_code":"ES","latitude":"41.78333000","longitude":"2.78333000"},{"id":"37968","name":"Vielha","state_id":1203,"state_code":"CT","country_id":207,"country_code":"ES","latitude":"42.70196000","longitude":"0.79556000"},{"id":"37973","name":"Vila-seca","state_id":1203,"state_code":"CT","country_id":207,"country_code":"ES","latitude":"41.11118000","longitude":"1.14764000"},{"id":"37974","name":"Vilabella","state_id":1203,"state_code":"CT","country_id":207,"country_code":"ES","latitude":"41.24779000","longitude":"1.33019000"},{"id":"37975","name":"Vilabertran","state_id":1203,"state_code":"CT","country_id":207,"country_code":"ES","latitude":"42.28255000","longitude":"2.98144000"},{"id":"37976","name":"Vilablareix","state_id":1203,"state_code":"CT","country_id":207,"country_code":"ES","latitude":"41.95746000","longitude":"2.77377000"},{"id":"37977","name":"Viladasens","state_id":1203,"state_code":"CT","country_id":207,"country_code":"ES","latitude":"42.08333000","longitude":"2.93333000"},{"id":"37978","name":"Viladecans","state_id":1203,"state_code":"CT","country_id":207,"country_code":"ES","latitude":"41.31405000","longitude":"2.01427000"},{"id":"37979","name":"Vilademuls","state_id":1203,"state_code":"CT","country_id":207,"country_code":"ES","latitude":"42.13890000","longitude":"2.88819000"},{"id":"37980","name":"Viladrau","state_id":1203,"state_code":"CT","country_id":207,"country_code":"ES","latitude":"41.84746000","longitude":"2.39019000"},{"id":"37981","name":"Vilafant","state_id":1203,"state_code":"CT","country_id":207,"country_code":"ES","latitude":"42.24668000","longitude":"2.93820000"},{"id":"37984","name":"Vilafranca del Pened\u00e8s","state_id":1203,"state_code":"CT","country_id":207,"country_code":"ES","latitude":"41.34618000","longitude":"1.69713000"},{"id":"37986","name":"Vilaju\u00efga","state_id":1203,"state_code":"CT","country_id":207,"country_code":"ES","latitude":"42.32533000","longitude":"3.09302000"},{"id":"37988","name":"Vilamacolum","state_id":1203,"state_code":"CT","country_id":207,"country_code":"ES","latitude":"42.19618000","longitude":"3.05662000"},{"id":"37989","name":"Vilamalla","state_id":1203,"state_code":"CT","country_id":207,"country_code":"ES","latitude":"42.21720000","longitude":"2.97009000"},{"id":"37990","name":"Vilamaniscle","state_id":1203,"state_code":"CT","country_id":207,"country_code":"ES","latitude":"42.37522000","longitude":"3.06755000"},{"id":"37992","name":"Vilanant","state_id":1203,"state_code":"CT","country_id":207,"country_code":"ES","latitude":"42.25471000","longitude":"2.88923000"},{"id":"37993","name":"Vilanova d'Escornalbou","state_id":1203,"state_code":"CT","country_id":207,"country_code":"ES","latitude":"41.11667000","longitude":"0.93333000"},{"id":"37995","name":"Vilanova de Bellpuig","state_id":1203,"state_code":"CT","country_id":207,"country_code":"ES","latitude":"41.61379000","longitude":"0.96432000"},{"id":"37996","name":"Vilanova de Prades","state_id":1203,"state_code":"CT","country_id":207,"country_code":"ES","latitude":"41.34850000","longitude":"0.95667000"},{"id":"37997","name":"Vilanova de Sau","state_id":1203,"state_code":"CT","country_id":207,"country_code":"ES","latitude":"41.94700000","longitude":"2.38440000"},{"id":"37998","name":"Vilanova del Cam\u00ed","state_id":1203,"state_code":"CT","country_id":207,"country_code":"ES","latitude":"41.57165000","longitude":"1.63751000"},{"id":"37999","name":"Vilanova i la Geltr\u00fa","state_id":1203,"state_code":"CT","country_id":207,"country_code":"ES","latitude":"41.22392000","longitude":"1.72511000"},{"id":"38000","name":"Vilapicina i la Torre Llobeta","state_id":1203,"state_code":"CT","country_id":207,"country_code":"ES","latitude":"41.42861000","longitude":"2.17410000"},{"id":"38001","name":"Vilaplana","state_id":1203,"state_code":"CT","country_id":207,"country_code":"ES","latitude":"41.22800000","longitude":"1.03325000"},{"id":"38003","name":"Vilaseca","state_id":1203,"state_code":"CT","country_id":207,"country_code":"ES","latitude":"42.06174000","longitude":"2.25528000"},{"id":"38004","name":"Vilassar de Mar","state_id":1203,"state_code":"CT","country_id":207,"country_code":"ES","latitude":"41.50507000","longitude":"2.39227000"},{"id":"38382","name":"Vilopriu","state_id":1203,"state_code":"CT","country_id":207,"country_code":"ES","latitude":"42.10000000","longitude":"3.00000000"},{"id":"38387","name":"Vimbod\u00ed","state_id":1203,"state_code":"CT","country_id":207,"country_code":"ES","latitude":"41.40069000","longitude":"1.05056000"},{"id":"38389","name":"Vinaixa","state_id":1203,"state_code":"CT","country_id":207,"country_code":"ES","latitude":"41.43333000","longitude":"0.98333000"},{"id":"38393","name":"Vinebre","state_id":1203,"state_code":"CT","country_id":207,"country_code":"ES","latitude":"41.18464000","longitude":"0.58945000"}]