[{"id":"97644","name":"Anuchino","state_id":1833,"state_code":"PRI","country_id":182,"country_code":"RU","latitude":"43.96571000","longitude":"133.05846000"},{"id":"97645","name":"Anuchinskiy Rayon","state_id":1833,"state_code":"PRI","country_id":182,"country_code":"RU","latitude":"44.00000000","longitude":"133.00000000"},{"id":"97678","name":"Arsen\u2019yev","state_id":1833,"state_code":"PRI","country_id":182,"country_code":"RU","latitude":"44.15254000","longitude":"133.27791000"},{"id":"97686","name":"Art\u00ebm","state_id":1833,"state_code":"PRI","country_id":182,"country_code":"RU","latitude":"43.35950000","longitude":"132.18887000"},{"id":"97789","name":"Barabash","state_id":1833,"state_code":"PRI","country_id":182,"country_code":"RU","latitude":"43.19948000","longitude":"131.49185000"},{"id":"97946","name":"Blagodatnoye","state_id":1833,"state_code":"PRI","country_id":182,"country_code":"RU","latitude":"44.32285000","longitude":"132.09050000"},{"id":"98008","name":"Bol\u2019shoy Kamen\u2019","state_id":1833,"state_code":"PRI","country_id":182,"country_code":"RU","latitude":"43.11283000","longitude":"132.35400000"},{"id":"98166","name":"Chernigovka","state_id":1833,"state_code":"PRI","country_id":182,"country_code":"RU","latitude":"44.34216000","longitude":"132.56937000"},{"id":"98167","name":"Chernigovskiy Rayon","state_id":1833,"state_code":"PRI","country_id":182,"country_code":"RU","latitude":"44.33333000","longitude":"132.58333000"},{"id":"98182","name":"Chernysh\u00ebvka","state_id":1833,"state_code":"PRI","country_id":182,"country_code":"RU","latitude":"44.19971000","longitude":"133.13193000"},{"id":"98208","name":"Chkalovskoye","state_id":1833,"state_code":"PRI","country_id":182,"country_code":"RU","latitude":"44.83808000","longitude":"133.04332000"},{"id":"98217","name":"Chuguyevka","state_id":1833,"state_code":"PRI","country_id":182,"country_code":"RU","latitude":"44.16652000","longitude":"133.86495000"},{"id":"98237","name":"Dalnegorsk","state_id":1833,"state_code":"PRI","country_id":182,"country_code":"RU","latitude":"44.55745000","longitude":"135.62090000"},{"id":"98238","name":"Dalnerechensk","state_id":1833,"state_code":"PRI","country_id":182,"country_code":"RU","latitude":"45.93149000","longitude":"133.73906000"},{"id":"98323","name":"Dostoyevka","state_id":1833,"state_code":"PRI","country_id":182,"country_code":"RU","latitude":"44.32554000","longitude":"133.48134000"},{"id":"98356","name":"Dunay","state_id":1833,"state_code":"PRI","country_id":182,"country_code":"RU","latitude":"42.87881000","longitude":"132.33521000"},{"id":"98392","name":"Emar","state_id":1833,"state_code":"PRI","country_id":182,"country_code":"RU","latitude":"43.20417000","longitude":"132.15643000"},{"id":"98433","name":"Fokino","state_id":1833,"state_code":"PRI","country_id":182,"country_code":"RU","latitude":"42.97429000","longitude":"132.40574000"},{"id":"98532","name":"Gornorechenskiy","state_id":1833,"state_code":"PRI","country_id":182,"country_code":"RU","latitude":"44.26555000","longitude":"135.11465000"},{"id":"98545","name":"Gornyye Klyuchi","state_id":1833,"state_code":"PRI","country_id":182,"country_code":"RU","latitude":"45.24221000","longitude":"133.50601000"},{"id":"98580","name":"Grazhdanka","state_id":1833,"state_code":"PRI","country_id":182,"country_code":"RU","latitude":"44.21630000","longitude":"133.17706000"},{"id":"98730","name":"Ivanovka","state_id":1833,"state_code":"PRI","country_id":182,"country_code":"RU","latitude":"43.96879000","longitude":"132.48331000"},{"id":"98823","name":"Kamen\u2019-Rybolov","state_id":1833,"state_code":"PRI","country_id":182,"country_code":"RU","latitude":"44.74520000","longitude":"132.04650000"},{"id":"98814","name":"Kamenka","state_id":1833,"state_code":"PRI","country_id":182,"country_code":"RU","latitude":"44.45865000","longitude":"136.01403000"},{"id":"98912","name":"Kavalerovo","state_id":1833,"state_code":"PRI","country_id":182,"country_code":"RU","latitude":"44.27221000","longitude":"135.05227000"},{"id":"98969","name":"Khasanskiy Rayon","state_id":1833,"state_code":"PRI","country_id":182,"country_code":"RU","latitude":"42.75000000","longitude":"131.00000000"},{"id":"99007","name":"Khorol\u2019","state_id":1833,"state_code":"PRI","country_id":182,"country_code":"RU","latitude":"44.42631000","longitude":"132.07638000"},{"id":"99069","name":"Kirovskiy","state_id":1833,"state_code":"PRI","country_id":182,"country_code":"RU","latitude":"45.09272000","longitude":"133.50084000"},{"id":"99113","name":"Knevichi","state_id":1833,"state_code":"PRI","country_id":182,"country_code":"RU","latitude":"43.39975000","longitude":"132.18808000"},{"id":"99275","name":"Kraskino","state_id":1833,"state_code":"PRI","country_id":182,"country_code":"RU","latitude":"42.71071000","longitude":"130.78126000"},{"id":"99331","name":"Krasnorechenskiy","state_id":1833,"state_code":"PRI","country_id":182,"country_code":"RU","latitude":"44.62807000","longitude":"135.35262000"},{"id":"99550","name":"Lazo","state_id":1833,"state_code":"PRI","country_id":182,"country_code":"RU","latitude":"43.38563000","longitude":"133.90610000"},{"id":"99551","name":"Lazovskiy Rayon","state_id":1833,"state_code":"PRI","country_id":182,"country_code":"RU","latitude":"43.25000000","longitude":"134.00000000"},{"id":"99605","name":"Lesozavodsk","state_id":1833,"state_code":"PRI","country_id":182,"country_code":"RU","latitude":"45.47885000","longitude":"133.42825000"},{"id":"99635","name":"Lipovtsy","state_id":1833,"state_code":"PRI","country_id":182,"country_code":"RU","latitude":"44.20018000","longitude":"131.72373000"},{"id":"99642","name":"Livadiya","state_id":1833,"state_code":"PRI","country_id":182,"country_code":"RU","latitude":"42.86820000","longitude":"132.67367000"},{"id":"99678","name":"Luchegorsk","state_id":1833,"state_code":"PRI","country_id":182,"country_code":"RU","latitude":"46.47656000","longitude":"134.19532000"},{"id":"99679","name":"Luchki","state_id":1833,"state_code":"PRI","country_id":182,"country_code":"RU","latitude":"44.28613000","longitude":"132.25975000"},{"id":"99700","name":"Lyalichi","state_id":1833,"state_code":"PRI","country_id":182,"country_code":"RU","latitude":"44.07352000","longitude":"132.38991000"},{"id":"99898","name":"Mikhaylovka","state_id":1833,"state_code":"PRI","country_id":182,"country_code":"RU","latitude":"43.93283000","longitude":"132.00911000"},{"id":"99903","name":"Mikhaylovskiy Rayon","state_id":1833,"state_code":"PRI","country_id":182,"country_code":"RU","latitude":"44.00000000","longitude":"132.00000000"},{"id":"99935","name":"Mnogoudobnoye","state_id":1833,"state_code":"PRI","country_id":182,"country_code":"RU","latitude":"43.46802000","longitude":"132.46675000"},{"id":"99955","name":"Monastyrishche","state_id":1833,"state_code":"PRI","country_id":182,"country_code":"RU","latitude":"44.19641000","longitude":"132.50223000"},{"id":"100040","name":"Nadezhdinskiy Rayon","state_id":1833,"state_code":"PRI","country_id":182,"country_code":"RU","latitude":"43.41667000","longitude":"132.00000000"},{"id":"100052","name":"Nakhodka","state_id":1833,"state_code":"PRI","country_id":182,"country_code":"RU","latitude":"42.81384000","longitude":"132.87348000"},{"id":"100271","name":"Novonikol\u2019sk","state_id":1833,"state_code":"PRI","country_id":182,"country_code":"RU","latitude":"43.85518000","longitude":"131.86257000"},{"id":"100285","name":"Novopokrovka","state_id":1833,"state_code":"PRI","country_id":182,"country_code":"RU","latitude":"45.85296000","longitude":"134.50035000"},{"id":"100298","name":"Novoshakhtinskiy","state_id":1833,"state_code":"PRI","country_id":182,"country_code":"RU","latitude":"44.02576000","longitude":"132.16583000"},{"id":"100312","name":"Novosysoyevka","state_id":1833,"state_code":"PRI","country_id":182,"country_code":"RU","latitude":"44.23470000","longitude":"133.36420000"},{"id":"100339","name":"Novyy","state_id":1833,"state_code":"PRI","country_id":182,"country_code":"RU","latitude":"43.36438000","longitude":"132.02109000"},{"id":"100431","name":"Ol\u2019ga","state_id":1833,"state_code":"PRI","country_id":182,"country_code":"RU","latitude":"43.74735000","longitude":"135.29090000"},{"id":"100555","name":"Partizansk","state_id":1833,"state_code":"PRI","country_id":182,"country_code":"RU","latitude":"43.12165000","longitude":"133.12347000"},{"id":"100695","name":"Plastun","state_id":1833,"state_code":"PRI","country_id":182,"country_code":"RU","latitude":"44.76077000","longitude":"136.28048000"},{"id":"100737","name":"Pogranichnyy","state_id":1833,"state_code":"PRI","country_id":182,"country_code":"RU","latitude":"44.40970000","longitude":"131.37780000"},{"id":"100743","name":"Pokrovka","state_id":1833,"state_code":"PRI","country_id":182,"country_code":"RU","latitude":"43.95331000","longitude":"131.63443000"},{"id":"100771","name":"Popova","state_id":1833,"state_code":"PRI","country_id":182,"country_code":"RU","latitude":"42.96096000","longitude":"131.72494000"},{"id":"100811","name":"Preobrazheniye","state_id":1833,"state_code":"PRI","country_id":182,"country_code":"RU","latitude":"42.90117000","longitude":"133.90430000"},{"id":"100832","name":"Primorskiy","state_id":1833,"state_code":"PRI","country_id":182,"country_code":"RU","latitude":"43.09962000","longitude":"131.58938000"},{"id":"100905","name":"Putyatin","state_id":1833,"state_code":"PRI","country_id":182,"country_code":"RU","latitude":"42.86179000","longitude":"132.41564000"},{"id":"100950","name":"Razdol\u2019noye","state_id":1833,"state_code":"PRI","country_id":182,"country_code":"RU","latitude":"43.53894000","longitude":"131.89691000"},{"id":"100966","name":"Rettikhovka","state_id":1833,"state_code":"PRI","country_id":182,"country_code":"RU","latitude":"44.17038000","longitude":"132.77083000"},{"id":"100988","name":"Romanovka","state_id":1833,"state_code":"PRI","country_id":182,"country_code":"RU","latitude":"43.23294000","longitude":"132.45714000"},{"id":"101021","name":"Rudnaya Pristan\u2019","state_id":1833,"state_code":"PRI","country_id":182,"country_code":"RU","latitude":"44.35812000","longitude":"135.81478000"},{"id":"101026","name":"Rudnyy","state_id":1833,"state_code":"PRI","country_id":182,"country_code":"RU","latitude":"44.27759000","longitude":"134.96106000"},{"id":"101031","name":"Russkiy","state_id":1833,"state_code":"PRI","country_id":182,"country_code":"RU","latitude":"43.02240000","longitude":"131.86010000"},{"id":"101181","name":"Sergeyevka","state_id":1833,"state_code":"PRI","country_id":182,"country_code":"RU","latitude":"43.34909000","longitude":"133.35972000"},{"id":"101333","name":"Shkotovo","state_id":1833,"state_code":"PRI","country_id":182,"country_code":"RU","latitude":"43.32092000","longitude":"132.35433000"},{"id":"101334","name":"Shkotovskiy Rayon","state_id":1833,"state_code":"PRI","country_id":182,"country_code":"RU","latitude":"43.33333000","longitude":"132.58333000"},{"id":"101341","name":"Shtykovo","state_id":1833,"state_code":"PRI","country_id":182,"country_code":"RU","latitude":"43.38918000","longitude":"132.36129000"},{"id":"101384","name":"Sivakovka","state_id":1833,"state_code":"PRI","country_id":182,"country_code":"RU","latitude":"44.47838000","longitude":"132.36718000"},{"id":"101404","name":"Slavyanka","state_id":1833,"state_code":"PRI","country_id":182,"country_code":"RU","latitude":"42.86413000","longitude":"131.38820000"},{"id":"101420","name":"Smolyaninovo","state_id":1833,"state_code":"PRI","country_id":182,"country_code":"RU","latitude":"43.28801000","longitude":"132.45586000"},{"id":"101528","name":"Spassk-Dal\u2019niy","state_id":1833,"state_code":"PRI","country_id":182,"country_code":"RU","latitude":"44.59884000","longitude":"132.82593000"},{"id":"101532","name":"Spasskiy Rayon","state_id":1833,"state_code":"PRI","country_id":182,"country_code":"RU","latitude":"44.50000000","longitude":"133.00000000"},{"id":"101534","name":"Spasskoye","state_id":1833,"state_code":"PRI","country_id":182,"country_code":"RU","latitude":"44.61215000","longitude":"132.80007000"},{"id":"101700","name":"Svetlaya","state_id":1833,"state_code":"PRI","country_id":182,"country_code":"RU","latitude":"46.54217000","longitude":"138.32973000"},{"id":"101800","name":"Tavrichanka","state_id":1833,"state_code":"PRI","country_id":182,"country_code":"RU","latitude":"43.32551000","longitude":"131.86264000"},{"id":"101833","name":"Terney","state_id":1833,"state_code":"PRI","country_id":182,"country_code":"RU","latitude":"45.05278000","longitude":"136.60881000"},{"id":"101933","name":"Trudovoye","state_id":1833,"state_code":"PRI","country_id":182,"country_code":"RU","latitude":"43.29823000","longitude":"132.06877000"},{"id":"102030","name":"Uglekamensk","state_id":1833,"state_code":"PRI","country_id":182,"country_code":"RU","latitude":"43.21996000","longitude":"133.23177000"},{"id":"102037","name":"Uglovoye","state_id":1833,"state_code":"PRI","country_id":182,"country_code":"RU","latitude":"43.32807000","longitude":"132.08832000"},{"id":"102105","name":"Ussuriysk","state_id":1833,"state_code":"PRI","country_id":182,"country_code":"RU","latitude":"43.80291000","longitude":"131.94578000"},{"id":"102327","name":"Vladimiro-Aleksandrovskoye","state_id":1833,"state_code":"PRI","country_id":182,"country_code":"RU","latitude":"42.89134000","longitude":"133.07801000"},{"id":"102330","name":"Vladivostok","state_id":1833,"state_code":"PRI","country_id":182,"country_code":"RU","latitude":"43.10562000","longitude":"131.87353000"},{"id":"102372","name":"Vol\u2019no-Nadezhdinskoye","state_id":1833,"state_code":"PRI","country_id":182,"country_code":"RU","latitude":"43.37496000","longitude":"131.99675000"},{"id":"102338","name":"Volchanets","state_id":1833,"state_code":"PRI","country_id":182,"country_code":"RU","latitude":"42.91388000","longitude":"132.76222000"},{"id":"102400","name":"Vostok","state_id":1833,"state_code":"PRI","country_id":182,"country_code":"RU","latitude":"46.45148000","longitude":"135.82738000"},{"id":"102406","name":"Vozdvizhenka","state_id":1833,"state_code":"PRI","country_id":182,"country_code":"RU","latitude":"43.89413000","longitude":"131.94589000"},{"id":"102412","name":"Vrangel\u2019","state_id":1833,"state_code":"PRI","country_id":182,"country_code":"RU","latitude":"42.73021000","longitude":"133.08322000"},{"id":"102466","name":"Yakovlevka","state_id":1833,"state_code":"PRI","country_id":182,"country_code":"RU","latitude":"44.42588000","longitude":"133.47406000"},{"id":"102470","name":"Yakovlevskiy Rayon","state_id":1833,"state_code":"PRI","country_id":182,"country_code":"RU","latitude":"44.41667000","longitude":"133.50000000"},{"id":"102502","name":"Yaroslavskiy","state_id":1833,"state_code":"PRI","country_id":182,"country_code":"RU","latitude":"44.18578000","longitude":"132.22862000"},{"id":"102530","name":"Yekaterinovka","state_id":1833,"state_code":"PRI","country_id":182,"country_code":"RU","latitude":"42.92525000","longitude":"133.04922000"},{"id":"102661","name":"Zarubino","state_id":1833,"state_code":"PRI","country_id":182,"country_code":"RU","latitude":"42.63257000","longitude":"131.09005000"},{"id":"102677","name":"Zavodskoy","state_id":1833,"state_code":"PRI","country_id":182,"country_code":"RU","latitude":"43.46242000","longitude":"132.28494000"},{"id":"102712","name":"Zharikovo","state_id":1833,"state_code":"PRI","country_id":182,"country_code":"RU","latitude":"44.58800000","longitude":"131.72770000"}]