[{"id":"97672","name":"Arman\u2019","state_id":1839,"state_code":"MAG","country_id":182,"country_code":"RU","latitude":"59.66994000","longitude":"150.13164000"},{"id":"98349","name":"Dukat","state_id":1839,"state_code":"MAG","country_id":182,"country_code":"RU","latitude":"62.57231000","longitude":"155.34988000"},{"id":"98409","name":"Evensk","state_id":1839,"state_code":"MAG","country_id":182,"country_code":"RU","latitude":"61.91722000","longitude":"159.23348000"},{"id":"98552","name":"Gorod Magadan","state_id":1839,"state_code":"MAG","country_id":182,"country_code":"RU","latitude":"59.56029000","longitude":"150.79843000"},{"id":"98999","name":"Kholodnyy","state_id":1839,"state_code":"MAG","country_id":182,"country_code":"RU","latitude":"62.71333000","longitude":"147.91361000"},{"id":"99730","name":"Magadan","state_id":1839,"state_code":"MAG","country_id":182,"country_code":"RU","latitude":"59.56380000","longitude":"150.80347000"},{"id":"100028","name":"Myaundzha","state_id":1839,"state_code":"MAG","country_id":182,"country_code":"RU","latitude":"63.04996000","longitude":"147.18438000"},{"id":"100419","name":"Ola","state_id":1839,"state_code":"MAG","country_id":182,"country_code":"RU","latitude":"59.57823000","longitude":"151.29819000"},{"id":"100439","name":"Ol\u2019skiy Rayon","state_id":1839,"state_code":"MAG","country_id":182,"country_code":"RU","latitude":"60.00000000","longitude":"153.00000000"},{"id":"100441","name":"Omsukchan","state_id":1839,"state_code":"MAG","country_id":182,"country_code":"RU","latitude":"62.51575000","longitude":"155.79038000"},{"id":"100442","name":"Omsukchanskiy Rayon","state_id":1839,"state_code":"MAG","country_id":182,"country_code":"RU","latitude":"63.00000000","longitude":"156.33333000"},{"id":"100476","name":"Orotukan","state_id":1839,"state_code":"MAG","country_id":182,"country_code":"RU","latitude":"62.26423000","longitude":"151.67153000"},{"id":"100528","name":"Palatka","state_id":1839,"state_code":"MAG","country_id":182,"country_code":"RU","latitude":"60.10183000","longitude":"150.93433000"},{"id":"101226","name":"Seymchan","state_id":1839,"state_code":"MAG","country_id":182,"country_code":"RU","latitude":"62.93373000","longitude":"152.39109000"},{"id":"101372","name":"Sinegor'ye","state_id":1839,"state_code":"MAG","country_id":182,"country_code":"RU","latitude":"62.08782000","longitude":"150.52162000"},{"id":"101435","name":"Sokol","state_id":1839,"state_code":"MAG","country_id":182,"country_code":"RU","latitude":"59.91834000","longitude":"150.74956000"},{"id":"101542","name":"Srednekanskiy Rayon","state_id":1839,"state_code":"MAG","country_id":182,"country_code":"RU","latitude":"64.00000000","longitude":"153.50000000"},{"id":"101685","name":"Susuman","state_id":1839,"state_code":"MAG","country_id":182,"country_code":"RU","latitude":"62.78075000","longitude":"148.15396000"},{"id":"101748","name":"Talaya","state_id":1839,"state_code":"MAG","country_id":182,"country_code":"RU","latitude":"61.37038000","longitude":"152.76878000"},{"id":"102068","name":"Uptar","state_id":1839,"state_code":"MAG","country_id":182,"country_code":"RU","latitude":"59.89923000","longitude":"150.87376000"},{"id":"102137","name":"Ust\u2019-Omchug","state_id":1839,"state_code":"MAG","country_id":182,"country_code":"RU","latitude":"61.13336000","longitude":"149.63283000"},{"id":"102461","name":"Yagodnoye","state_id":1839,"state_code":"MAG","country_id":182,"country_code":"RU","latitude":"62.52406000","longitude":"149.62827000"}]