[{"id":"97745","name":"Babushkin","state_id":1842,"state_code":"BU","country_id":182,"country_code":"RU","latitude":"51.71222000","longitude":"105.86472000"},{"id":"97753","name":"Bagdarin","state_id":1842,"state_code":"BU","country_id":182,"country_code":"RU","latitude":"54.43333000","longitude":"113.60000000"},{"id":"97794","name":"Barguzin","state_id":1842,"state_code":"BU","country_id":182,"country_code":"RU","latitude":"53.61875000","longitude":"109.63904000"},{"id":"97822","name":"Bayangol","state_id":1842,"state_code":"BU","country_id":182,"country_code":"RU","latitude":"50.69770000","longitude":"103.46560000"},{"id":"97925","name":"Bichura","state_id":1842,"state_code":"BU","country_id":182,"country_code":"RU","latitude":"50.58806000","longitude":"107.60222000"},{"id":"98011","name":"Bol\u2019shoy Kunaley","state_id":1842,"state_code":"BU","country_id":182,"country_code":"RU","latitude":"51.43203000","longitude":"107.60890000"},{"id":"98377","name":"Dzhida","state_id":1842,"state_code":"BU","country_id":182,"country_code":"RU","latitude":"50.67722000","longitude":"106.18056000"},{"id":"98620","name":"Gusinoozyorsk","state_id":1842,"state_code":"BU","country_id":182,"country_code":"RU","latitude":"51.28333000","longitude":"106.50000000"},{"id":"98621","name":"Gusinoye Ozero","state_id":1842,"state_code":"BU","country_id":182,"country_code":"RU","latitude":"51.11444000","longitude":"106.26139000"},{"id":"98652","name":"Il\u2019inka","state_id":1842,"state_code":"BU","country_id":182,"country_code":"RU","latitude":"52.11944000","longitude":"107.27083000"},{"id":"98659","name":"Il\u2019ka","state_id":1842,"state_code":"BU","country_id":182,"country_code":"RU","latitude":"51.72114000","longitude":"108.52169000"},{"id":"98718","name":"Istok","state_id":1842,"state_code":"BU","country_id":182,"country_code":"RU","latitude":"52.09528000","longitude":"106.24750000"},{"id":"98741","name":"Ivolginsk","state_id":1842,"state_code":"BU","country_id":182,"country_code":"RU","latitude":"51.74919000","longitude":"107.28374000"},{"id":"98742","name":"Ivolginskiy Rayon","state_id":1842,"state_code":"BU","country_id":182,"country_code":"RU","latitude":"51.83333000","longitude":"107.33333000"},{"id":"98764","name":"Kabansk","state_id":1842,"state_code":"BU","country_id":182,"country_code":"RU","latitude":"52.04861000","longitude":"106.65278000"},{"id":"99000","name":"Kholtoson","state_id":1842,"state_code":"BU","country_id":182,"country_code":"RU","latitude":"50.29810000","longitude":"103.30970000"},{"id":"99003","name":"Khonkholoy","state_id":1842,"state_code":"BU","country_id":182,"country_code":"RU","latitude":"51.13186000","longitude":"108.22515000"},{"id":"99005","name":"Khorinsk","state_id":1842,"state_code":"BU","country_id":182,"country_code":"RU","latitude":"52.16631000","longitude":"109.77626000"},{"id":"99031","name":"Kichera","state_id":1842,"state_code":"BU","country_id":182,"country_code":"RU","latitude":"55.93874000","longitude":"110.10122000"},{"id":"99089","name":"Kizhinga","state_id":1842,"state_code":"BU","country_id":182,"country_code":"RU","latitude":"51.84760000","longitude":"109.90795000"},{"id":"99418","name":"Kudara-Somon","state_id":1842,"state_code":"BU","country_id":182,"country_code":"RU","latitude":"50.15472000","longitude":"107.40139000"},{"id":"99478","name":"Kurumkan","state_id":1842,"state_code":"BU","country_id":182,"country_code":"RU","latitude":"54.32093000","longitude":"110.30651000"},{"id":"99516","name":"Kyakhta","state_id":1842,"state_code":"BU","country_id":182,"country_code":"RU","latitude":"50.35737000","longitude":"106.45033000"},{"id":"99519","name":"Kyren","state_id":1842,"state_code":"BU","country_id":182,"country_code":"RU","latitude":"51.68280000","longitude":"102.14080000"},{"id":"99998","name":"Mukhorshibir\u2019","state_id":1842,"state_code":"BU","country_id":182,"country_code":"RU","latitude":"51.04986000","longitude":"107.82997000"},{"id":"99997","name":"Mukhorshibirskiy Rayon","state_id":1842,"state_code":"BU","country_id":182,"country_code":"RU","latitude":"51.08333000","longitude":"107.75000000"},{"id":"100024","name":"Muyskiy Rayon","state_id":1842,"state_code":"BU","country_id":182,"country_code":"RU","latitude":"56.33333000","longitude":"115.00000000"},{"id":"100069","name":"Naushki","state_id":1842,"state_code":"BU","country_id":182,"country_code":"RU","latitude":"50.38278000","longitude":"106.10556000"},{"id":"100138","name":"Nikolayevskiy","state_id":1842,"state_code":"BU","country_id":182,"country_code":"RU","latitude":"51.65526000","longitude":"107.80068000"},{"id":"100145","name":"Nikol\u2019sk","state_id":1842,"state_code":"BU","country_id":182,"country_code":"RU","latitude":"51.18867000","longitude":"108.32187000"},{"id":"100150","name":"Nizhneangarsk","state_id":1842,"state_code":"BU","country_id":182,"country_code":"RU","latitude":"55.79326000","longitude":"109.58029000"},{"id":"100175","name":"Nizhniy Sayantuy","state_id":1842,"state_code":"BU","country_id":182,"country_code":"RU","latitude":"51.73751000","longitude":"107.51308000"},{"id":"100200","name":"Novaya Bryan\u2019","state_id":1842,"state_code":"BU","country_id":182,"country_code":"RU","latitude":"51.71699000","longitude":"108.27014000"},{"id":"100251","name":"Novokizhinginsk","state_id":1842,"state_code":"BU","country_id":182,"country_code":"RU","latitude":"51.61620000","longitude":"109.60265000"},{"id":"100351","name":"Novyy Uoyan","state_id":1842,"state_code":"BU","country_id":182,"country_code":"RU","latitude":"56.15722000","longitude":"111.70556000"},{"id":"100355","name":"Novyy Zagan","state_id":1842,"state_code":"BU","country_id":182,"country_code":"RU","latitude":"51.02858000","longitude":"107.76376000"},{"id":"100404","name":"Okino-Klyuchi","state_id":1842,"state_code":"BU","country_id":182,"country_code":"RU","latitude":"50.59389000","longitude":"107.10944000"},{"id":"100405","name":"Okinskiy Rayon","state_id":1842,"state_code":"BU","country_id":182,"country_code":"RU","latitude":"52.50000000","longitude":"100.50000000"},{"id":"100451","name":"Onokhoy","state_id":1842,"state_code":"BU","country_id":182,"country_code":"RU","latitude":"51.92859000","longitude":"108.06693000"},{"id":"100469","name":"Orlik","state_id":1842,"state_code":"BU","country_id":182,"country_code":"RU","latitude":"52.51780000","longitude":"99.82500000"},{"id":"100651","name":"Petropavlovka","state_id":1842,"state_code":"BU","country_id":182,"country_code":"RU","latitude":"50.61140000","longitude":"105.31960000"},{"id":"100816","name":"Pribaykal\u2019skiy Rayon","state_id":1842,"state_code":"BU","country_id":182,"country_code":"RU","latitude":"52.50000000","longitude":"108.00000000"},{"id":"100957","name":"Rechka-Vydrino","state_id":1842,"state_code":"BU","country_id":182,"country_code":"RU","latitude":"51.48920000","longitude":"104.84290000"},{"id":"101072","name":"Sagan-Nur","state_id":1842,"state_code":"BU","country_id":182,"country_code":"RU","latitude":"51.34360000","longitude":"108.44490000"},{"id":"101151","name":"Selenduma","state_id":1842,"state_code":"BU","country_id":182,"country_code":"RU","latitude":"50.91306000","longitude":"106.24056000"},{"id":"101152","name":"Selenginskiy Rayon","state_id":1842,"state_code":"BU","country_id":182,"country_code":"RU","latitude":"51.16667000","longitude":"106.33333000"},{"id":"101211","name":"Severo-Baykal\u2019skiy Rayon","state_id":1842,"state_code":"BU","country_id":182,"country_code":"RU","latitude":"56.00000000","longitude":"111.50000000"},{"id":"101216","name":"Severobaykal\u2019sk","state_id":1842,"state_code":"BU","country_id":182,"country_code":"RU","latitude":"55.63695000","longitude":"109.32297000"},{"id":"101220","name":"Severomuysk","state_id":1842,"state_code":"BU","country_id":182,"country_code":"RU","latitude":"56.14806000","longitude":"113.42667000"},{"id":"101257","name":"Sharalday","state_id":1842,"state_code":"BU","country_id":182,"country_code":"RU","latitude":"51.02528000","longitude":"107.64487000"},{"id":"101434","name":"Sokol","state_id":1842,"state_code":"BU","country_id":182,"country_code":"RU","latitude":"51.80036000","longitude":"107.44437000"},{"id":"101492","name":"Sosnovo-Ozerskoye","state_id":1842,"state_code":"BU","country_id":182,"country_code":"RU","latitude":"52.52466000","longitude":"111.54124000"},{"id":"101500","name":"Sotnikovo","state_id":1842,"state_code":"BU","country_id":182,"country_code":"RU","latitude":"51.88448000","longitude":"107.48250000"},{"id":"101745","name":"Taksimo","state_id":1842,"state_code":"BU","country_id":182,"country_code":"RU","latitude":"56.34162000","longitude":"114.90048000"},{"id":"101766","name":"Tankhoy","state_id":1842,"state_code":"BU","country_id":182,"country_code":"RU","latitude":"51.55683000","longitude":"105.12620000"},{"id":"101772","name":"Tarbagatay","state_id":1842,"state_code":"BU","country_id":182,"country_code":"RU","latitude":"51.48195000","longitude":"107.36158000"},{"id":"101796","name":"Tataurovo","state_id":1842,"state_code":"BU","country_id":182,"country_code":"RU","latitude":"52.14182000","longitude":"107.44054000"},{"id":"101978","name":"Turka","state_id":1842,"state_code":"BU","country_id":182,"country_code":"RU","latitude":"52.94920000","longitude":"108.22170000"},{"id":"101983","name":"Turuntayevo","state_id":1842,"state_code":"BU","country_id":182,"country_code":"RU","latitude":"52.20203000","longitude":"107.64484000"},{"id":"102044","name":"Ulan-Ude","state_id":1842,"state_code":"BU","country_id":182,"country_code":"RU","latitude":"51.82721000","longitude":"107.60627000"},{"id":"102115","name":"Ust\u2019-Barguzin","state_id":1842,"state_code":"BU","country_id":182,"country_code":"RU","latitude":"53.41116000","longitude":"109.03103000"},{"id":"102428","name":"Vydrino","state_id":1842,"state_code":"BU","country_id":182,"country_code":"RU","latitude":"51.46300000","longitude":"104.64250000"},{"id":"102630","name":"Zaigrayevo","state_id":1842,"state_code":"BU","country_id":182,"country_code":"RU","latitude":"51.83487000","longitude":"108.26700000"},{"id":"102633","name":"Zakamensk","state_id":1842,"state_code":"BU","country_id":182,"country_code":"RU","latitude":"50.37410000","longitude":"103.28630000"},{"id":"102655","name":"Zarechnyy","state_id":1842,"state_code":"BU","country_id":182,"country_code":"RU","latitude":"51.84928000","longitude":"107.52100000"},{"id":"102723","name":"Zhemchug","state_id":1842,"state_code":"BU","country_id":182,"country_code":"RU","latitude":"51.68610000","longitude":"102.45900000"}]