[{"id":"97488","name":"Abram Mys","state_id":1843,"state_code":"MUR","country_id":182,"country_code":"RU","latitude":"68.97839000","longitude":"33.01926000"},{"id":"97511","name":"Afrikanda","state_id":1843,"state_code":"MUR","country_id":182,"country_code":"RU","latitude":"67.44289000","longitude":"32.78279000"},{"id":"97556","name":"Alakurtti","state_id":1843,"state_code":"MUR","country_id":182,"country_code":"RU","latitude":"66.96720000","longitude":"30.34905000"},{"id":"97649","name":"Apatity","state_id":1843,"state_code":"MUR","country_id":182,"country_code":"RU","latitude":"67.56414000","longitude":"33.40310000"},{"id":"98445","name":"Gadzhiyevo","state_id":1843,"state_code":"MUR","country_id":182,"country_code":"RU","latitude":"69.25506000","longitude":"33.33616000"},{"id":"98837","name":"Kandalaksha","state_id":1843,"state_code":"MUR","country_id":182,"country_code":"RU","latitude":"67.16200000","longitude":"32.41229000"},{"id":"98838","name":"Kandalakshskiy rayon","state_id":1843,"state_code":"MUR","country_id":182,"country_code":"RU","latitude":"67.16622000","longitude":"32.44606000"},{"id":"99064","name":"Kirovsk","state_id":1843,"state_code":"MUR","country_id":182,"country_code":"RU","latitude":"67.61475000","longitude":"33.67274000"},{"id":"99136","name":"Kola","state_id":1843,"state_code":"MUR","country_id":182,"country_code":"RU","latitude":"68.88062000","longitude":"33.01842000"},{"id":"99156","name":"Kol\u2019skiy Rayon","state_id":1843,"state_code":"MUR","country_id":182,"country_code":"RU","latitude":"68.50000000","longitude":"32.00000000"},{"id":"99252","name":"Kovdor","state_id":1843,"state_code":"MUR","country_id":182,"country_code":"RU","latitude":"67.56616000","longitude":"30.47576000"},{"id":"99253","name":"Kovdorskiy Rayon","state_id":1843,"state_code":"MUR","country_id":182,"country_code":"RU","latitude":"67.56667000","longitude":"30.40000000"},{"id":"99673","name":"Lovozero","state_id":1843,"state_code":"MUR","country_id":182,"country_code":"RU","latitude":"68.00638000","longitude":"35.01589000"},{"id":"99674","name":"Lovozerskiy Rayon","state_id":1843,"state_code":"MUR","country_id":182,"country_code":"RU","latitude":"68.00000000","longitude":"36.00000000"},{"id":"99950","name":"Molochnyy","state_id":1843,"state_code":"MUR","country_id":182,"country_code":"RU","latitude":"68.85389000","longitude":"33.02046000"},{"id":"99957","name":"Monchegorsk","state_id":1843,"state_code":"MUR","country_id":182,"country_code":"RU","latitude":"67.93972000","longitude":"32.87389000"},{"id":"100009","name":"Murmansk","state_id":1843,"state_code":"MUR","country_id":182,"country_code":"RU","latitude":"68.97917000","longitude":"33.09251000"},{"id":"100010","name":"Murmashi","state_id":1843,"state_code":"MUR","country_id":182,"country_code":"RU","latitude":"68.81542000","longitude":"32.81147000"},{"id":"100130","name":"Nikel","state_id":1843,"state_code":"MUR","country_id":182,"country_code":"RU","latitude":"69.41285000","longitude":"30.22198000"},{"id":"100420","name":"Olenegorsk","state_id":1843,"state_code":"MUR","country_id":182,"country_code":"RU","latitude":"68.14320000","longitude":"33.25287000"},{"id":"100497","name":"Ostrovnoy","state_id":1843,"state_code":"MUR","country_id":182,"country_code":"RU","latitude":"68.05306000","longitude":"39.51306000"},{"id":"100584","name":"Pechenga","state_id":1843,"state_code":"MUR","country_id":182,"country_code":"RU","latitude":"69.52587000","longitude":"31.17027000"},{"id":"100585","name":"Pechengskiy Rayon","state_id":1843,"state_code":"MUR","country_id":182,"country_code":"RU","latitude":"69.00000000","longitude":"30.00000000"},{"id":"100762","name":"Polyarnyy","state_id":1843,"state_code":"MUR","country_id":182,"country_code":"RU","latitude":"69.19889000","longitude":"33.44778000"},{"id":"100763","name":"Polyarnyye Zori","state_id":1843,"state_code":"MUR","country_id":182,"country_code":"RU","latitude":"67.36611000","longitude":"32.49806000"},{"id":"100796","name":"Poyakonda","state_id":1843,"state_code":"MUR","country_id":182,"country_code":"RU","latitude":"66.59428000","longitude":"32.82088000"},{"id":"100968","name":"Revda","state_id":1843,"state_code":"MUR","country_id":182,"country_code":"RU","latitude":"67.93710000","longitude":"34.56149000"},{"id":"101002","name":"Roslyakovo","state_id":1843,"state_code":"MUR","country_id":182,"country_code":"RU","latitude":"69.04303000","longitude":"33.19906000"},{"id":"101069","name":"Safonovo","state_id":1843,"state_code":"MUR","country_id":182,"country_code":"RU","latitude":"69.06043000","longitude":"33.29523000"},{"id":"101218","name":"Severomorsk","state_id":1843,"state_code":"MUR","country_id":182,"country_code":"RU","latitude":"69.06889000","longitude":"33.41622000"},{"id":"101219","name":"Severomorsk-3","state_id":1843,"state_code":"MUR","country_id":182,"country_code":"RU","latitude":"68.87862000","longitude":"33.72631000"},{"id":"101338","name":"Shonguy","state_id":1843,"state_code":"MUR","country_id":182,"country_code":"RU","latitude":"68.75261000","longitude":"33.14595000"},{"id":"101424","name":"Snezhnogorsk","state_id":1843,"state_code":"MUR","country_id":182,"country_code":"RU","latitude":"69.19333000","longitude":"33.25314000"},{"id":"101831","name":"Terib\u00ebrka","state_id":1843,"state_code":"MUR","country_id":182,"country_code":"RU","latitude":"69.16088000","longitude":"35.14527000"},{"id":"101839","name":"Terskiy Rayon","state_id":1843,"state_code":"MUR","country_id":182,"country_code":"RU","latitude":"66.91667000","longitude":"35.00000000"},{"id":"102055","name":"Umba","state_id":1843,"state_code":"MUR","country_id":182,"country_code":"RU","latitude":"66.68706000","longitude":"34.34291000"},{"id":"102241","name":"Verkhnetulomskiy","state_id":1843,"state_code":"MUR","country_id":182,"country_code":"RU","latitude":"68.60727000","longitude":"31.79621000"},{"id":"102303","name":"Vidyayevo","state_id":1843,"state_code":"MUR","country_id":182,"country_code":"RU","latitude":"69.31914000","longitude":"32.80488000"},{"id":"102446","name":"Vysokiy","state_id":1843,"state_code":"MUR","country_id":182,"country_code":"RU","latitude":"68.13583000","longitude":"33.41917000"},{"id":"102645","name":"Zaoz\u00ebrsk","state_id":1843,"state_code":"MUR","country_id":182,"country_code":"RU","latitude":"69.40052000","longitude":"32.44761000"},{"id":"102647","name":"Zapolyarnyy","state_id":1843,"state_code":"MUR","country_id":182,"country_code":"RU","latitude":"69.41541000","longitude":"30.81355000"},{"id":"102692","name":"Zelenoborskiy","state_id":1843,"state_code":"MUR","country_id":182,"country_code":"RU","latitude":"66.84500000","longitude":"32.36222000"}]