[{"id":"97746","name":"Babynino","state_id":1844,"state_code":"KLU","country_id":182,"country_code":"RU","latitude":"54.39385000","longitude":"35.77013000"},{"id":"97747","name":"Babyninskiy Rayon","state_id":1844,"state_code":"KLU","country_id":182,"country_code":"RU","latitude":"54.41667000","longitude":"35.75000000"},{"id":"97766","name":"Balabanovo","state_id":1844,"state_code":"KLU","country_id":182,"country_code":"RU","latitude":"55.18161000","longitude":"36.66060000"},{"id":"97801","name":"Baryatino","state_id":1844,"state_code":"KLU","country_id":182,"country_code":"RU","latitude":"54.31206000","longitude":"34.52096000"},{"id":"97802","name":"Baryatinskiy Rayon","state_id":1844,"state_code":"KLU","country_id":182,"country_code":"RU","latitude":"54.33333000","longitude":"34.58333000"},{"id":"97866","name":"Belousovo","state_id":1844,"state_code":"KLU","country_id":182,"country_code":"RU","latitude":"55.09499000","longitude":"36.67320000"},{"id":"97916","name":"Betlitsa","state_id":1844,"state_code":"KLU","country_id":182,"country_code":"RU","latitude":"54.00946000","longitude":"33.95875000"},{"id":"98040","name":"Borovsk","state_id":1844,"state_code":"KLU","country_id":182,"country_code":"RU","latitude":"55.20639000","longitude":"36.48611000"},{"id":"98042","name":"Borovskiy Rayon","state_id":1844,"state_code":"KLU","country_id":182,"country_code":"RU","latitude":"55.16667000","longitude":"36.50000000"},{"id":"98268","name":"Deshovki","state_id":1844,"state_code":"KLU","country_id":182,"country_code":"RU","latitude":"54.00333000","longitude":"35.78771000"},{"id":"98270","name":"Detchino","state_id":1844,"state_code":"KLU","country_id":182,"country_code":"RU","latitude":"54.80923000","longitude":"36.30750000"},{"id":"98354","name":"Duminichi","state_id":1844,"state_code":"KLU","country_id":182,"country_code":"RU","latitude":"53.93446000","longitude":"35.10993000"},{"id":"98355","name":"Duminichskiy Rayon","state_id":1844,"state_code":"KLU","country_id":182,"country_code":"RU","latitude":"53.91667000","longitude":"35.00000000"},{"id":"98359","name":"Dvortsy","state_id":1844,"state_code":"KLU","country_id":182,"country_code":"RU","latitude":"54.61677000","longitude":"35.99740000"},{"id":"98369","name":"Dzerzhinskiy Rayon","state_id":1844,"state_code":"KLU","country_id":182,"country_code":"RU","latitude":"54.75000000","longitude":"35.75000000"},{"id":"98422","name":"Ferzikovo","state_id":1844,"state_code":"KLU","country_id":182,"country_code":"RU","latitude":"54.51913000","longitude":"36.75671000"},{"id":"98423","name":"Ferzikovskiy Rayon","state_id":1844,"state_code":"KLU","country_id":182,"country_code":"RU","latitude":"54.58333000","longitude":"36.58333000"},{"id":"98755","name":"Iznoski","state_id":1844,"state_code":"KLU","country_id":182,"country_code":"RU","latitude":"54.98806000","longitude":"35.31083000"},{"id":"98756","name":"Iznoskovskiy rayon","state_id":1844,"state_code":"KLU","country_id":182,"country_code":"RU","latitude":"54.99026000","longitude":"35.30961000"},{"id":"98802","name":"Kaluga","state_id":1844,"state_code":"KLU","country_id":182,"country_code":"RU","latitude":"54.52930000","longitude":"36.27542000"},{"id":"99025","name":"Khvastovichi","state_id":1844,"state_code":"KLU","country_id":182,"country_code":"RU","latitude":"53.46942000","longitude":"35.09409000"},{"id":"99026","name":"Khvastovichskiy Rayon","state_id":1844,"state_code":"KLU","country_id":182,"country_code":"RU","latitude":"53.50000000","longitude":"35.16667000"},{"id":"99060","name":"Kirov","state_id":1844,"state_code":"KLU","country_id":182,"country_code":"RU","latitude":"54.06686000","longitude":"34.29955000"},{"id":"99072","name":"Kirovskiy Rayon","state_id":1844,"state_code":"KLU","country_id":182,"country_code":"RU","latitude":"54.08333000","longitude":"34.41667000"},{"id":"99183","name":"Kondrovo","state_id":1844,"state_code":"KLU","country_id":182,"country_code":"RU","latitude":"54.80639000","longitude":"35.92778000"},{"id":"99260","name":"Kozel\u2019sk","state_id":1844,"state_code":"KLU","country_id":182,"country_code":"RU","latitude":"54.03746000","longitude":"35.77159000"},{"id":"99261","name":"Kozel\u2019skiy Rayon","state_id":1844,"state_code":"KLU","country_id":182,"country_code":"RU","latitude":"54.00000000","longitude":"35.83333000"},{"id":"99388","name":"Kremenki","state_id":1844,"state_code":"KLU","country_id":182,"country_code":"RU","latitude":"54.88626000","longitude":"37.11955000"},{"id":"99421","name":"Kudinovo","state_id":1844,"state_code":"KLU","country_id":182,"country_code":"RU","latitude":"54.99939000","longitude":"36.25331000"},{"id":"99472","name":"Kurovskoye","state_id":1844,"state_code":"KLU","country_id":182,"country_code":"RU","latitude":"54.54299000","longitude":"36.00262000"},{"id":"99495","name":"Kuybyshevskiy Rayon","state_id":1844,"state_code":"KLU","country_id":182,"country_code":"RU","latitude":"54.08333000","longitude":"33.91667000"},{"id":"99724","name":"Lyudinovo","state_id":1844,"state_code":"KLU","country_id":182,"country_code":"RU","latitude":"53.86639000","longitude":"34.44778000"},{"id":"99725","name":"Lyudinovskiy Rayon","state_id":1844,"state_code":"KLU","country_id":182,"country_code":"RU","latitude":"53.91667000","longitude":"34.50000000"},{"id":"99767","name":"Maloyaroslavets","state_id":1844,"state_code":"KLU","country_id":182,"country_code":"RU","latitude":"55.01457000","longitude":"36.47185000"},{"id":"99768","name":"Maloyaroslavetskiy Rayon","state_id":1844,"state_code":"KLU","country_id":182,"country_code":"RU","latitude":"54.91667000","longitude":"36.50000000"},{"id":"99850","name":"Medyn\u2019","state_id":1844,"state_code":"KLU","country_id":182,"country_code":"RU","latitude":"54.96917000","longitude":"35.85861000"},{"id":"99849","name":"Medynskiy Rayon","state_id":1844,"state_code":"KLU","country_id":182,"country_code":"RU","latitude":"55.08333000","longitude":"35.83333000"},{"id":"99869","name":"Meshchovsk","state_id":1844,"state_code":"KLU","country_id":182,"country_code":"RU","latitude":"54.32444000","longitude":"35.28083000"},{"id":"99870","name":"Meshchovskiy Rayon","state_id":1844,"state_code":"KLU","country_id":182,"country_code":"RU","latitude":"54.33333000","longitude":"35.41667000"},{"id":"99970","name":"Mosal\u2019sk","state_id":1844,"state_code":"KLU","country_id":182,"country_code":"RU","latitude":"54.48806000","longitude":"34.98167000"},{"id":"99971","name":"Mosal\u2019skiy Rayon","state_id":1844,"state_code":"KLU","country_id":182,"country_code":"RU","latitude":"54.58333000","longitude":"34.83333000"},{"id":"99991","name":"Mstikhino","state_id":1844,"state_code":"KLU","country_id":182,"country_code":"RU","latitude":"54.55947000","longitude":"36.12777000"},{"id":"100027","name":"Myatlevo","state_id":1844,"state_code":"KLU","country_id":182,"country_code":"RU","latitude":"54.89693000","longitude":"35.67619000"},{"id":"100132","name":"Nikola-Lenivets","state_id":1844,"state_code":"KLU","country_id":182,"country_code":"RU","latitude":"54.74943000","longitude":"35.60133000"},{"id":"100386","name":"Obninsk","state_id":1844,"state_code":"KLU","country_id":182,"country_code":"RU","latitude":"55.09681000","longitude":"36.61006000"},{"id":"100601","name":"Peremyshl\u2019","state_id":1844,"state_code":"KLU","country_id":182,"country_code":"RU","latitude":"54.26313000","longitude":"36.16063000"},{"id":"100602","name":"Peremyshl\u2019skiy Rayon","state_id":1844,"state_code":"KLU","country_id":182,"country_code":"RU","latitude":"54.25000000","longitude":"36.08333000"},{"id":"100756","name":"Polotnyanyy Zavod","state_id":1844,"state_code":"KLU","country_id":182,"country_code":"RU","latitude":"54.72139000","longitude":"35.96611000"},{"id":"100912","name":"Pyatovskiy","state_id":1844,"state_code":"KLU","country_id":182,"country_code":"RU","latitude":"54.68908000","longitude":"36.05634000"},{"id":"101178","name":"Seredeyskiy","state_id":1844,"state_code":"KLU","country_id":182,"country_code":"RU","latitude":"54.05071000","longitude":"35.23183000"},{"id":"101482","name":"Sosenskiy","state_id":1844,"state_code":"KLU","country_id":182,"country_code":"RU","latitude":"54.05899000","longitude":"35.96228000"},{"id":"101522","name":"Spas-Demensk","state_id":1844,"state_code":"KLU","country_id":182,"country_code":"RU","latitude":"54.41222000","longitude":"34.02257000"},{"id":"101523","name":"Spas-Demenskiy Rayon","state_id":1844,"state_code":"KLU","country_id":182,"country_code":"RU","latitude":"54.41667000","longitude":"34.00000000"},{"id":"101649","name":"Sukhinichi","state_id":1844,"state_code":"KLU","country_id":182,"country_code":"RU","latitude":"54.09989000","longitude":"35.34254000"},{"id":"101650","name":"Sukhinichskiy Rayon","state_id":1844,"state_code":"KLU","country_id":182,"country_code":"RU","latitude":"54.08333000","longitude":"35.33333000"},{"id":"101782","name":"Tarusa","state_id":1844,"state_code":"KLU","country_id":182,"country_code":"RU","latitude":"54.72436000","longitude":"37.17272000"},{"id":"101783","name":"Tarusskiy Rayon","state_id":1844,"state_code":"KLU","country_id":182,"country_code":"RU","latitude":"54.66667000","longitude":"37.00000000"},{"id":"101908","name":"Tovarkovo","state_id":1844,"state_code":"KLU","country_id":182,"country_code":"RU","latitude":"54.67617000","longitude":"35.93860000"},{"id":"102054","name":"Ul\u2019yanovskiy Rayon","state_id":1844,"state_code":"KLU","country_id":182,"country_code":"RU","latitude":"53.66667000","longitude":"35.66667000"},{"id":"102385","name":"Vorotynsk","state_id":1844,"state_code":"KLU","country_id":182,"country_code":"RU","latitude":"54.42828000","longitude":"36.04646000"},{"id":"102445","name":"Vysokinichi","state_id":1844,"state_code":"KLU","country_id":182,"country_code":"RU","latitude":"54.90928000","longitude":"36.93148000"},{"id":"102568","name":"Yermolino","state_id":1844,"state_code":"KLU","country_id":182,"country_code":"RU","latitude":"55.19489000","longitude":"36.59513000"},{"id":"102590","name":"Yukhnov","state_id":1844,"state_code":"KLU","country_id":182,"country_code":"RU","latitude":"54.74444000","longitude":"35.22972000"},{"id":"102591","name":"Yukhnovskiy Rayon","state_id":1844,"state_code":"KLU","country_id":182,"country_code":"RU","latitude":"54.75000000","longitude":"35.25000000"},{"id":"102657","name":"Zarech\u2019ye","state_id":1844,"state_code":"KLU","country_id":182,"country_code":"RU","latitude":"53.73078000","longitude":"35.63246000"},{"id":"102731","name":"Zhiletovo","state_id":1844,"state_code":"KLU","country_id":182,"country_code":"RU","latitude":"54.69216000","longitude":"36.02225000"},{"id":"102738","name":"Zhizdra","state_id":1844,"state_code":"KLU","country_id":182,"country_code":"RU","latitude":"53.74596000","longitude":"34.73951000"},{"id":"102739","name":"Zhizdrinskiy Rayon","state_id":1844,"state_code":"KLU","country_id":182,"country_code":"RU","latitude":"53.66667000","longitude":"34.75000000"},{"id":"102742","name":"Zhukovo","state_id":1844,"state_code":"KLU","country_id":182,"country_code":"RU","latitude":"55.03178000","longitude":"36.74402000"},{"id":"102745","name":"Zhukovskiy Rayon","state_id":1844,"state_code":"KLU","country_id":182,"country_code":"RU","latitude":"55.08333000","longitude":"36.75000000"}]