[{"id":"97664","name":"Arkhangel\u2019sk","state_id":1849,"state_code":"ARK","country_id":182,"country_code":"RU","latitude":"64.54010000","longitude":"40.54330000"},{"id":"97903","name":"Ber\u00ebznik","state_id":1849,"state_code":"ARK","country_id":182,"country_code":"RU","latitude":"62.85200000","longitude":"42.70710000"},{"id":"98153","name":"Cheremushskiy","state_id":1849,"state_code":"ARK","country_id":182,"country_code":"RU","latitude":"61.27306000","longitude":"47.26361000"},{"id":"98358","name":"Dvinskoy","state_id":1849,"state_code":"ARK","country_id":182,"country_code":"RU","latitude":"62.15190000","longitude":"45.11840000"},{"id":"98655","name":"Il\u2019insko-Podomskoye","state_id":1849,"state_code":"ARK","country_id":182,"country_code":"RU","latitude":"61.11444000","longitude":"47.97861000"},{"id":"98646","name":"Ileza","state_id":1849,"state_code":"ARK","country_id":182,"country_code":"RU","latitude":"61.05328000","longitude":"43.90021000"},{"id":"98698","name":"Isakogorka","state_id":1849,"state_code":"ARK","country_id":182,"country_code":"RU","latitude":"64.44600000","longitude":"40.65310000"},{"id":"98809","name":"Kamenka","state_id":1849,"state_code":"ARK","country_id":182,"country_code":"RU","latitude":"65.88350000","longitude":"44.12720000"},{"id":"98879","name":"Kargopol\u2019","state_id":1849,"state_code":"ARK","country_id":182,"country_code":"RU","latitude":"61.50359000","longitude":"38.94860000"},{"id":"98880","name":"Kargopol\u2019skiy Rayon","state_id":1849,"state_code":"ARK","country_id":182,"country_code":"RU","latitude":"61.33333000","longitude":"39.00000000"},{"id":"98884","name":"Karpogory","state_id":1849,"state_code":"ARK","country_id":182,"country_code":"RU","latitude":"64.00189000","longitude":"44.44513000"},{"id":"98909","name":"Katunino","state_id":1849,"state_code":"ARK","country_id":182,"country_code":"RU","latitude":"64.38620000","longitude":"40.62980000"},{"id":"98964","name":"Kharitonovo","state_id":1849,"state_code":"ARK","country_id":182,"country_code":"RU","latitude":"61.40092000","longitude":"47.49779000"},{"id":"98994","name":"Kholmogorskiy Rayon","state_id":1849,"state_code":"ARK","country_id":182,"country_code":"RU","latitude":"64.08333000","longitude":"41.66667000"},{"id":"98995","name":"Kholmogory","state_id":1849,"state_code":"ARK","country_id":182,"country_code":"RU","latitude":"64.22290000","longitude":"41.65600000"},{"id":"99088","name":"Kizema","state_id":1849,"state_code":"ARK","country_id":182,"country_code":"RU","latitude":"61.11304000","longitude":"44.83017000"},{"id":"99126","name":"Kodino","state_id":1849,"state_code":"ARK","country_id":182,"country_code":"RU","latitude":"63.71976000","longitude":"39.64465000"},{"id":"99197","name":"Kon\u00ebvo","state_id":1849,"state_code":"ARK","country_id":182,"country_code":"RU","latitude":"62.11745000","longitude":"39.33131000"},{"id":"99186","name":"Konosha","state_id":1849,"state_code":"ARK","country_id":182,"country_code":"RU","latitude":"60.97360000","longitude":"40.25700000"},{"id":"99221","name":"Koryazhma","state_id":1849,"state_code":"ARK","country_id":182,"country_code":"RU","latitude":"61.31433000","longitude":"47.16914000"},{"id":"99246","name":"Kotlas","state_id":1849,"state_code":"ARK","country_id":182,"country_code":"RU","latitude":"61.25745000","longitude":"46.64963000"},{"id":"99247","name":"Kotlasskiy Rayon","state_id":1849,"state_code":"ARK","country_id":182,"country_code":"RU","latitude":"61.16667000","longitude":"46.33333000"},{"id":"99297","name":"Krasnoborsk","state_id":1849,"state_code":"ARK","country_id":182,"country_code":"RU","latitude":"61.55978000","longitude":"45.93396000"},{"id":"99435","name":"Kuloy","state_id":1849,"state_code":"ARK","country_id":182,"country_code":"RU","latitude":"61.03049000","longitude":"42.49252000"},{"id":"99580","name":"Lenskiy Rayon","state_id":1849,"state_code":"ARK","country_id":182,"country_code":"RU","latitude":"62.00000000","longitude":"48.66667000"},{"id":"99588","name":"Leshukonskiy Rayon","state_id":1849,"state_code":"ARK","country_id":182,"country_code":"RU","latitude":"65.00000000","longitude":"47.00000000"},{"id":"99589","name":"Leshukonskoye","state_id":1849,"state_code":"ARK","country_id":182,"country_code":"RU","latitude":"64.89770000","longitude":"45.76550000"},{"id":"99675","name":"Loyga","state_id":1849,"state_code":"ARK","country_id":182,"country_code":"RU","latitude":"61.07845000","longitude":"44.60750000"},{"id":"99689","name":"Lukovetskiy","state_id":1849,"state_code":"ARK","country_id":182,"country_code":"RU","latitude":"64.29560000","longitude":"41.92110000"},{"id":"99876","name":"Mezen\u2019","state_id":1849,"state_code":"ARK","country_id":182,"country_code":"RU","latitude":"65.84010000","longitude":"44.25420000"},{"id":"99875","name":"Mezenskiy Rayon","state_id":1849,"state_code":"ARK","country_id":182,"country_code":"RU","latitude":"65.75000000","longitude":"44.00000000"},{"id":"99924","name":"Mirnyy","state_id":1849,"state_code":"ARK","country_id":182,"country_code":"RU","latitude":"61.33289000","longitude":"44.53598000"},{"id":"100240","name":"Novodvinsk","state_id":1849,"state_code":"ARK","country_id":182,"country_code":"RU","latitude":"64.41650000","longitude":"40.81220000"},{"id":"100374","name":"Nyandoma","state_id":1849,"state_code":"ARK","country_id":182,"country_code":"RU","latitude":"61.66560000","longitude":"40.20130000"},{"id":"100375","name":"Nyandomskiy Rayon","state_id":1849,"state_code":"ARK","country_id":182,"country_code":"RU","latitude":"62.00000000","longitude":"40.66667000"},{"id":"100407","name":"Oksovskiy","state_id":1849,"state_code":"ARK","country_id":182,"country_code":"RU","latitude":"62.60623000","longitude":"39.89845000"},{"id":"100446","name":"Onega","state_id":1849,"state_code":"ARK","country_id":182,"country_code":"RU","latitude":"63.90692000","longitude":"38.11112000"},{"id":"100447","name":"Onezhskiy Rayon","state_id":1849,"state_code":"ARK","country_id":182,"country_code":"RU","latitude":"63.33333000","longitude":"38.00000000"},{"id":"100675","name":"Pinega","state_id":1849,"state_code":"ARK","country_id":182,"country_code":"RU","latitude":"64.69969000","longitude":"43.39016000"},{"id":"100677","name":"Pinezhskiy Rayon","state_id":1849,"state_code":"ARK","country_id":182,"country_code":"RU","latitude":"64.66667000","longitude":"43.00000000"},{"id":"100701","name":"Plesetsk","state_id":1849,"state_code":"ARK","country_id":182,"country_code":"RU","latitude":"62.70804000","longitude":"40.29159000"},{"id":"100734","name":"Podyuga","state_id":1849,"state_code":"ARK","country_id":182,"country_code":"RU","latitude":"61.09500000","longitude":"40.86472000"},{"id":"100834","name":"Primorskiy Rayon","state_id":1849,"state_code":"ARK","country_id":182,"country_code":"RU","latitude":"65.00000000","longitude":"41.00000000"},{"id":"100845","name":"Privodino","state_id":1849,"state_code":"ARK","country_id":182,"country_code":"RU","latitude":"61.07599000","longitude":"46.50238000"},{"id":"100890","name":"Puksoozero","state_id":1849,"state_code":"ARK","country_id":182,"country_code":"RU","latitude":"62.59030000","longitude":"40.60660000"},{"id":"100972","name":"Rochegda","state_id":1849,"state_code":"ARK","country_id":182,"country_code":"RU","latitude":"62.66780000","longitude":"43.41330000"},{"id":"101089","name":"Samoded","state_id":1849,"state_code":"ARK","country_id":182,"country_code":"RU","latitude":"63.60830000","longitude":"40.51110000"},{"id":"101217","name":"Severodvinsk","state_id":1849,"state_code":"ARK","country_id":182,"country_code":"RU","latitude":"64.56350000","longitude":"39.83020000"},{"id":"101243","name":"Shalakusha","state_id":1849,"state_code":"ARK","country_id":182,"country_code":"RU","latitude":"62.22472000","longitude":"40.25389000"},{"id":"101256","name":"Shangaly","state_id":1849,"state_code":"ARK","country_id":182,"country_code":"RU","latitude":"61.12842000","longitude":"43.33427000"},{"id":"101300","name":"Shenkursk","state_id":1849,"state_code":"ARK","country_id":182,"country_code":"RU","latitude":"62.10910000","longitude":"42.89595000"},{"id":"101301","name":"Shenkurskiy Rayon","state_id":1849,"state_code":"ARK","country_id":182,"country_code":"RU","latitude":"62.25000000","longitude":"42.41667000"},{"id":"101323","name":"Shipitsyno","state_id":1849,"state_code":"ARK","country_id":182,"country_code":"RU","latitude":"61.28056000","longitude":"46.52083000"},{"id":"101474","name":"Sol\u2019vychegodsk","state_id":1849,"state_code":"ARK","country_id":182,"country_code":"RU","latitude":"61.33046000","longitude":"46.91559000"},{"id":"101448","name":"Solginskiy","state_id":1849,"state_code":"ARK","country_id":182,"country_code":"RU","latitude":"61.05000000","longitude":"41.34278000"},{"id":"102022","name":"Udimskiy","state_id":1849,"state_code":"ARK","country_id":182,"country_code":"RU","latitude":"61.14171000","longitude":"45.91443000"},{"id":"102074","name":"Urdoma","state_id":1849,"state_code":"ARK","country_id":182,"country_code":"RU","latitude":"61.75335000","longitude":"48.54420000"},{"id":"102138","name":"Ust\u2019-Shonosha","state_id":1849,"state_code":"ARK","country_id":182,"country_code":"RU","latitude":"61.15310000","longitude":"41.34300000"},{"id":"102144","name":"Ust\u2019yanskiy Rayon","state_id":1849,"state_code":"ARK","country_id":182,"country_code":"RU","latitude":"61.33333000","longitude":"43.66667000"},{"id":"102162","name":"Uyemskiy","state_id":1849,"state_code":"ARK","country_id":182,"country_code":"RU","latitude":"64.47430000","longitude":"40.85240000"},{"id":"102203","name":"Vas\u2019kovo","state_id":1849,"state_code":"ARK","country_id":182,"country_code":"RU","latitude":"64.41220000","longitude":"40.46390000"},{"id":"102221","name":"Vel\u2019sk","state_id":1849,"state_code":"ARK","country_id":182,"country_code":"RU","latitude":"61.07006000","longitude":"42.09830000"},{"id":"102222","name":"Vel\u2019skiy Rayon","state_id":1849,"state_code":"ARK","country_id":182,"country_code":"RU","latitude":"61.00000000","longitude":"42.00000000"},{"id":"102274","name":"Verkhnyaya Toyma","state_id":1849,"state_code":"ARK","country_id":182,"country_code":"RU","latitude":"62.23470000","longitude":"45.00090000"},{"id":"102360","name":"Voloshka","state_id":1849,"state_code":"ARK","country_id":182,"country_code":"RU","latitude":"61.33139000","longitude":"40.08583000"},{"id":"102427","name":"Vychegodskiy","state_id":1849,"state_code":"ARK","country_id":182,"country_code":"RU","latitude":"61.24702000","longitude":"46.89842000"},{"id":"102462","name":"Yagry","state_id":1849,"state_code":"ARK","country_id":182,"country_code":"RU","latitude":"64.59417000","longitude":"39.81028000"},{"id":"102494","name":"Yarensk","state_id":1849,"state_code":"ARK","country_id":182,"country_code":"RU","latitude":"62.16755000","longitude":"49.09162000"},{"id":"102557","name":"Yemetsk","state_id":1849,"state_code":"ARK","country_id":182,"country_code":"RU","latitude":"63.47191000","longitude":"41.78023000"},{"id":"102558","name":"Yemtsa","state_id":1849,"state_code":"ARK","country_id":182,"country_code":"RU","latitude":"63.07337000","longitude":"40.33285000"},{"id":"102575","name":"Yertsevo","state_id":1849,"state_code":"ARK","country_id":182,"country_code":"RU","latitude":"60.79660000","longitude":"40.08600000"}]