[{"id":"97476","name":"Abadzekhskaya","state_id":1852,"state_code":"AD","country_id":182,"country_code":"RU","latitude":"44.39389000","longitude":"40.22139000"},{"id":"97506","name":"Adygeysk","state_id":1852,"state_code":"AD","country_id":182,"country_code":"RU","latitude":"44.88414000","longitude":"39.19071000"},{"id":"97507","name":"Adygeysk Republican Urban Okrug","state_id":1852,"state_code":"AD","country_id":182,"country_code":"RU","latitude":"44.87850000","longitude":"39.19167000"},{"id":"97871","name":"Beloye","state_id":1852,"state_code":"AD","country_id":182,"country_code":"RU","latitude":"45.04832000","longitude":"39.65143000"},{"id":"97953","name":"Blechepsin","state_id":1852,"state_code":"AD","country_id":182,"country_code":"RU","latitude":"44.82028000","longitude":"40.50028000"},{"id":"98309","name":"Dondukovskaya","state_id":1852,"state_code":"AD","country_id":182,"country_code":"RU","latitude":"44.88190000","longitude":"40.36271000"},{"id":"98395","name":"Enem","state_id":1852,"state_code":"AD","country_id":182,"country_code":"RU","latitude":"44.92640000","longitude":"38.90584000"},{"id":"98486","name":"Giaginskaya","state_id":1852,"state_code":"AD","country_id":182,"country_code":"RU","latitude":"44.86208000","longitude":"40.07195000"},{"id":"98487","name":"Giaginskiy Rayon","state_id":1852,"state_code":"AD","country_id":182,"country_code":"RU","latitude":"44.83333000","longitude":"40.16667000"},{"id":"98816","name":"Kamennomostskiy","state_id":1852,"state_code":"AD","country_id":182,"country_code":"RU","latitude":"44.28910000","longitude":"40.18800000"},{"id":"98961","name":"Khanskaya","state_id":1852,"state_code":"AD","country_id":182,"country_code":"RU","latitude":"44.67702000","longitude":"39.96160000"},{"id":"98974","name":"Khatukay","state_id":1852,"state_code":"AD","country_id":182,"country_code":"RU","latitude":"45.19074000","longitude":"39.66320000"},{"id":"98988","name":"Khodz\u2019","state_id":1852,"state_code":"AD","country_id":182,"country_code":"RU","latitude":"44.51020000","longitude":"40.71420000"},{"id":"99227","name":"Koshekhabl\u2019","state_id":1852,"state_code":"AD","country_id":182,"country_code":"RU","latitude":"44.89722000","longitude":"40.51194000"},{"id":"99228","name":"Koshekhabl\u2019skiy Rayon","state_id":1852,"state_code":"AD","country_id":182,"country_code":"RU","latitude":"44.83333000","longitude":"40.50000000"},{"id":"99315","name":"Krasnogvardeyskiy Rayon","state_id":1852,"state_code":"AD","country_id":182,"country_code":"RU","latitude":"45.08333000","longitude":"39.75000000"},{"id":"99317","name":"Krasnogvardeyskoye","state_id":1852,"state_code":"AD","country_id":182,"country_code":"RU","latitude":"45.12780000","longitude":"39.57246000"},{"id":"99503","name":"Kuzhorskaya","state_id":1852,"state_code":"AD","country_id":182,"country_code":"RU","latitude":"44.67512000","longitude":"40.31032000"},{"id":"99819","name":"Maykop","state_id":1852,"state_code":"AD","country_id":182,"country_code":"RU","latitude":"44.60778000","longitude":"40.10583000"},{"id":"99820","name":"Maykop Republican Urban Okrug","state_id":1852,"state_code":"AD","country_id":182,"country_code":"RU","latitude":"44.61100000","longitude":"40.12344000"},{"id":"99821","name":"Maykopskiy Rayon","state_id":1852,"state_code":"AD","country_id":182,"country_code":"RU","latitude":"44.33333000","longitude":"40.25000000"},{"id":"100065","name":"Natyrbovo","state_id":1852,"state_code":"AD","country_id":182,"country_code":"RU","latitude":"44.73000000","longitude":"40.62639000"},{"id":"100768","name":"Ponezhukay","state_id":1852,"state_code":"AD","country_id":182,"country_code":"RU","latitude":"44.88761000","longitude":"39.38551000"},{"id":"101339","name":"Shovgenovskiy","state_id":1852,"state_code":"AD","country_id":182,"country_code":"RU","latitude":"45.01028000","longitude":"40.22500000"},{"id":"101340","name":"Shovgenovskiy Rayon","state_id":1852,"state_code":"AD","country_id":182,"country_code":"RU","latitude":"45.00000000","longitude":"40.16667000"},{"id":"101742","name":"Takhtamukay","state_id":1852,"state_code":"AD","country_id":182,"country_code":"RU","latitude":"44.92150000","longitude":"38.99583000"},{"id":"101743","name":"Takhtamukayskiy Rayon","state_id":1852,"state_code":"AD","country_id":182,"country_code":"RU","latitude":"44.97433000","longitude":"38.80548000"},{"id":"101844","name":"Teuchezhskiy Rayon","state_id":1852,"state_code":"AD","country_id":182,"country_code":"RU","latitude":"44.91667000","longitude":"39.33333000"},{"id":"101867","name":"Tlyustenkhabl\u2019","state_id":1852,"state_code":"AD","country_id":182,"country_code":"RU","latitude":"44.98200000","longitude":"39.09773000"},{"id":"102458","name":"Yablonovskiy","state_id":1852,"state_code":"AD","country_id":182,"country_code":"RU","latitude":"44.98901000","longitude":"38.94324000"}]