[{"id":"97606","name":"Altukhovo","state_id":1867,"state_code":"BRY","country_id":182,"country_code":"RU","latitude":"52.67559000","longitude":"34.36703000"},{"id":"97659","name":"Ardon\u2019","state_id":1867,"state_code":"BRY","country_id":182,"country_code":"RU","latitude":"52.73524000","longitude":"32.30857000"},{"id":"97882","name":"Belyye Berega","state_id":1867,"state_code":"BRY","country_id":182,"country_code":"RU","latitude":"53.20851000","longitude":"34.66405000"},{"id":"98051","name":"Brasovskiy Rayon","state_id":1867,"state_code":"BRY","country_id":182,"country_code":"RU","latitude":"52.66667000","longitude":"34.75000000"},{"id":"98060","name":"Bryansk","state_id":1867,"state_code":"BRY","country_id":182,"country_code":"RU","latitude":"53.25209000","longitude":"34.37167000"},{"id":"98061","name":"Bryanskiy Rayon","state_id":1867,"state_code":"BRY","country_id":182,"country_code":"RU","latitude":"53.25000000","longitude":"34.41667000"},{"id":"98104","name":"Bytosh\u2019","state_id":1867,"state_code":"BRY","country_id":182,"country_code":"RU","latitude":"53.81861000","longitude":"34.09116000"},{"id":"98226","name":"Churovichi","state_id":1867,"state_code":"BRY","country_id":182,"country_code":"RU","latitude":"52.16930000","longitude":"31.99260000"},{"id":"98295","name":"Dobrun\u2019","state_id":1867,"state_code":"BRY","country_id":182,"country_code":"RU","latitude":"53.18512000","longitude":"34.24625000"},{"id":"98345","name":"Dubrovka","state_id":1867,"state_code":"BRY","country_id":182,"country_code":"RU","latitude":"53.69070000","longitude":"33.50710000"},{"id":"98346","name":"Dubrovskiy Rayon","state_id":1867,"state_code":"BRY","country_id":182,"country_code":"RU","latitude":"53.66667000","longitude":"33.41667000"},{"id":"98362","name":"Dyat\u2019kovo","state_id":1867,"state_code":"BRY","country_id":182,"country_code":"RU","latitude":"53.59782000","longitude":"34.33825000"},{"id":"98363","name":"Dyat\u2019kovskiy Rayon","state_id":1867,"state_code":"BRY","country_id":182,"country_code":"RU","latitude":"53.66667000","longitude":"34.25000000"},{"id":"98498","name":"Glinishchevo","state_id":1867,"state_code":"BRY","country_id":182,"country_code":"RU","latitude":"53.30416000","longitude":"34.06523000"},{"id":"98520","name":"Gordeyevka","state_id":1867,"state_code":"BRY","country_id":182,"country_code":"RU","latitude":"52.95690000","longitude":"31.97030000"},{"id":"98521","name":"Gordeyevskiy Rayon","state_id":1867,"state_code":"BRY","country_id":182,"country_code":"RU","latitude":"52.91667000","longitude":"31.91667000"},{"id":"98547","name":"Gorod Bryansk","state_id":1867,"state_code":"BRY","country_id":182,"country_code":"RU","latitude":"53.25000000","longitude":"34.41667000"},{"id":"98550","name":"Gorod Dyat\u2019kovo","state_id":1867,"state_code":"BRY","country_id":182,"country_code":"RU","latitude":"53.60000000","longitude":"34.35000000"},{"id":"98729","name":"Ivanovka","state_id":1867,"state_code":"BRY","country_id":182,"country_code":"RU","latitude":"53.34694000","longitude":"34.21917000"},{"id":"98743","name":"Ivot","state_id":1867,"state_code":"BRY","country_id":182,"country_code":"RU","latitude":"53.67556000","longitude":"34.18722000"},{"id":"98859","name":"Karachev","state_id":1867,"state_code":"BRY","country_id":182,"country_code":"RU","latitude":"53.12292000","longitude":"34.98517000"},{"id":"99098","name":"Kletnya","state_id":1867,"state_code":"BRY","country_id":182,"country_code":"RU","latitude":"53.38967000","longitude":"33.21714000"},{"id":"99099","name":"Kletnyanskiy Rayon","state_id":1867,"state_code":"BRY","country_id":182,"country_code":"RU","latitude":"53.33333000","longitude":"33.16667000"},{"id":"99101","name":"Klimovo","state_id":1867,"state_code":"BRY","country_id":182,"country_code":"RU","latitude":"52.38053000","longitude":"32.19233000"},{"id":"99103","name":"Klimovskiy Rayon","state_id":1867,"state_code":"BRY","country_id":182,"country_code":"RU","latitude":"52.25000000","longitude":"32.16667000"},{"id":"99106","name":"Klintsovskiy Rayon","state_id":1867,"state_code":"BRY","country_id":182,"country_code":"RU","latitude":"52.75000000","longitude":"32.16667000"},{"id":"99107","name":"Klintsy","state_id":1867,"state_code":"BRY","country_id":182,"country_code":"RU","latitude":"52.76019000","longitude":"32.23935000"},{"id":"99130","name":"Kokino","state_id":1867,"state_code":"BRY","country_id":182,"country_code":"RU","latitude":"52.49640000","longitude":"34.78080000"},{"id":"99131","name":"Kokorevka","state_id":1867,"state_code":"BRY","country_id":182,"country_code":"RU","latitude":"52.58740000","longitude":"34.26920000"},{"id":"99158","name":"Komarichi","state_id":1867,"state_code":"BRY","country_id":182,"country_code":"RU","latitude":"52.41510000","longitude":"34.79050000"},{"id":"99159","name":"Komarichskiy Rayon","state_id":1867,"state_code":"BRY","country_id":182,"country_code":"RU","latitude":"52.41667000","longitude":"34.75000000"},{"id":"99223","name":"Korzhovka-Golubovka","state_id":1867,"state_code":"BRY","country_id":182,"country_code":"RU","latitude":"52.76742000","longitude":"32.35362000"},{"id":"99277","name":"Krasnaya Gora","state_id":1867,"state_code":"BRY","country_id":182,"country_code":"RU","latitude":"52.99950000","longitude":"31.60230000"},{"id":"99308","name":"Krasnogorskiy Rayon","state_id":1867,"state_code":"BRY","country_id":182,"country_code":"RU","latitude":"53.00000000","longitude":"31.50000000"},{"id":"99654","name":"Lokot\u2019","state_id":1867,"state_code":"BRY","country_id":182,"country_code":"RU","latitude":"52.56500000","longitude":"34.57760000"},{"id":"99661","name":"Lopandino","state_id":1867,"state_code":"BRY","country_id":182,"country_code":"RU","latitude":"52.46660000","longitude":"34.81630000"},{"id":"99719","name":"Lyubokhna","state_id":1867,"state_code":"BRY","country_id":182,"country_code":"RU","latitude":"53.50332000","longitude":"34.38847000"},{"id":"99720","name":"Lyubovsho","state_id":1867,"state_code":"BRY","country_id":182,"country_code":"RU","latitude":"52.98510000","longitude":"31.54220000"},{"id":"99887","name":"Mglin","state_id":1867,"state_code":"BRY","country_id":182,"country_code":"RU","latitude":"53.05907000","longitude":"32.84753000"},{"id":"99888","name":"Mglinskiy Rayon","state_id":1867,"state_code":"BRY","country_id":182,"country_code":"RU","latitude":"53.16667000","longitude":"32.83333000"},{"id":"100071","name":"Navlinskiy Rayon","state_id":1867,"state_code":"BRY","country_id":182,"country_code":"RU","latitude":"52.83333000","longitude":"34.41667000"},{"id":"100072","name":"Navlya","state_id":1867,"state_code":"BRY","country_id":182,"country_code":"RU","latitude":"52.82544000","longitude":"34.49960000"},{"id":"100114","name":"Net\u2019inka","state_id":1867,"state_code":"BRY","country_id":182,"country_code":"RU","latitude":"53.34778000","longitude":"34.19111000"},{"id":"100337","name":"Novozybkov","state_id":1867,"state_code":"BRY","country_id":182,"country_code":"RU","latitude":"52.53960000","longitude":"31.92750000"},{"id":"100338","name":"Novozybkovskiy Rayon","state_id":1867,"state_code":"BRY","country_id":182,"country_code":"RU","latitude":"52.58333000","longitude":"31.83333000"},{"id":"100349","name":"Novyy Ropsk","state_id":1867,"state_code":"BRY","country_id":182,"country_code":"RU","latitude":"52.29781000","longitude":"32.31206000"},{"id":"100706","name":"Pochep","state_id":1867,"state_code":"BRY","country_id":182,"country_code":"RU","latitude":"52.93360000","longitude":"33.44640000"},{"id":"100707","name":"Pochepskiy Rayon","state_id":1867,"state_code":"BRY","country_id":182,"country_code":"RU","latitude":"52.91667000","longitude":"33.50000000"},{"id":"100735","name":"Pogar","state_id":1867,"state_code":"BRY","country_id":182,"country_code":"RU","latitude":"52.55399000","longitude":"33.25907000"},{"id":"100736","name":"Pogarskiy Rayon","state_id":1867,"state_code":"BRY","country_id":182,"country_code":"RU","latitude":"52.50000000","longitude":"33.25000000"},{"id":"100907","name":"Put\u00ebvka","state_id":1867,"state_code":"BRY","country_id":182,"country_code":"RU","latitude":"53.25833000","longitude":"34.28778000"},{"id":"100924","name":"Raditsa-Krylovka","state_id":1867,"state_code":"BRY","country_id":182,"country_code":"RU","latitude":"53.31712000","longitude":"34.35742000"},{"id":"100982","name":"Rognedino","state_id":1867,"state_code":"BRY","country_id":182,"country_code":"RU","latitude":"53.80147000","longitude":"33.55760000"},{"id":"100983","name":"Rognedinskiy Rayon","state_id":1867,"state_code":"BRY","country_id":182,"country_code":"RU","latitude":"53.83333000","longitude":"33.66667000"},{"id":"101058","name":"Rzhanitsa","state_id":1867,"state_code":"BRY","country_id":182,"country_code":"RU","latitude":"53.42844000","longitude":"33.92297000"},{"id":"101063","name":"Sachkovichi","state_id":1867,"state_code":"BRY","country_id":182,"country_code":"RU","latitude":"52.34590000","longitude":"32.22460000"},{"id":"101161","name":"Sel\u2019tso","state_id":1867,"state_code":"BRY","country_id":182,"country_code":"RU","latitude":"53.36831000","longitude":"34.10328000"},{"id":"101198","name":"Seshcha","state_id":1867,"state_code":"BRY","country_id":182,"country_code":"RU","latitude":"53.73610000","longitude":"33.33870000"},{"id":"101224","name":"Sevsk","state_id":1867,"state_code":"BRY","country_id":182,"country_code":"RU","latitude":"52.14910000","longitude":"34.49260000"},{"id":"101225","name":"Sevskiy Rayon","state_id":1867,"state_code":"BRY","country_id":182,"country_code":"RU","latitude":"52.08333000","longitude":"34.41667000"},{"id":"101612","name":"Star\u2019","state_id":1867,"state_code":"BRY","country_id":182,"country_code":"RU","latitude":"53.62362000","longitude":"34.15183000"},{"id":"101577","name":"Starodub","state_id":1867,"state_code":"BRY","country_id":182,"country_code":"RU","latitude":"52.58444000","longitude":"32.76333000"},{"id":"101578","name":"Starodubskiy Rayon","state_id":1867,"state_code":"BRY","country_id":182,"country_code":"RU","latitude":"52.50000000","longitude":"32.75000000"},{"id":"101671","name":"Suponevo","state_id":1867,"state_code":"BRY","country_id":182,"country_code":"RU","latitude":"53.20492000","longitude":"34.29597000"},{"id":"101673","name":"Surazh","state_id":1867,"state_code":"BRY","country_id":182,"country_code":"RU","latitude":"53.01747000","longitude":"32.39178000"},{"id":"101674","name":"Surazhskiy Rayon","state_id":1867,"state_code":"BRY","country_id":182,"country_code":"RU","latitude":"53.08333000","longitude":"32.41667000"},{"id":"101694","name":"Suz\u00ebmka","state_id":1867,"state_code":"BRY","country_id":182,"country_code":"RU","latitude":"52.31834000","longitude":"34.07899000"},{"id":"101692","name":"Suzemskiy Rayon","state_id":1867,"state_code":"BRY","country_id":182,"country_code":"RU","latitude":"52.41667000","longitude":"34.16667000"},{"id":"101697","name":"Sven\u2019","state_id":1867,"state_code":"BRY","country_id":182,"country_code":"RU","latitude":"53.18222000","longitude":"34.55111000"},{"id":"101928","name":"Trubchevsk","state_id":1867,"state_code":"BRY","country_id":182,"country_code":"RU","latitude":"52.57980000","longitude":"33.76440000"},{"id":"101929","name":"Trubchevskiy Rayon","state_id":1867,"state_code":"BRY","country_id":182,"country_code":"RU","latitude":"52.58333000","longitude":"33.75000000"},{"id":"102058","name":"Unecha","state_id":1867,"state_code":"BRY","country_id":182,"country_code":"RU","latitude":"52.84591000","longitude":"32.67394000"},{"id":"102059","name":"Unechskiy Rayon","state_id":1867,"state_code":"BRY","country_id":182,"country_code":"RU","latitude":"52.83333000","longitude":"32.83333000"},{"id":"102430","name":"Vygonichi","state_id":1867,"state_code":"BRY","country_id":182,"country_code":"RU","latitude":"53.09855000","longitude":"34.06728000"},{"id":"102431","name":"Vygonichskiy Rayon","state_id":1867,"state_code":"BRY","country_id":182,"country_code":"RU","latitude":"53.08333000","longitude":"34.00000000"},{"id":"102440","name":"Vyshkov","state_id":1867,"state_code":"BRY","country_id":182,"country_code":"RU","latitude":"52.47640000","longitude":"31.68730000"},{"id":"102640","name":"Zamishevo","state_id":1867,"state_code":"BRY","country_id":182,"country_code":"RU","latitude":"52.53950000","longitude":"32.01290000"},{"id":"102686","name":"Zaymishche","state_id":1867,"state_code":"BRY","country_id":182,"country_code":"RU","latitude":"52.72640000","longitude":"32.23340000"},{"id":"102735","name":"Zhiryatino","state_id":1867,"state_code":"BRY","country_id":182,"country_code":"RU","latitude":"53.22280000","longitude":"33.73060000"},{"id":"102736","name":"Zhiryatinskiy Rayon","state_id":1867,"state_code":"BRY","country_id":182,"country_code":"RU","latitude":"53.25000000","longitude":"33.58333000"},{"id":"102741","name":"Zhukovka","state_id":1867,"state_code":"BRY","country_id":182,"country_code":"RU","latitude":"53.53395000","longitude":"33.72798000"},{"id":"102744","name":"Zhukovskiy Rayon","state_id":1867,"state_code":"BRY","country_id":182,"country_code":"RU","latitude":"53.50000000","longitude":"33.83333000"},{"id":"102751","name":"Zlynka","state_id":1867,"state_code":"BRY","country_id":182,"country_code":"RU","latitude":"52.42670000","longitude":"31.73780000"}]