[{"id":"98530","name":"Gornomariyskiy Rayon","state_id":1870,"state_code":"ME","country_id":182,"country_code":"RU","latitude":"56.41667000","longitude":"46.75000000"},{"id":"99039","name":"Kilemarskiy Rayon","state_id":1870,"state_code":"ME","country_id":182,"country_code":"RU","latitude":"56.75000000","longitude":"46.91667000"},{"id":"99040","name":"Kilemary","state_id":1870,"state_code":"ME","country_id":182,"country_code":"RU","latitude":"56.77825000","longitude":"46.86594000"},{"id":"99271","name":"Koz\u2019modem\u2019yansk","state_id":1870,"state_code":"ME","country_id":182,"country_code":"RU","latitude":"56.34190000","longitude":"46.56353000"},{"id":"99305","name":"Krasnogorskiy","state_id":1870,"state_code":"ME","country_id":182,"country_code":"RU","latitude":"56.15250000","longitude":"48.32583000"},{"id":"99500","name":"Kuzhener","state_id":1870,"state_code":"ME","country_id":182,"country_code":"RU","latitude":"56.81111000","longitude":"48.91278000"},{"id":"99501","name":"Kuzhenerskiy Rayon","state_id":1870,"state_code":"ME","country_id":182,"country_code":"RU","latitude":"56.75000000","longitude":"49.00000000"},{"id":"99793","name":"Mari-Turek","state_id":1870,"state_code":"ME","country_id":182,"country_code":"RU","latitude":"56.78946000","longitude":"49.62349000"},{"id":"99794","name":"Mari-Turekskiy Rayon","state_id":1870,"state_code":"ME","country_id":182,"country_code":"RU","latitude":"56.75000000","longitude":"49.83333000"},{"id":"99842","name":"Medvedevo","state_id":1870,"state_code":"ME","country_id":182,"country_code":"RU","latitude":"56.63388000","longitude":"47.80405000"},{"id":"99843","name":"Medvedevskiy Rayon","state_id":1870,"state_code":"ME","country_id":182,"country_code":"RU","latitude":"56.66667000","longitude":"47.75000000"},{"id":"99937","name":"Mochalishche","state_id":1870,"state_code":"ME","country_id":182,"country_code":"RU","latitude":"56.33060000","longitude":"48.35470000"},{"id":"99964","name":"Morki","state_id":1870,"state_code":"ME","country_id":182,"country_code":"RU","latitude":"56.43028000","longitude":"48.99472000"},{"id":"99965","name":"Morkinskiy Rayon","state_id":1870,"state_code":"ME","country_id":182,"country_code":"RU","latitude":"56.50000000","longitude":"49.00000000"},{"id":"100315","name":"Novotor\u201dyal\u2019skiy Rayon","state_id":1870,"state_code":"ME","country_id":182,"country_code":"RU","latitude":"57.08333000","longitude":"48.66667000"},{"id":"100478","name":"Orshanka","state_id":1870,"state_code":"ME","country_id":182,"country_code":"RU","latitude":"56.91607000","longitude":"47.89335000"},{"id":"100479","name":"Orshanskiy Rayon","state_id":1870,"state_code":"ME","country_id":182,"country_code":"RU","latitude":"56.91667000","longitude":"47.91667000"},{"id":"100541","name":"Paran\u2019ga","state_id":1870,"state_code":"ME","country_id":182,"country_code":"RU","latitude":"56.70389000","longitude":"49.40472000"},{"id":"100542","name":"Paran\u2019ginskiy Rayon","state_id":1870,"state_code":"ME","country_id":182,"country_code":"RU","latitude":"56.66667000","longitude":"49.41667000"},{"id":"100765","name":"Pomary","state_id":1870,"state_code":"ME","country_id":182,"country_code":"RU","latitude":"55.96815000","longitude":"48.35072000"},{"id":"100848","name":"Privolzhskiy","state_id":1870,"state_code":"ME","country_id":182,"country_code":"RU","latitude":"55.96135000","longitude":"48.41512000"},{"id":"101188","name":"Sernur","state_id":1870,"state_code":"ME","country_id":182,"country_code":"RU","latitude":"56.93333000","longitude":"49.15361000"},{"id":"101189","name":"Sernurskiy Rayon","state_id":1870,"state_code":"ME","country_id":182,"country_code":"RU","latitude":"57.00000000","longitude":"49.25000000"},{"id":"101510","name":"Sovetskiy","state_id":1870,"state_code":"ME","country_id":182,"country_code":"RU","latitude":"56.75833000","longitude":"48.47611000"},{"id":"101514","name":"Sovetskiy Rayon","state_id":1870,"state_code":"ME","country_id":182,"country_code":"RU","latitude":"56.66667000","longitude":"48.50000000"},{"id":"101678","name":"Surok","state_id":1870,"state_code":"ME","country_id":182,"country_code":"RU","latitude":"56.44694000","longitude":"48.12139000"},{"id":"101683","name":"Suslonger","state_id":1870,"state_code":"ME","country_id":182,"country_code":"RU","latitude":"56.31556000","longitude":"48.25306000"},{"id":"102306","name":"Vilovatovo","state_id":1870,"state_code":"ME","country_id":182,"country_code":"RU","latitude":"56.17240000","longitude":"46.60134000"},{"id":"102369","name":"Volzhsk","state_id":1870,"state_code":"ME","country_id":182,"country_code":"RU","latitude":"55.86638000","longitude":"48.35940000"},{"id":"102371","name":"Volzhskiy Rayon","state_id":1870,"state_code":"ME","country_id":182,"country_code":"RU","latitude":"56.08333000","longitude":"48.58333000"},{"id":"102581","name":"Yoshkar-Ola","state_id":1870,"state_code":"ME","country_id":182,"country_code":"RU","latitude":"56.63877000","longitude":"47.89078000"},{"id":"102597","name":"Yurino","state_id":1870,"state_code":"ME","country_id":182,"country_code":"RU","latitude":"56.29417000","longitude":"46.30392000"},{"id":"102598","name":"Yurinskiy Rayon","state_id":1870,"state_code":"ME","country_id":182,"country_code":"RU","latitude":"56.30000000","longitude":"46.30000000"},{"id":"102779","name":"Zvenigovo","state_id":1870,"state_code":"ME","country_id":182,"country_code":"RU","latitude":"55.97539000","longitude":"48.01304000"},{"id":"102780","name":"Zvenigovskiy Rayon","state_id":1870,"state_code":"ME","country_id":182,"country_code":"RU","latitude":"56.25000000","longitude":"47.75000000"}]