[{"id":"97575","name":"Aleksandrovskoye","state_id":1872,"state_code":"TOM","country_id":182,"country_code":"RU","latitude":"56.74083000","longitude":"85.39056000"},{"id":"97701","name":"Asino","state_id":1872,"state_code":"TOM","country_id":182,"country_code":"RU","latitude":"56.99987000","longitude":"86.14393000"},{"id":"97759","name":"Bakchar","state_id":1872,"state_code":"TOM","country_id":182,"country_code":"RU","latitude":"57.01861000","longitude":"82.07111000"},{"id":"97881","name":"Belyy Yar","state_id":1872,"state_code":"TOM","country_id":182,"country_code":"RU","latitude":"58.44472000","longitude":"85.04250000"},{"id":"97961","name":"Bogashevo","state_id":1872,"state_code":"TOM","country_id":182,"country_code":"RU","latitude":"56.36798000","longitude":"85.14414000"},{"id":"98801","name":"Kaltay","state_id":1872,"state_code":"TOM","country_id":182,"country_code":"RU","latitude":"56.27917000","longitude":"84.87861000"},{"id":"98877","name":"Kargasok","state_id":1872,"state_code":"TOM","country_id":182,"country_code":"RU","latitude":"59.05556000","longitude":"80.85722000"},{"id":"98935","name":"Kedrovyy","state_id":1872,"state_code":"TOM","country_id":182,"country_code":"RU","latitude":"57.51972000","longitude":"79.51556000"},{"id":"99146","name":"Kolpashevo","state_id":1872,"state_code":"TOM","country_id":182,"country_code":"RU","latitude":"58.31306000","longitude":"82.90889000"},{"id":"99263","name":"Kozhevnikovo","state_id":1872,"state_code":"TOM","country_id":182,"country_code":"RU","latitude":"56.25889000","longitude":"83.97139000"},{"id":"99378","name":"Krasnyy Yar","state_id":1872,"state_code":"TOM","country_id":182,"country_code":"RU","latitude":"57.12750000","longitude":"84.53028000"},{"id":"99393","name":"Krivosheino","state_id":1872,"state_code":"TOM","country_id":182,"country_code":"RU","latitude":"57.34306000","longitude":"83.92611000"},{"id":"99859","name":"Mel\u2019nikovo","state_id":1872,"state_code":"TOM","country_id":182,"country_code":"RU","latitude":"56.55738000","longitude":"84.08350000"},{"id":"99947","name":"Molchanovo","state_id":1872,"state_code":"TOM","country_id":182,"country_code":"RU","latitude":"57.58167000","longitude":"83.76917000"},{"id":"99948","name":"Molchanovskiy Rayon","state_id":1872,"state_code":"TOM","country_id":182,"country_code":"RU","latitude":"57.75000000","longitude":"84.33333000"},{"id":"99969","name":"Moryakovskiy Zaton","state_id":1872,"state_code":"TOM","country_id":182,"country_code":"RU","latitude":"56.69448000","longitude":"84.65145000"},{"id":"100540","name":"Parabel\u2019","state_id":1872,"state_code":"TOM","country_id":182,"country_code":"RU","latitude":"58.69778000","longitude":"81.48250000"},{"id":"100627","name":"Pervomayskoye","state_id":1872,"state_code":"TOM","country_id":182,"country_code":"RU","latitude":"57.07610000","longitude":"86.23130000"},{"id":"100717","name":"Podgornoye","state_id":1872,"state_code":"TOM","country_id":182,"country_code":"RU","latitude":"57.78861000","longitude":"82.65194000"},{"id":"101094","name":"Samus\u2019","state_id":1872,"state_code":"TOM","country_id":182,"country_code":"RU","latitude":"56.74482000","longitude":"84.70422000"},{"id":"101222","name":"Seversk","state_id":1872,"state_code":"TOM","country_id":182,"country_code":"RU","latitude":"56.60056000","longitude":"84.88639000"},{"id":"101628","name":"Strezhevoy","state_id":1872,"state_code":"TOM","country_id":182,"country_code":"RU","latitude":"60.73330000","longitude":"77.58890000"},{"id":"101707","name":"Svetlyy","state_id":1872,"state_code":"TOM","country_id":182,"country_code":"RU","latitude":"56.91667000","longitude":"85.96667000"},{"id":"101810","name":"Tegul\u2019det","state_id":1872,"state_code":"TOM","country_id":182,"country_code":"RU","latitude":"57.30679000","longitude":"88.16004000"},{"id":"101811","name":"Tegul\u2019detskiy Rayon","state_id":1872,"state_code":"TOM","country_id":182,"country_code":"RU","latitude":"57.50000000","longitude":"88.16667000"},{"id":"101860","name":"Timiryazevskoye","state_id":1872,"state_code":"TOM","country_id":182,"country_code":"RU","latitude":"56.48988000","longitude":"84.87795000"},{"id":"101872","name":"Togur","state_id":1872,"state_code":"TOM","country_id":182,"country_code":"RU","latitude":"58.36310000","longitude":"82.82650000"},{"id":"101887","name":"Tomsk","state_id":1872,"state_code":"TOM","country_id":182,"country_code":"RU","latitude":"56.49771000","longitude":"84.97437000"},{"id":"101888","name":"Tomskiy Rayon","state_id":1872,"state_code":"TOM","country_id":182,"country_code":"RU","latitude":"56.50000000","longitude":"84.66667000"},{"id":"102788","name":"Zyryanskoye","state_id":1872,"state_code":"TOM","country_id":182,"country_code":"RU","latitude":"56.83058000","longitude":"86.62734000"}]