[{"id":"97478","name":"Abakan","state_id":1877,"state_code":"KK","country_id":182,"country_code":"RU","latitude":"53.71556000","longitude":"91.42917000"},{"id":"97479","name":"Abakan Gorod","state_id":1877,"state_code":"KK","country_id":182,"country_code":"RU","latitude":"53.71667000","longitude":"91.43333000"},{"id":"97484","name":"Abaza","state_id":1877,"state_code":"KK","country_id":182,"country_code":"RU","latitude":"52.65500000","longitude":"90.09278000"},{"id":"97602","name":"Altayskiy Rayon","state_id":1877,"state_code":"KK","country_id":182,"country_code":"RU","latitude":"53.50000000","longitude":"91.50000000"},{"id":"97704","name":"Askiz","state_id":1877,"state_code":"KK","country_id":182,"country_code":"RU","latitude":"53.13194000","longitude":"90.52639000"},{"id":"97880","name":"Belyy Yar","state_id":1877,"state_code":"KK","country_id":182,"country_code":"RU","latitude":"53.60389000","longitude":"91.39028000"},{"id":"97917","name":"Beya","state_id":1877,"state_code":"KK","country_id":182,"country_code":"RU","latitude":"53.05333000","longitude":"90.91389000"},{"id":"97941","name":"Biskamzha","state_id":1877,"state_code":"KK","country_id":182,"country_code":"RU","latitude":"53.44972000","longitude":"89.52722000"},{"id":"97979","name":"Bograd","state_id":1877,"state_code":"KK","country_id":182,"country_code":"RU","latitude":"54.23444000","longitude":"90.83278000"},{"id":"97980","name":"Bogradskiy Rayon","state_id":1877,"state_code":"KK","country_id":182,"country_code":"RU","latitude":"54.33333000","longitude":"91.00000000"},{"id":"98191","name":"Cher\u00ebmushki","state_id":1877,"state_code":"KK","country_id":182,"country_code":"RU","latitude":"52.85576000","longitude":"91.41672000"},{"id":"98170","name":"Chernogorsk","state_id":1877,"state_code":"KK","country_id":182,"country_code":"RU","latitude":"53.82361000","longitude":"91.28417000"},{"id":"99165","name":"Kommunar","state_id":1877,"state_code":"KK","country_id":182,"country_code":"RU","latitude":"54.34835000","longitude":"89.28297000"},{"id":"99827","name":"Mayna","state_id":1877,"state_code":"KK","country_id":182,"country_code":"RU","latitude":"53.00639000","longitude":"91.48361000"},{"id":"100730","name":"Podsineye","state_id":1877,"state_code":"KK","country_id":182,"country_code":"RU","latitude":"53.66583000","longitude":"91.53639000"},{"id":"101139","name":"Sayanogorsk","state_id":1877,"state_code":"KK","country_id":182,"country_code":"RU","latitude":"53.08750000","longitude":"91.39972000"},{"id":"101326","name":"Shira","state_id":1877,"state_code":"KK","country_id":182,"country_code":"RU","latitude":"54.49111000","longitude":"89.95306000"},{"id":"101479","name":"Sorsk","state_id":1877,"state_code":"KK","country_id":182,"country_code":"RU","latitude":"54.00333000","longitude":"90.24667000"},{"id":"101790","name":"Tashtyp","state_id":1877,"state_code":"KK","country_id":182,"country_code":"RU","latitude":"52.79542000","longitude":"89.89477000"},{"id":"101963","name":"Tuim","state_id":1877,"state_code":"KK","country_id":182,"country_code":"RU","latitude":"54.33949000","longitude":"89.94586000"},{"id":"102113","name":"Ust\u2019-Abakan","state_id":1877,"state_code":"KK","country_id":182,"country_code":"RU","latitude":"53.83651000","longitude":"91.39077000"},{"id":"102284","name":"Vershina Tei","state_id":1877,"state_code":"KK","country_id":182,"country_code":"RU","latitude":"53.26858000","longitude":"89.56008000"}]