[{"id":"97565","name":"Aleksandrov","state_id":1881,"state_code":"VLA","country_id":182,"country_code":"RU","latitude":"56.39516000","longitude":"38.71216000"},{"id":"97572","name":"Aleksandrovskiy Rayon","state_id":1881,"state_code":"VLA","country_id":182,"country_code":"RU","latitude":"56.41667000","longitude":"38.58333000"},{"id":"97629","name":"Andreyevo","state_id":1881,"state_code":"VLA","country_id":182,"country_code":"RU","latitude":"55.94650000","longitude":"41.15050000"},{"id":"97638","name":"Anopino","state_id":1881,"state_code":"VLA","country_id":182,"country_code":"RU","latitude":"55.69809000","longitude":"40.66707000"},{"id":"97677","name":"Arsaki","state_id":1881,"state_code":"VLA","country_id":182,"country_code":"RU","latitude":"56.38333000","longitude":"38.48333000"},{"id":"97770","name":"Balakirevo","state_id":1881,"state_code":"VLA","country_id":182,"country_code":"RU","latitude":"56.50588000","longitude":"38.84324000"},{"id":"97817","name":"Bavleny","state_id":1881,"state_code":"VLA","country_id":182,"country_code":"RU","latitude":"56.39448000","longitude":"39.56504000"},{"id":"97845","name":"Belaya Rechka","state_id":1881,"state_code":"VLA","country_id":182,"country_code":"RU","latitude":"56.28491000","longitude":"39.40665000"},{"id":"97966","name":"Bogolyubovo","state_id":1881,"state_code":"VLA","country_id":182,"country_code":"RU","latitude":"56.19052000","longitude":"40.52313000"},{"id":"98297","name":"Dobryatino","state_id":1881,"state_code":"VLA","country_id":182,"country_code":"RU","latitude":"55.50550000","longitude":"41.31950000"},{"id":"98452","name":"Galitsy","state_id":1881,"state_code":"VLA","country_id":182,"country_code":"RU","latitude":"56.17759000","longitude":"42.84588000"},{"id":"98508","name":"Golovino","state_id":1881,"state_code":"VLA","country_id":182,"country_code":"RU","latitude":"55.96128000","longitude":"40.42511000"},{"id":"98564","name":"Gorokhovets","state_id":1881,"state_code":"VLA","country_id":182,"country_code":"RU","latitude":"56.20152000","longitude":"42.69351000"},{"id":"98622","name":"Gus\u2019-Khrustal\u2019nyy","state_id":1881,"state_code":"VLA","country_id":182,"country_code":"RU","latitude":"55.61113000","longitude":"40.65186000"},{"id":"98619","name":"Gusevskiy","state_id":1881,"state_code":"VLA","country_id":182,"country_code":"RU","latitude":"55.66199000","longitude":"40.56267000"},{"id":"98670","name":"Imeni Vorovskogo","state_id":1881,"state_code":"VLA","country_id":182,"country_code":"RU","latitude":"55.72370000","longitude":"41.11900000"},{"id":"98728","name":"Ivanishchi","state_id":1881,"state_code":"VLA","country_id":182,"country_code":"RU","latitude":"55.77417000","longitude":"40.42731000"},{"id":"98825","name":"Kameshkovo","state_id":1881,"state_code":"VLA","country_id":182,"country_code":"RU","latitude":"56.35305000","longitude":"41.00941000"},{"id":"98851","name":"Karabanovo","state_id":1881,"state_code":"VLA","country_id":182,"country_code":"RU","latitude":"56.31667000","longitude":"38.70000000"},{"id":"99034","name":"Kideksha","state_id":1881,"state_code":"VLA","country_id":182,"country_code":"RU","latitude":"56.42381000","longitude":"40.52146000"},{"id":"99077","name":"Kirzhach","state_id":1881,"state_code":"VLA","country_id":182,"country_code":"RU","latitude":"56.15273000","longitude":"38.85509000"},{"id":"99154","name":"Kol\u2019chugino","state_id":1881,"state_code":"VLA","country_id":182,"country_code":"RU","latitude":"56.29929000","longitude":"39.38304000"},{"id":"99155","name":"Kol\u2019chuginskiy Rayon","state_id":1881,"state_code":"VLA","country_id":182,"country_code":"RU","latitude":"56.25000000","longitude":"39.41667000"},{"id":"99163","name":"Kommunar","state_id":1881,"state_code":"VLA","country_id":182,"country_code":"RU","latitude":"56.11222000","longitude":"40.44666000"},{"id":"99237","name":"Kosterevo","state_id":1881,"state_code":"VLA","country_id":182,"country_code":"RU","latitude":"55.92990000","longitude":"39.61438000"},{"id":"99255","name":"Kovrov","state_id":1881,"state_code":"VLA","country_id":182,"country_code":"RU","latitude":"56.35722000","longitude":"41.31917000"},{"id":"99278","name":"Krasnaya Gorbatka","state_id":1881,"state_code":"VLA","country_id":182,"country_code":"RU","latitude":"55.87030000","longitude":"41.76410000"},{"id":"99359","name":"Krasnyy Bogatyr\u2019","state_id":1881,"state_code":"VLA","country_id":182,"country_code":"RU","latitude":"56.01453000","longitude":"41.12958000"},{"id":"99370","name":"Krasnyy Oktyabr\u2019","state_id":1881,"state_code":"VLA","country_id":182,"country_code":"RU","latitude":"56.11667000","longitude":"38.88333000"},{"id":"99466","name":"Kurlovo","state_id":1881,"state_code":"VLA","country_id":182,"country_code":"RU","latitude":"55.43252000","longitude":"40.48539000"},{"id":"99540","name":"Lakinsk","state_id":1881,"state_code":"VLA","country_id":182,"country_code":"RU","latitude":"56.01931000","longitude":"39.94848000"},{"id":"99688","name":"Luknovo","state_id":1881,"state_code":"VLA","country_id":182,"country_code":"RU","latitude":"56.18045000","longitude":"42.03987000"},{"id":"99852","name":"Melekhovo","state_id":1881,"state_code":"VLA","country_id":182,"country_code":"RU","latitude":"56.27730000","longitude":"41.29346000"},{"id":"99853","name":"Melenki","state_id":1881,"state_code":"VLA","country_id":182,"country_code":"RU","latitude":"55.33430000","longitude":"41.62950000"},{"id":"99854","name":"Melenkovskiy Rayon","state_id":1881,"state_code":"VLA","country_id":182,"country_code":"RU","latitude":"55.33333000","longitude":"41.50000000"},{"id":"99884","name":"Mezinovskiy","state_id":1881,"state_code":"VLA","country_id":182,"country_code":"RU","latitude":"55.50420000","longitude":"40.35932000"},{"id":"99990","name":"Mstera","state_id":1881,"state_code":"VLA","country_id":182,"country_code":"RU","latitude":"56.37889000","longitude":"41.92000000"},{"id":"100012","name":"Murom","state_id":1881,"state_code":"VLA","country_id":182,"country_code":"RU","latitude":"55.57500000","longitude":"42.04260000"},{"id":"100013","name":"Muromskiy Rayon","state_id":1881,"state_code":"VLA","country_id":182,"country_code":"RU","latitude":"55.58333000","longitude":"41.91667000"},{"id":"100015","name":"Muromtsevo","state_id":1881,"state_code":"VLA","country_id":182,"country_code":"RU","latitude":"55.93096000","longitude":"40.90738000"},{"id":"100142","name":"Nikologory","state_id":1881,"state_code":"VLA","country_id":182,"country_code":"RU","latitude":"56.14130000","longitude":"41.99218000"},{"id":"100217","name":"Novki","state_id":1881,"state_code":"VLA","country_id":182,"country_code":"RU","latitude":"56.36386000","longitude":"41.08655000"},{"id":"100330","name":"Novovyazniki","state_id":1881,"state_code":"VLA","country_id":182,"country_code":"RU","latitude":"56.19750000","longitude":"42.17111000"},{"id":"100410","name":"Oktyabr\u2019skiy","state_id":1881,"state_code":"VLA","country_id":182,"country_code":"RU","latitude":"56.21887000","longitude":"42.04069000"},{"id":"100466","name":"Orgtrud","state_id":1881,"state_code":"VLA","country_id":182,"country_code":"RU","latitude":"56.18320000","longitude":"40.61490000"},{"id":"100667","name":"Petushinskiy Rayon","state_id":1881,"state_code":"VLA","country_id":182,"country_code":"RU","latitude":"55.91667000","longitude":"40.00000000"},{"id":"100668","name":"Petushki","state_id":1881,"state_code":"VLA","country_id":182,"country_code":"RU","latitude":"55.92639000","longitude":"39.46104000"},{"id":"100742","name":"Pokrov","state_id":1881,"state_code":"VLA","country_id":182,"country_code":"RU","latitude":"55.91797000","longitude":"39.17242000"},{"id":"100929","name":"Raduzhnyy","state_id":1881,"state_code":"VLA","country_id":182,"country_code":"RU","latitude":"56.00380000","longitude":"40.33905000"},{"id":"101426","name":"Sobinka","state_id":1881,"state_code":"VLA","country_id":182,"country_code":"RU","latitude":"55.98553000","longitude":"40.01111000"},{"id":"101427","name":"Sobinskiy Rayon","state_id":1881,"state_code":"VLA","country_id":182,"country_code":"RU","latitude":"56.16667000","longitude":"40.00000000"},{"id":"101614","name":"Stavrovo","state_id":1881,"state_code":"VLA","country_id":182,"country_code":"RU","latitude":"56.13311000","longitude":"40.01295000"},{"id":"101615","name":"Stepantsevo","state_id":1881,"state_code":"VLA","country_id":182,"country_code":"RU","latitude":"56.13143000","longitude":"41.70320000"},{"id":"101635","name":"Strunino","state_id":1881,"state_code":"VLA","country_id":182,"country_code":"RU","latitude":"56.37328000","longitude":"38.58321000"},{"id":"101644","name":"Sudogda","state_id":1881,"state_code":"VLA","country_id":182,"country_code":"RU","latitude":"55.95394000","longitude":"40.86291000"},{"id":"101645","name":"Sudogodskiy Rayon","state_id":1881,"state_code":"VLA","country_id":182,"country_code":"RU","latitude":"56.00000000","longitude":"41.00000000"},{"id":"101690","name":"Suzdal\u2019","state_id":1881,"state_code":"VLA","country_id":182,"country_code":"RU","latitude":"56.42274000","longitude":"40.44668000"},{"id":"101691","name":"Suzdal\u2019skiy Rayon","state_id":1881,"state_code":"VLA","country_id":182,"country_code":"RU","latitude":"56.08333000","longitude":"40.50000000"},{"id":"102084","name":"Urshel\u2019skiy","state_id":1881,"state_code":"VLA","country_id":182,"country_code":"RU","latitude":"55.67833000","longitude":"40.21692000"},{"id":"102214","name":"Velikodvorskiy","state_id":1881,"state_code":"VLA","country_id":182,"country_code":"RU","latitude":"55.24996000","longitude":"40.66780000"},{"id":"102326","name":"Vladimir","state_id":1881,"state_code":"VLA","country_id":182,"country_code":"RU","latitude":"56.13655000","longitude":"40.39658000"},{"id":"102386","name":"Vorsha","state_id":1881,"state_code":"VLA","country_id":182,"country_code":"RU","latitude":"56.04910000","longitude":"40.07966000"},{"id":"102422","name":"Vyazniki","state_id":1881,"state_code":"VLA","country_id":182,"country_code":"RU","latitude":"56.24057000","longitude":"42.15563000"},{"id":"102603","name":"Yur\u2019yev-Pol\u2019skiy","state_id":1881,"state_code":"VLA","country_id":182,"country_code":"RU","latitude":"56.50339000","longitude":"39.67911000"},{"id":"102604","name":"Yur\u2019yev-Pol\u2019skiy Rayon","state_id":1881,"state_code":"VLA","country_id":182,"country_code":"RU","latitude":"56.58333000","longitude":"39.58333000"},{"id":"102764","name":"Zolotkovo","state_id":1881,"state_code":"VLA","country_id":182,"country_code":"RU","latitude":"55.52810000","longitude":"41.10530000"}]