[{"id":"97589","name":"Ali-Yurt","state_id":1884,"state_code":"IN","country_id":182,"country_code":"RU","latitude":"43.14250000","longitude":"44.85250000"},{"id":"97592","name":"Alkhan-Churt","state_id":1884,"state_code":"IN","country_id":182,"country_code":"RU","latitude":"43.35194000","longitude":"44.78694000"},{"id":"98235","name":"Dalakovo","state_id":1884,"state_code":"IN","country_id":182,"country_code":"RU","latitude":"43.23759000","longitude":"44.58964000"},{"id":"98374","name":"Dzhayrakh","state_id":1884,"state_code":"IN","country_id":182,"country_code":"RU","latitude":"42.82043000","longitude":"44.68139000"},{"id":"98375","name":"Dzhayrakhskiy Rayon","state_id":1884,"state_code":"IN","country_id":182,"country_code":"RU","latitude":"42.80749000","longitude":"44.91760000"},{"id":"98382","name":"Ekazhevo","state_id":1884,"state_code":"IN","country_id":182,"country_code":"RU","latitude":"43.21222000","longitude":"44.82306000"},{"id":"98449","name":"Galashki","state_id":1884,"state_code":"IN","country_id":182,"country_code":"RU","latitude":"43.11740000","longitude":"44.99055000"},{"id":"98847","name":"Kantyshevo","state_id":1884,"state_code":"IN","country_id":182,"country_code":"RU","latitude":"43.22824000","longitude":"44.63322000"},{"id":"98856","name":"Karabulak","state_id":1884,"state_code":"IN","country_id":182,"country_code":"RU","latitude":"43.30513000","longitude":"44.89949000"},{"id":"99734","name":"Magas","state_id":1884,"state_code":"IN","country_id":182,"country_code":"RU","latitude":"43.22257000","longitude":"44.77261000"},{"id":"99754","name":"Malgobek","state_id":1884,"state_code":"IN","country_id":182,"country_code":"RU","latitude":"43.51118000","longitude":"44.58821000"},{"id":"99755","name":"Malgobekskiy Rayon","state_id":1884,"state_code":"IN","country_id":182,"country_code":"RU","latitude":"43.50000000","longitude":"44.58333000"},{"id":"100078","name":"Nazran\u2019","state_id":1884,"state_code":"IN","country_id":182,"country_code":"RU","latitude":"43.22597000","longitude":"44.77323000"},{"id":"100077","name":"Nazranovskiy Rayon","state_id":1884,"state_code":"IN","country_id":182,"country_code":"RU","latitude":"43.25000000","longitude":"44.83333000"},{"id":"100112","name":"Nesterovskaya","state_id":1884,"state_code":"IN","country_id":182,"country_code":"RU","latitude":"43.23861000","longitude":"45.05028000"},{"id":"100178","name":"Nizhniye Achaluki","state_id":1884,"state_code":"IN","country_id":182,"country_code":"RU","latitude":"43.40280000","longitude":"44.75908000"},{"id":"100878","name":"Psedakh","state_id":1884,"state_code":"IN","country_id":182,"country_code":"RU","latitude":"43.46722000","longitude":"44.56917000"},{"id":"101073","name":"Sagopshi","state_id":1884,"state_code":"IN","country_id":182,"country_code":"RU","latitude":"43.48515000","longitude":"44.59063000"},{"id":"101605","name":"Staryy Malgobek","state_id":1884,"state_code":"IN","country_id":182,"country_code":"RU","latitude":"43.54437000","longitude":"44.59592000"},{"id":"101666","name":"Sunzha","state_id":1884,"state_code":"IN","country_id":182,"country_code":"RU","latitude":"43.31950000","longitude":"45.04911000"},{"id":"101668","name":"Sunzhenskiy Rayon","state_id":1884,"state_code":"IN","country_id":182,"country_code":"RU","latitude":"43.33333000","longitude":"45.08333000"},{"id":"101677","name":"Surkhakhi","state_id":1884,"state_code":"IN","country_id":182,"country_code":"RU","latitude":"43.18750000","longitude":"44.90194000"},{"id":"101916","name":"Troitskaya","state_id":1884,"state_code":"IN","country_id":182,"country_code":"RU","latitude":"43.30664000","longitude":"44.98395000"},{"id":"102260","name":"Verkhniye Achaluki","state_id":1884,"state_code":"IN","country_id":182,"country_code":"RU","latitude":"43.34694000","longitude":"44.69750000"},{"id":"102409","name":"Voznesenskaya","state_id":1884,"state_code":"IN","country_id":182,"country_code":"RU","latitude":"43.54379000","longitude":"44.74614000"}]