[{"id":"97485","name":"Abdulino","state_id":1886,"state_code":"ORE","country_id":182,"country_code":"RU","latitude":"53.70000000","longitude":"53.66667000"},{"id":"97501","name":"Adamovka","state_id":1886,"state_code":"ORE","country_id":182,"country_code":"RU","latitude":"51.52230000","longitude":"59.93960000"},{"id":"97557","name":"Alandskoye","state_id":1886,"state_code":"ORE","country_id":182,"country_code":"RU","latitude":"52.22611000","longitude":"59.79389000"},{"id":"97695","name":"Asekeyevo","state_id":1886,"state_code":"ORE","country_id":182,"country_code":"RU","latitude":"53.57425000","longitude":"52.79724000"},{"id":"97877","name":"Belyayevka","state_id":1886,"state_code":"ORE","country_id":182,"country_code":"RU","latitude":"51.39742000","longitude":"56.41667000"},{"id":"98069","name":"Buguruslan","state_id":1886,"state_code":"ORE","country_id":182,"country_code":"RU","latitude":"53.65540000","longitude":"52.44200000"},{"id":"98096","name":"Buzuluk","state_id":1886,"state_code":"ORE","country_id":182,"country_code":"RU","latitude":"52.78070000","longitude":"52.26350000"},{"id":"98305","name":"Dombarovskiy","state_id":1886,"state_code":"ORE","country_id":182,"country_code":"RU","latitude":"50.75870000","longitude":"59.53860000"},{"id":"98396","name":"Energetik","state_id":1886,"state_code":"ORE","country_id":182,"country_code":"RU","latitude":"51.74450000","longitude":"58.79340000"},{"id":"98465","name":"Gay","state_id":1886,"state_code":"ORE","country_id":182,"country_code":"RU","latitude":"51.46660000","longitude":"58.45520000"},{"id":"98645","name":"Ilek","state_id":1886,"state_code":"ORE","country_id":182,"country_code":"RU","latitude":"51.52709000","longitude":"53.38306000"},{"id":"98872","name":"Kardailovo","state_id":1886,"state_code":"ORE","country_id":182,"country_code":"RU","latitude":"51.53861000","longitude":"53.90417000"},{"id":"99149","name":"Koltubanovskiy","state_id":1886,"state_code":"ORE","country_id":182,"country_code":"RU","latitude":"52.94070000","longitude":"52.02690000"},{"id":"99312","name":"Krasnogvardeyets","state_id":1886,"state_code":"ORE","country_id":182,"country_code":"RU","latitude":"52.68040000","longitude":"52.36350000"},{"id":"99323","name":"Krasnokholm","state_id":1886,"state_code":"ORE","country_id":182,"country_code":"RU","latitude":"51.59787000","longitude":"54.15670000"},{"id":"99345","name":"Krasnoyarskiy","state_id":1886,"state_code":"ORE","country_id":182,"country_code":"RU","latitude":"51.96500000","longitude":"59.89667000"},{"id":"99365","name":"Krasnyy Kommunar","state_id":1886,"state_code":"ORE","country_id":182,"country_code":"RU","latitude":"51.96436000","longitude":"55.36680000"},{"id":"99467","name":"Kurmanayevka","state_id":1886,"state_code":"ORE","country_id":182,"country_code":"RU","latitude":"52.50930000","longitude":"52.06750000"},{"id":"99490","name":"Kuvandyk","state_id":1886,"state_code":"ORE","country_id":182,"country_code":"RU","latitude":"51.47810000","longitude":"57.35520000"},{"id":"99513","name":"Kvarkeno","state_id":1886,"state_code":"ORE","country_id":182,"country_code":"RU","latitude":"52.08333000","longitude":"59.72500000"},{"id":"99514","name":"Kvarkenskiy Rayon","state_id":1886,"state_code":"ORE","country_id":182,"country_code":"RU","latitude":"52.16667000","longitude":"59.50000000"},{"id":"99816","name":"Matveyevka","state_id":1886,"state_code":"ORE","country_id":182,"country_code":"RU","latitude":"52.15000000","longitude":"56.18333000"},{"id":"99840","name":"Mednogorsk","state_id":1886,"state_code":"ORE","country_id":182,"country_code":"RU","latitude":"51.41280000","longitude":"57.59500000"},{"id":"100127","name":"Nezhinka","state_id":1886,"state_code":"ORE","country_id":182,"country_code":"RU","latitude":"51.76760000","longitude":"55.36940000"},{"id":"100157","name":"Nizhnepavlovka","state_id":1886,"state_code":"ORE","country_id":182,"country_code":"RU","latitude":"51.71324000","longitude":"54.80146000"},{"id":"100274","name":"Novoorsk","state_id":1886,"state_code":"ORE","country_id":182,"country_code":"RU","latitude":"51.38100000","longitude":"58.98130000"},{"id":"100275","name":"Novoorskiy Rayon","state_id":1886,"state_code":"ORE","country_id":182,"country_code":"RU","latitude":"51.50000000","longitude":"59.00000000"},{"id":"100290","name":"Novorudnyy","state_id":1886,"state_code":"ORE","country_id":182,"country_code":"RU","latitude":"51.50260000","longitude":"58.18730000"},{"id":"100296","name":"Novosergiyevka","state_id":1886,"state_code":"ORE","country_id":182,"country_code":"RU","latitude":"52.09340000","longitude":"53.65280000"},{"id":"100316","name":"Novotroitsk","state_id":1886,"state_code":"ORE","country_id":182,"country_code":"RU","latitude":"51.20301000","longitude":"58.32665000"},{"id":"100465","name":"Orenburg","state_id":1886,"state_code":"ORE","country_id":182,"country_code":"RU","latitude":"51.77270000","longitude":"55.09880000"},{"id":"100480","name":"Orsk","state_id":1886,"state_code":"ORE","country_id":182,"country_code":"RU","latitude":"51.20487000","longitude":"58.56685000"},{"id":"100608","name":"Perevolotskiy","state_id":1886,"state_code":"ORE","country_id":182,"country_code":"RU","latitude":"51.87633000","longitude":"54.19378000"},{"id":"100702","name":"Pleshanovo","state_id":1886,"state_code":"ORE","country_id":182,"country_code":"RU","latitude":"52.83333000","longitude":"53.48333000"},{"id":"100718","name":"Podgorodnyaya Pokrovka","state_id":1886,"state_code":"ORE","country_id":182,"country_code":"RU","latitude":"51.82808000","longitude":"54.98740000"},{"id":"100821","name":"Prigorodnyy","state_id":1886,"state_code":"ORE","country_id":182,"country_code":"RU","latitude":"51.76608000","longitude":"55.26648000"},{"id":"101076","name":"Sakmara","state_id":1886,"state_code":"ORE","country_id":182,"country_code":"RU","latitude":"51.98438000","longitude":"55.33380000"},{"id":"101106","name":"Saraktash","state_id":1886,"state_code":"ORE","country_id":182,"country_code":"RU","latitude":"51.78771000","longitude":"56.36091000"},{"id":"101107","name":"Saraktashskiy Rayon","state_id":1886,"state_code":"ORE","country_id":182,"country_code":"RU","latitude":"51.83333000","longitude":"56.41667000"},{"id":"101204","name":"Severnoye","state_id":1886,"state_code":"ORE","country_id":182,"country_code":"RU","latitude":"54.09347000","longitude":"52.54393000"},{"id":"101262","name":"Sharlyk","state_id":1886,"state_code":"ORE","country_id":182,"country_code":"RU","latitude":"52.91667000","longitude":"54.75000000"},{"id":"101317","name":"Shil\u2019da","state_id":1886,"state_code":"ORE","country_id":182,"country_code":"RU","latitude":"51.81430000","longitude":"59.77440000"},{"id":"101472","name":"Sol\u2019-Iletsk","state_id":1886,"state_code":"ORE","country_id":182,"country_code":"RU","latitude":"51.16310000","longitude":"54.99176000"},{"id":"101477","name":"Sorochinsk","state_id":1886,"state_code":"ORE","country_id":182,"country_code":"RU","latitude":"52.43380000","longitude":"53.15830000"},{"id":"101557","name":"Staraya Akkermanovka","state_id":1886,"state_code":"ORE","country_id":182,"country_code":"RU","latitude":"51.24669000","longitude":"58.23908000"},{"id":"101708","name":"Svetlyy","state_id":1886,"state_code":"ORE","country_id":182,"country_code":"RU","latitude":"50.81833000","longitude":"60.85194000"},{"id":"101787","name":"Tashla","state_id":1886,"state_code":"ORE","country_id":182,"country_code":"RU","latitude":"51.77157000","longitude":"52.74270000"},{"id":"101793","name":"Tatarskaya Kargala","state_id":1886,"state_code":"ORE","country_id":182,"country_code":"RU","latitude":"51.94952000","longitude":"55.17314000"},{"id":"101906","name":"Totskoye","state_id":1886,"state_code":"ORE","country_id":182,"country_code":"RU","latitude":"52.52478000","longitude":"52.76228000"},{"id":"102004","name":"Tyul\u2019gan","state_id":1886,"state_code":"ORE","country_id":182,"country_code":"RU","latitude":"52.34049000","longitude":"56.16604000"},{"id":"102515","name":"Yasnyy","state_id":1886,"state_code":"ORE","country_id":182,"country_code":"RU","latitude":"51.03330000","longitude":"59.87420000"},{"id":"102540","name":"Yelizavetinka","state_id":1886,"state_code":"ORE","country_id":182,"country_code":"RU","latitude":"51.76732000","longitude":"59.74245000"}]