[{"id":"97498","name":"Achit","state_id":1894,"state_code":"SVE","country_id":182,"country_code":"RU","latitude":"56.79850000","longitude":"57.89940000"},{"id":"97558","name":"Alapayevsk","state_id":1894,"state_code":"SVE","country_id":182,"country_code":"RU","latitude":"57.85158000","longitude":"61.69627000"},{"id":"97652","name":"Aramil","state_id":1894,"state_code":"SVE","country_id":182,"country_code":"RU","latitude":"56.69770000","longitude":"60.83690000"},{"id":"97687","name":"Art\u00ebmovskiy","state_id":1894,"state_code":"SVE","country_id":182,"country_code":"RU","latitude":"57.35550000","longitude":"61.86865000"},{"id":"97683","name":"Arti","state_id":1894,"state_code":"SVE","country_id":182,"country_code":"RU","latitude":"56.42344000","longitude":"58.53276000"},{"id":"97693","name":"Asbest","state_id":1894,"state_code":"SVE","country_id":182,"country_code":"RU","latitude":"57.00993000","longitude":"61.45776000"},{"id":"97694","name":"Asbestovskiy","state_id":1894,"state_code":"SVE","country_id":182,"country_code":"RU","latitude":"57.75574000","longitude":"61.39672000"},{"id":"97711","name":"Atig","state_id":1894,"state_code":"SVE","country_id":182,"country_code":"RU","latitude":"56.69307000","longitude":"59.42271000"},{"id":"97732","name":"Azanka","state_id":1894,"state_code":"SVE","country_id":182,"country_code":"RU","latitude":"58.04012000","longitude":"64.78927000"},{"id":"97788","name":"Baraba","state_id":1894,"state_code":"SVE","country_id":182,"country_code":"RU","latitude":"56.75000000","longitude":"61.76667000"},{"id":"97791","name":"Baranchinskiy","state_id":1894,"state_code":"SVE","country_id":182,"country_code":"RU","latitude":"58.16170000","longitude":"59.69910000"},{"id":"97824","name":"Baykalovo","state_id":1894,"state_code":"SVE","country_id":182,"country_code":"RU","latitude":"57.39811000","longitude":"63.76841000"},{"id":"97870","name":"Beloyarskiy","state_id":1894,"state_code":"SVE","country_id":182,"country_code":"RU","latitude":"56.75840000","longitude":"61.41430000"},{"id":"97901","name":"Beryozovsky","state_id":1894,"state_code":"SVE","country_id":182,"country_code":"RU","latitude":"56.90830000","longitude":"60.80190000"},{"id":"97929","name":"Bilimbay","state_id":1894,"state_code":"SVE","country_id":182,"country_code":"RU","latitude":"56.96889000","longitude":"59.81490000"},{"id":"97940","name":"Bisert\u2019","state_id":1894,"state_code":"SVE","country_id":182,"country_code":"RU","latitude":"56.86174000","longitude":"59.05231000"},{"id":"97958","name":"Bobrovskiy","state_id":1894,"state_code":"SVE","country_id":182,"country_code":"RU","latitude":"56.67320000","longitude":"60.98070000"},{"id":"97965","name":"Bogdanovich","state_id":1894,"state_code":"SVE","country_id":182,"country_code":"RU","latitude":"56.78028000","longitude":"62.04944000"},{"id":"98074","name":"Bulanash","state_id":1894,"state_code":"SVE","country_id":182,"country_code":"RU","latitude":"57.27825000","longitude":"61.99650000"},{"id":"98086","name":"Butka","state_id":1894,"state_code":"SVE","country_id":182,"country_code":"RU","latitude":"56.71788000","longitude":"63.78661000"},{"id":"98189","name":"Cher\u00ebmukhovo","state_id":1894,"state_code":"SVE","country_id":182,"country_code":"RU","latitude":"60.34842000","longitude":"59.98507000"},{"id":"98171","name":"Chernoistochinsk","state_id":1894,"state_code":"SVE","country_id":182,"country_code":"RU","latitude":"57.73639000","longitude":"59.87194000"},{"id":"98258","name":"Degtyarsk","state_id":1894,"state_code":"SVE","country_id":182,"country_code":"RU","latitude":"56.70400000","longitude":"60.08790000"},{"id":"98331","name":"Druzhinino","state_id":1894,"state_code":"SVE","country_id":182,"country_code":"RU","latitude":"56.78945000","longitude":"59.51428000"},{"id":"98361","name":"Dvurechensk","state_id":1894,"state_code":"SVE","country_id":182,"country_code":"RU","latitude":"56.59820000","longitude":"61.09530000"},{"id":"98458","name":"Gari","state_id":1894,"state_code":"SVE","country_id":182,"country_code":"RU","latitude":"59.43075000","longitude":"62.34967000"},{"id":"98544","name":"Gornyy Shchit","state_id":1894,"state_code":"SVE","country_id":182,"country_code":"RU","latitude":"56.68815000","longitude":"60.51947000"},{"id":"98598","name":"Gryaznovskoye","state_id":1894,"state_code":"SVE","country_id":182,"country_code":"RU","latitude":"56.78250000","longitude":"61.70530000"},{"id":"98689","name":"Irbit","state_id":1894,"state_code":"SVE","country_id":182,"country_code":"RU","latitude":"57.67052000","longitude":"63.07100000"},{"id":"98696","name":"Is","state_id":1894,"state_code":"SVE","country_id":182,"country_code":"RU","latitude":"58.79090000","longitude":"59.71790000"},{"id":"98701","name":"Iset\u2019","state_id":1894,"state_code":"SVE","country_id":182,"country_code":"RU","latitude":"56.97790000","longitude":"60.37180000"},{"id":"98719","name":"Istok","state_id":1894,"state_code":"SVE","country_id":182,"country_code":"RU","latitude":"56.79086000","longitude":"60.77889000"},{"id":"98738","name":"Ivdel\u2019","state_id":1894,"state_code":"SVE","country_id":182,"country_code":"RU","latitude":"60.69111000","longitude":"60.42056000"},{"id":"98759","name":"Izumrud","state_id":1894,"state_code":"SVE","country_id":182,"country_code":"RU","latitude":"57.07881000","longitude":"61.39932000"},{"id":"98766","name":"Kachkanar","state_id":1894,"state_code":"SVE","country_id":182,"country_code":"RU","latitude":"58.70020000","longitude":"59.48390000"},{"id":"98793","name":"Kalinovo","state_id":1894,"state_code":"SVE","country_id":182,"country_code":"RU","latitude":"57.13170000","longitude":"60.14640000"},{"id":"98820","name":"Kamensk-Ural\u2019skiy","state_id":1894,"state_code":"SVE","country_id":182,"country_code":"RU","latitude":"56.41850000","longitude":"61.93290000"},{"id":"98830","name":"Kamyshlov","state_id":1894,"state_code":"SVE","country_id":182,"country_code":"RU","latitude":"56.84278000","longitude":"62.71111000"},{"id":"98883","name":"Karpinsk","state_id":1894,"state_code":"SVE","country_id":182,"country_code":"RU","latitude":"59.77030000","longitude":"59.99640000"},{"id":"98885","name":"Karpushikha","state_id":1894,"state_code":"SVE","country_id":182,"country_code":"RU","latitude":"57.50167000","longitude":"59.89556000"},{"id":"98934","name":"Kedrovoye","state_id":1894,"state_code":"SVE","country_id":182,"country_code":"RU","latitude":"57.15760000","longitude":"60.56980000"},{"id":"99061","name":"Kirovgrad","state_id":1894,"state_code":"SVE","country_id":182,"country_code":"RU","latitude":"57.42972000","longitude":"60.05972000"},{"id":"99109","name":"Klyuchevsk","state_id":1894,"state_code":"SVE","country_id":182,"country_code":"RU","latitude":"57.12160000","longitude":"60.94140000"},{"id":"99313","name":"Krasnogvardeyskiy","state_id":1894,"state_code":"SVE","country_id":182,"country_code":"RU","latitude":"57.37928000","longitude":"62.31952000"},{"id":"99337","name":"Krasnotur\u2019insk","state_id":1894,"state_code":"SVE","country_id":182,"country_code":"RU","latitude":"59.76660000","longitude":"60.20860000"},{"id":"99338","name":"Krasnoufimsk","state_id":1894,"state_code":"SVE","country_id":182,"country_code":"RU","latitude":"56.60585000","longitude":"57.76686000"},{"id":"99339","name":"Krasnoural\u2019sk","state_id":1894,"state_code":"SVE","country_id":182,"country_code":"RU","latitude":"58.36380000","longitude":"60.04070000"},{"id":"99488","name":"Kushva","state_id":1894,"state_code":"SVE","country_id":182,"country_code":"RU","latitude":"58.29056000","longitude":"59.75917000"},{"id":"99505","name":"Kuzino","state_id":1894,"state_code":"SVE","country_id":182,"country_code":"RU","latitude":"57.02240000","longitude":"59.44120000"},{"id":"99596","name":"Lesnoy","state_id":1894,"state_code":"SVE","country_id":182,"country_code":"RU","latitude":"57.61980000","longitude":"63.07840000"},{"id":"99615","name":"Levikha","state_id":1894,"state_code":"SVE","country_id":182,"country_code":"RU","latitude":"57.58361000","longitude":"59.90028000"},{"id":"99647","name":"Lobva","state_id":1894,"state_code":"SVE","country_id":182,"country_code":"RU","latitude":"59.18538000","longitude":"60.51846000"},{"id":"99667","name":"Losinyy","state_id":1894,"state_code":"SVE","country_id":182,"country_code":"RU","latitude":"57.13862000","longitude":"61.06663000"},{"id":"99682","name":"Lugovskoy","state_id":1894,"state_code":"SVE","country_id":182,"country_code":"RU","latitude":"56.95849000","longitude":"64.52897000"},{"id":"99771","name":"Malysheva","state_id":1894,"state_code":"SVE","country_id":182,"country_code":"RU","latitude":"57.11851000","longitude":"61.40345000"},{"id":"99807","name":"Martyush","state_id":1894,"state_code":"SVE","country_id":182,"country_code":"RU","latitude":"56.40000000","longitude":"61.88194000"},{"id":"99900","name":"Mikhaylovsk","state_id":1894,"state_code":"SVE","country_id":182,"country_code":"RU","latitude":"56.43583000","longitude":"59.12000000"},{"id":"99958","name":"Monetnyy","state_id":1894,"state_code":"SVE","country_id":182,"country_code":"RU","latitude":"57.04720000","longitude":"60.87940000"},{"id":"100121","name":"Nev\u2019yansk","state_id":1894,"state_code":"SVE","country_id":182,"country_code":"RU","latitude":"57.49530000","longitude":"60.21120000"},{"id":"100124","name":"Neyvo-Rudyanka","state_id":1894,"state_code":"SVE","country_id":182,"country_code":"RU","latitude":"57.34440000","longitude":"60.13430000"},{"id":"100125","name":"Neyvo-Shaytanskiy","state_id":1894,"state_code":"SVE","country_id":182,"country_code":"RU","latitude":"57.72860000","longitude":"61.24956000"},{"id":"100141","name":"Nikolo-Pavlovskoye","state_id":1894,"state_code":"SVE","country_id":182,"country_code":"RU","latitude":"57.78306000","longitude":"60.05778000"},{"id":"100179","name":"Nizhniye Sergi","state_id":1894,"state_code":"SVE","country_id":182,"country_code":"RU","latitude":"56.66139000","longitude":"59.30333000"},{"id":"100181","name":"Nizhny Tagil","state_id":1894,"state_code":"SVE","country_id":182,"country_code":"RU","latitude":"57.91944000","longitude":"59.96500000"},{"id":"100182","name":"Nizhnyaya Irga","state_id":1894,"state_code":"SVE","country_id":182,"country_code":"RU","latitude":"56.86690000","longitude":"57.42200000"},{"id":"100186","name":"Nizhnyaya Salda","state_id":1894,"state_code":"SVE","country_id":182,"country_code":"RU","latitude":"58.07756000","longitude":"60.72020000"},{"id":"100188","name":"Nizhnyaya Tura","state_id":1894,"state_code":"SVE","country_id":182,"country_code":"RU","latitude":"58.62930000","longitude":"59.81180000"},{"id":"100206","name":"Novaya Lyalya","state_id":1894,"state_code":"SVE","country_id":182,"country_code":"RU","latitude":"59.05503000","longitude":"60.59899000"},{"id":"100225","name":"Novoasbest","state_id":1894,"state_code":"SVE","country_id":182,"country_code":"RU","latitude":"57.74225000","longitude":"60.28773000"},{"id":"100322","name":"Novoural\u2019sk","state_id":1894,"state_code":"SVE","country_id":182,"country_code":"RU","latitude":"57.24389000","longitude":"60.08389000"},{"id":"100324","name":"Novoutkinsk","state_id":1894,"state_code":"SVE","country_id":182,"country_code":"RU","latitude":"56.99295000","longitude":"59.55714000"},{"id":"100393","name":"Obukhovskoye","state_id":1894,"state_code":"SVE","country_id":182,"country_code":"RU","latitude":"56.83450000","longitude":"62.61200000"},{"id":"100510","name":"Ous","state_id":1894,"state_code":"SVE","country_id":182,"country_code":"RU","latitude":"60.90583000","longitude":"61.51861000"},{"id":"100592","name":"Pelym","state_id":1894,"state_code":"SVE","country_id":182,"country_code":"RU","latitude":"61.01083000","longitude":"61.99778000"},{"id":"100629","name":"Pervoural\u2019sk","state_id":1894,"state_code":"SVE","country_id":182,"country_code":"RU","latitude":"56.90528000","longitude":"59.94361000"},{"id":"100650","name":"Petrokamenskoye","state_id":1894,"state_code":"SVE","country_id":182,"country_code":"RU","latitude":"57.71600000","longitude":"60.64840000"},{"id":"100749","name":"Pokrovskoye","state_id":1894,"state_code":"SVE","country_id":182,"country_code":"RU","latitude":"56.47040000","longitude":"61.60920000"},{"id":"100755","name":"Polevskoy","state_id":1894,"state_code":"SVE","country_id":182,"country_code":"RU","latitude":"56.44222000","longitude":"60.18778000"},{"id":"100760","name":"Polunochnoye","state_id":1894,"state_code":"SVE","country_id":182,"country_code":"RU","latitude":"60.86972000","longitude":"60.41528000"},{"id":"100916","name":"Pyshma","state_id":1894,"state_code":"SVE","country_id":182,"country_code":"RU","latitude":"56.95226000","longitude":"63.25129000"},{"id":"100959","name":"Reftinskiy","state_id":1894,"state_code":"SVE","country_id":182,"country_code":"RU","latitude":"57.09013000","longitude":"61.67692000"},{"id":"100969","name":"Revda","state_id":1894,"state_code":"SVE","country_id":182,"country_code":"RU","latitude":"56.80097000","longitude":"59.93028000"},{"id":"100971","name":"Rezh","state_id":1894,"state_code":"SVE","country_id":182,"country_code":"RU","latitude":"57.37005000","longitude":"61.40428000"},{"id":"101024","name":"Rudnichnyy","state_id":1894,"state_code":"SVE","country_id":182,"country_code":"RU","latitude":"59.70118000","longitude":"60.28817000"},{"id":"101108","name":"Sarana","state_id":1894,"state_code":"SVE","country_id":182,"country_code":"RU","latitude":"56.47728000","longitude":"57.72586000"},{"id":"101190","name":"Serov","state_id":1894,"state_code":"SVE","country_id":182,"country_code":"RU","latitude":"59.60334000","longitude":"60.57870000"},{"id":"101202","name":"Severka","state_id":1894,"state_code":"SVE","country_id":182,"country_code":"RU","latitude":"56.86880000","longitude":"60.30150000"},{"id":"101221","name":"Severoural\u2019sk","state_id":1894,"state_code":"SVE","country_id":182,"country_code":"RU","latitude":"60.15328000","longitude":"59.95205000"},{"id":"101231","name":"Shabrovskiy","state_id":1894,"state_code":"SVE","country_id":182,"country_code":"RU","latitude":"56.63597000","longitude":"60.58065000"},{"id":"101249","name":"Shalya","state_id":1894,"state_code":"SVE","country_id":182,"country_code":"RU","latitude":"57.24710000","longitude":"58.72980000"},{"id":"101251","name":"Shamary","state_id":1894,"state_code":"SVE","country_id":182,"country_code":"RU","latitude":"57.34340000","longitude":"58.21988000"},{"id":"101276","name":"Shchelkun","state_id":1894,"state_code":"SVE","country_id":182,"country_code":"RU","latitude":"56.30338000","longitude":"60.94831000"},{"id":"101329","name":"Shirokaya Rechka","state_id":1894,"state_code":"SVE","country_id":182,"country_code":"RU","latitude":"56.79858000","longitude":"60.48522000"},{"id":"101358","name":"Shuvakish","state_id":1894,"state_code":"SVE","country_id":182,"country_code":"RU","latitude":"56.91870000","longitude":"60.47727000"},{"id":"101499","name":"Sos\u2019va","state_id":1894,"state_code":"SVE","country_id":182,"country_code":"RU","latitude":"59.17662000","longitude":"61.85579000"},{"id":"101520","name":"Sovkhoznyy","state_id":1894,"state_code":"SVE","country_id":182,"country_code":"RU","latitude":"56.55990000","longitude":"61.42600000"},{"id":"101545","name":"Sredneuralsk","state_id":1894,"state_code":"SVE","country_id":182,"country_code":"RU","latitude":"56.98921000","longitude":"60.46662000"},{"id":"101591","name":"Staropyshminsk","state_id":1894,"state_code":"SVE","country_id":182,"country_code":"RU","latitude":"56.93867000","longitude":"60.90295000"},{"id":"101598","name":"Staroutkinsk","state_id":1894,"state_code":"SVE","country_id":182,"country_code":"RU","latitude":"57.23017000","longitude":"59.33483000"},{"id":"101654","name":"Sukhoy Log","state_id":1894,"state_code":"SVE","country_id":182,"country_code":"RU","latitude":"56.90940000","longitude":"62.02960000"},{"id":"101715","name":"Svobodnyy","state_id":1894,"state_code":"SVE","country_id":182,"country_code":"RU","latitude":"58.03972000","longitude":"60.39611000"},{"id":"101726","name":"Sylva","state_id":1894,"state_code":"SVE","country_id":182,"country_code":"RU","latitude":"57.30920000","longitude":"58.77340000"},{"id":"101733","name":"Sysert\u2019","state_id":1894,"state_code":"SVE","country_id":182,"country_code":"RU","latitude":"56.50243000","longitude":"60.81917000"},{"id":"101732","name":"Sysertskiy Rayon","state_id":1894,"state_code":"SVE","country_id":182,"country_code":"RU","latitude":"56.50000000","longitude":"60.75000000"},{"id":"101738","name":"Tabory","state_id":1894,"state_code":"SVE","country_id":182,"country_code":"RU","latitude":"58.51982000","longitude":"64.54947000"},{"id":"101752","name":"Talitsa","state_id":1894,"state_code":"SVE","country_id":182,"country_code":"RU","latitude":"57.01095000","longitude":"63.73254000"},{"id":"101799","name":"Tavda","state_id":1894,"state_code":"SVE","country_id":182,"country_code":"RU","latitude":"58.04254000","longitude":"65.27258000"},{"id":"101911","name":"Tretiy Severnyy","state_id":1894,"state_code":"SVE","country_id":182,"country_code":"RU","latitude":"60.20861000","longitude":"59.96111000"},{"id":"101918","name":"Troitskiy","state_id":1894,"state_code":"SVE","country_id":182,"country_code":"RU","latitude":"57.06028000","longitude":"63.74811000"},{"id":"101942","name":"Tsementnyy","state_id":1894,"state_code":"SVE","country_id":182,"country_code":"RU","latitude":"57.46930000","longitude":"60.15360000"},{"id":"101962","name":"Tugulym","state_id":1894,"state_code":"SVE","country_id":182,"country_code":"RU","latitude":"57.05906000","longitude":"64.64251000"},{"id":"101976","name":"Turinsk","state_id":1894,"state_code":"SVE","country_id":182,"country_code":"RU","latitude":"58.04575000","longitude":"63.69605000"},{"id":"101977","name":"Turinskaya Sloboda","state_id":1894,"state_code":"SVE","country_id":182,"country_code":"RU","latitude":"57.62320000","longitude":"64.38575000"},{"id":"102026","name":"Ufimskiy","state_id":1894,"state_code":"SVE","country_id":182,"country_code":"RU","latitude":"56.70840000","longitude":"58.05170000"},{"id":"102070","name":"Uralets","state_id":1894,"state_code":"SVE","country_id":182,"country_code":"RU","latitude":"57.66140000","longitude":"59.64970000"},{"id":"102181","name":"Valerianovsk","state_id":1894,"state_code":"SVE","country_id":182,"country_code":"RU","latitude":"58.76080000","longitude":"59.55960000"},{"id":"102232","name":"Verkh-Neyvinskiy","state_id":1894,"state_code":"SVE","country_id":182,"country_code":"RU","latitude":"57.27013000","longitude":"60.13762000"},{"id":"102247","name":"Verkhneye Dubrovo","state_id":1894,"state_code":"SVE","country_id":182,"country_code":"RU","latitude":"56.75280000","longitude":"61.04680000"},{"id":"102257","name":"Verkhniy Tagil","state_id":1894,"state_code":"SVE","country_id":182,"country_code":"RU","latitude":"57.37330000","longitude":"59.95560000"},{"id":"102263","name":"Verkhniye Sergi","state_id":1894,"state_code":"SVE","country_id":182,"country_code":"RU","latitude":"56.64694000","longitude":"59.55556000"},{"id":"102269","name":"Verkhnyaya Pyshma","state_id":1894,"state_code":"SVE","country_id":182,"country_code":"RU","latitude":"56.97047000","longitude":"60.58219000"},{"id":"102270","name":"Verkhnyaya Salda","state_id":1894,"state_code":"SVE","country_id":182,"country_code":"RU","latitude":"58.04874000","longitude":"60.55949000"},{"id":"102271","name":"Verkhnyaya Sinyachikha","state_id":1894,"state_code":"SVE","country_id":182,"country_code":"RU","latitude":"57.97604000","longitude":"61.66733000"},{"id":"102272","name":"Verkhnyaya Sysert\u2019","state_id":1894,"state_code":"SVE","country_id":182,"country_code":"RU","latitude":"56.44012000","longitude":"60.75563000"},{"id":"102275","name":"Verkhnyaya Tura","state_id":1894,"state_code":"SVE","country_id":182,"country_code":"RU","latitude":"58.36083000","longitude":"59.80667000"},{"id":"102277","name":"Verkhotur\u2019ye","state_id":1894,"state_code":"SVE","country_id":182,"country_code":"RU","latitude":"58.86271000","longitude":"60.80536000"},{"id":"102319","name":"Visim","state_id":1894,"state_code":"SVE","country_id":182,"country_code":"RU","latitude":"57.64880000","longitude":"59.50140000"},{"id":"102339","name":"Volchansk","state_id":1894,"state_code":"SVE","country_id":182,"country_code":"RU","latitude":"59.93780000","longitude":"60.08100000"},{"id":"102399","name":"Vostochnyy","state_id":1894,"state_code":"SVE","country_id":182,"country_code":"RU","latitude":"58.79991000","longitude":"61.81391000"},{"id":"102623","name":"Y\u00eblkino","state_id":1894,"state_code":"SVE","country_id":182,"country_code":"RU","latitude":"58.69220000","longitude":"59.83200000"},{"id":"102527","name":"Yekaterinburg","state_id":1894,"state_code":"SVE","country_id":182,"country_code":"RU","latitude":"56.85190000","longitude":"60.61220000"},{"id":"102534","name":"Yelanskiy","state_id":1894,"state_code":"SVE","country_id":182,"country_code":"RU","latitude":"56.84190000","longitude":"62.50140000"},{"id":"102574","name":"Yertarskiy","state_id":1894,"state_code":"SVE","country_id":182,"country_code":"RU","latitude":"56.79016000","longitude":"64.29952000"},{"id":"102607","name":"Yushala","state_id":1894,"state_code":"SVE","country_id":182,"country_code":"RU","latitude":"57.07611000","longitude":"64.26011000"},{"id":"102654","name":"Zarechnyy","state_id":1894,"state_code":"SVE","country_id":182,"country_code":"RU","latitude":"56.81100000","longitude":"61.32540000"},{"id":"102676","name":"Zavodouspenskoye","state_id":1894,"state_code":"SVE","country_id":182,"country_code":"RU","latitude":"56.86256000","longitude":"65.01553000"},{"id":"102685","name":"Zaykovo","state_id":1894,"state_code":"SVE","country_id":182,"country_code":"RU","latitude":"57.56130000","longitude":"62.75681000"},{"id":"102790","name":"Zyuzel\u2019skiy","state_id":1894,"state_code":"SVE","country_id":182,"country_code":"RU","latitude":"56.48560000","longitude":"60.13310000"}]