[{"id":"56405","name":"Kabupaten Fakfak","state_id":1799,"state_code":"PB","country_id":102,"country_code":"ID","latitude":"-2.92641000","longitude":"132.29608000"},{"id":"56435","name":"Kabupaten Kaimana","state_id":1799,"state_code":"PB","country_id":102,"country_code":"ID","latitude":"-3.66093000","longitude":"133.77451000"},{"id":"56527","name":"Kabupaten Manokwari","state_id":1799,"state_code":"PB","country_id":102,"country_code":"ID","latitude":"-0.90000000","longitude":"133.75000000"},{"id":"56528","name":"Kabupaten Manokwari Selatan","state_id":1799,"state_code":"PB","country_id":102,"country_code":"ID","latitude":"-1.07980000","longitude":"133.96729000"},{"id":"56531","name":"Kabupaten Maybrat","state_id":1799,"state_code":"PB","country_id":102,"country_code":"ID","latitude":"-1.21550000","longitude":"132.35092000"},{"id":"56608","name":"Kabupaten Raja Ampat","state_id":1799,"state_code":"PB","country_id":102,"country_code":"ID","latitude":"-0.50000000","longitude":"130.00000000"},{"id":"56641","name":"Kabupaten Sorong","state_id":1799,"state_code":"PB","country_id":102,"country_code":"ID","latitude":"-1.16667000","longitude":"131.50000000"},{"id":"56642","name":"Kabupaten Sorong Selatan","state_id":1799,"state_code":"PB","country_id":102,"country_code":"ID","latitude":"-1.50495000","longitude":"132.28638000"},{"id":"56660","name":"Kabupaten Tambrauw","state_id":1799,"state_code":"PB","country_id":102,"country_code":"ID","latitude":"-0.60515000","longitude":"132.48962000"},{"id":"56677","name":"Kabupaten Teluk Bintuni","state_id":1799,"state_code":"PB","country_id":102,"country_code":"ID","latitude":"-1.88037000","longitude":"133.33105000"},{"id":"56678","name":"Kabupaten Teluk Wondama","state_id":1799,"state_code":"PB","country_id":102,"country_code":"ID","latitude":"-2.70000000","longitude":"134.50000000"},{"id":"56799","name":"Kota Sorong","state_id":1799,"state_code":"PB","country_id":102,"country_code":"ID","latitude":"-0.86507000","longitude":"131.25152000"},{"id":"56860","name":"Manokwari","state_id":1799,"state_code":"PB","country_id":102,"country_code":"ID","latitude":"-0.86291000","longitude":"134.06402000"},{"id":"56995","name":"Sorong","state_id":1799,"state_code":"PB","country_id":102,"country_code":"ID","latitude":"-0.87956000","longitude":"131.26104000"}]