[{"id":"56293","name":"Jakarta","state_id":1805,"state_code":"JK","country_id":102,"country_code":"ID","latitude":"-6.21462000","longitude":"106.84513000"},{"id":"56722","name":"Kota Administrasi Jakarta Barat","state_id":1805,"state_code":"JK","country_id":102,"country_code":"ID","latitude":"-6.16760000","longitude":"106.76730000"},{"id":"56723","name":"Kota Administrasi Jakarta Pusat","state_id":1805,"state_code":"JK","country_id":102,"country_code":"ID","latitude":"-6.17770000","longitude":"106.84030000"},{"id":"56724","name":"Kota Administrasi Jakarta Selatan","state_id":1805,"state_code":"JK","country_id":102,"country_code":"ID","latitude":"-6.26600000","longitude":"106.81350000"},{"id":"56725","name":"Kota Administrasi Jakarta Timur","state_id":1805,"state_code":"JK","country_id":102,"country_code":"ID","latitude":"-6.25210000","longitude":"106.88400000"},{"id":"56726","name":"Kota Administrasi Jakarta Utara","state_id":1805,"state_code":"JK","country_id":102,"country_code":"ID","latitude":"-6.13390000","longitude":"106.88230000"}]