[{"id":"56509","name":"Kabupaten Majene","state_id":1817,"state_code":"SR","country_id":102,"country_code":"ID","latitude":"-3.15000000","longitude":"118.86667000"},{"id":"56517","name":"Kabupaten Mamasa","state_id":1817,"state_code":"SR","country_id":102,"country_code":"ID","latitude":"-2.96492000","longitude":"119.30631000"},{"id":"56520","name":"Kabupaten Mamuju","state_id":1817,"state_code":"SR","country_id":102,"country_code":"ID","latitude":"-2.50000000","longitude":"119.41667000"},{"id":"56521","name":"Kabupaten Mamuju Tengah","state_id":1817,"state_code":"SR","country_id":102,"country_code":"ID","latitude":"-2.82120000","longitude":"119.26620000"},{"id":"56522","name":"Kabupaten Mamuju Utara","state_id":1817,"state_code":"SR","country_id":102,"country_code":"ID","latitude":"-1.51639000","longitude":"119.42139000"},{"id":"56596","name":"Kabupaten Polewali Mandar","state_id":1817,"state_code":"SR","country_id":102,"country_code":"ID","latitude":"-3.30000000","longitude":"119.16667000"},{"id":"56854","name":"Majene","state_id":1817,"state_code":"SR","country_id":102,"country_code":"ID","latitude":"-3.54030000","longitude":"118.97070000"},{"id":"56857","name":"Mamuju","state_id":1817,"state_code":"SR","country_id":102,"country_code":"ID","latitude":"-2.68056000","longitude":"118.88611000"},{"id":"56935","name":"Polewali","state_id":1817,"state_code":"SR","country_id":102,"country_code":"ID","latitude":"-3.43240000","longitude":"119.34350000"}]