[{"id":"79769","name":"Amberley","state_id":4066,"state_code":"CAN","country_id":158,"country_code":"NZ","latitude":"-43.15589000","longitude":"172.72975000"},{"id":"79771","name":"Ashburton","state_id":4066,"state_code":"CAN","country_id":158,"country_code":"NZ","latitude":"-43.89834000","longitude":"171.73011000"},{"id":"79772","name":"Ashburton District","state_id":4066,"state_code":"CAN","country_id":158,"country_code":"NZ","latitude":"-43.90000000","longitude":"171.75000000"},{"id":"79780","name":"Burnham","state_id":4066,"state_code":"CAN","country_id":158,"country_code":"NZ","latitude":"-43.61667000","longitude":"172.31667000"},{"id":"79783","name":"Christchurch","state_id":4066,"state_code":"CAN","country_id":158,"country_code":"NZ","latitude":"-43.53333000","longitude":"172.63333000"},{"id":"79784","name":"Christchurch City","state_id":4066,"state_code":"CAN","country_id":158,"country_code":"NZ","latitude":"-43.64578000","longitude":"172.74586000"},{"id":"79788","name":"Darfield","state_id":4066,"state_code":"CAN","country_id":158,"country_code":"NZ","latitude":"-43.48333000","longitude":"172.11667000"},{"id":"79795","name":"Geraldine","state_id":4066,"state_code":"CAN","country_id":158,"country_code":"NZ","latitude":"-44.09061000","longitude":"171.24458000"},{"id":"79805","name":"Kaiapoi","state_id":4066,"state_code":"CAN","country_id":158,"country_code":"NZ","latitude":"-43.37832000","longitude":"172.64013000"},{"id":"79816","name":"Leeston","state_id":4066,"state_code":"CAN","country_id":158,"country_code":"NZ","latitude":"-43.76667000","longitude":"172.30000000"},{"id":"79818","name":"Lincoln","state_id":4066,"state_code":"CAN","country_id":158,"country_code":"NZ","latitude":"-43.65000000","longitude":"172.48333000"},{"id":"79820","name":"Mackenzie District","state_id":4066,"state_code":"CAN","country_id":158,"country_code":"NZ","latitude":"-43.93987000","longitude":"170.51913000"},{"id":"79829","name":"Methven","state_id":4066,"state_code":"CAN","country_id":158,"country_code":"NZ","latitude":"-43.63333000","longitude":"171.65000000"},{"id":"79849","name":"Oxford","state_id":4066,"state_code":"CAN","country_id":158,"country_code":"NZ","latitude":"-43.30000000","longitude":"172.18333000"},{"id":"79861","name":"Pleasant Point","state_id":4066,"state_code":"CAN","country_id":158,"country_code":"NZ","latitude":"-44.26667000","longitude":"171.13333000"},{"id":"79864","name":"Prebbleton","state_id":4066,"state_code":"CAN","country_id":158,"country_code":"NZ","latitude":"-43.58333000","longitude":"172.51667000"},{"id":"79868","name":"Rakaia","state_id":4066,"state_code":"CAN","country_id":158,"country_code":"NZ","latitude":"-43.75000000","longitude":"172.01667000"},{"id":"79872","name":"Rolleston","state_id":4066,"state_code":"CAN","country_id":158,"country_code":"NZ","latitude":"-43.58333000","longitude":"172.38333000"},{"id":"79877","name":"Selwyn District","state_id":4066,"state_code":"CAN","country_id":158,"country_code":"NZ","latitude":"-43.32226000","longitude":"171.87064000"},{"id":"79893","name":"Timaru","state_id":4066,"state_code":"CAN","country_id":158,"country_code":"NZ","latitude":"-44.39672000","longitude":"171.25364000"},{"id":"79894","name":"Timaru District","state_id":4066,"state_code":"CAN","country_id":158,"country_code":"NZ","latitude":"-44.40000000","longitude":"171.21667000"},{"id":"79895","name":"Tinwald","state_id":4066,"state_code":"CAN","country_id":158,"country_code":"NZ","latitude":"-43.91667000","longitude":"171.71667000"},{"id":"79902","name":"Waimakariri District","state_id":4066,"state_code":"CAN","country_id":158,"country_code":"NZ","latitude":"-43.20750000","longitude":"172.33286000"},{"id":"79925","name":"Woodend","state_id":4066,"state_code":"CAN","country_id":158,"country_code":"NZ","latitude":"-43.31667000","longitude":"172.66667000"}]