[{"id":"79773","name":"Auckland","state_id":4072,"state_code":"AUK","country_id":158,"country_code":"NZ","latitude":"-36.84853000","longitude":"174.76349000"},{"id":"79823","name":"Mangere","state_id":4072,"state_code":"AUK","country_id":158,"country_code":"NZ","latitude":"-36.96807000","longitude":"174.79875000"},{"id":"79824","name":"Manukau City","state_id":4072,"state_code":"AUK","country_id":158,"country_code":"NZ","latitude":"-36.99282000","longitude":"174.87986000"},{"id":"79833","name":"Muriwai Beach","state_id":4072,"state_code":"AUK","country_id":158,"country_code":"NZ","latitude":"-36.81667000","longitude":"174.45000000"},{"id":"79834","name":"Murrays Bay","state_id":4072,"state_code":"AUK","country_id":158,"country_code":"NZ","latitude":"-36.72819000","longitude":"174.75019000"},{"id":"79843","name":"North Shore","state_id":4072,"state_code":"AUK","country_id":158,"country_code":"NZ","latitude":"-36.80000000","longitude":"174.75000000"},{"id":"79852","name":"Pakuranga","state_id":4072,"state_code":"AUK","country_id":158,"country_code":"NZ","latitude":"-36.88333000","longitude":"174.91667000"},{"id":"79854","name":"Papakura","state_id":4072,"state_code":"AUK","country_id":158,"country_code":"NZ","latitude":"-37.06573000","longitude":"174.94393000"},{"id":"79856","name":"Parakai","state_id":4072,"state_code":"AUK","country_id":158,"country_code":"NZ","latitude":"-36.65000000","longitude":"174.43333000"},{"id":"79865","name":"Pukekohe East","state_id":4072,"state_code":"AUK","country_id":158,"country_code":"NZ","latitude":"-37.20000000","longitude":"174.95000000"},{"id":"79869","name":"Red Hill","state_id":4072,"state_code":"AUK","country_id":158,"country_code":"NZ","latitude":"-37.05820000","longitude":"174.97019000"},{"id":"79873","name":"Rosebank","state_id":4072,"state_code":"AUK","country_id":158,"country_code":"NZ","latitude":"-36.87495000","longitude":"174.66991000"},{"id":"79874","name":"Rothesay Bay","state_id":4072,"state_code":"AUK","country_id":158,"country_code":"NZ","latitude":"-36.72602000","longitude":"174.74064000"},{"id":"79885","name":"Takanini","state_id":4072,"state_code":"AUK","country_id":158,"country_code":"NZ","latitude":"-37.04820000","longitude":"174.90019000"},{"id":"79886","name":"Tamaki","state_id":4072,"state_code":"AUK","country_id":158,"country_code":"NZ","latitude":"-36.88820000","longitude":"174.86019000"},{"id":"79896","name":"Titirangi","state_id":4072,"state_code":"AUK","country_id":158,"country_code":"NZ","latitude":"-36.93754000","longitude":"174.65584000"},{"id":"79907","name":"Waitakere","state_id":4072,"state_code":"AUK","country_id":158,"country_code":"NZ","latitude":"-36.91754000","longitude":"174.65773000"},{"id":"79910","name":"Waiuku","state_id":4072,"state_code":"AUK","country_id":158,"country_code":"NZ","latitude":"-37.24806000","longitude":"174.73489000"},{"id":"79914","name":"Warkworth","state_id":4072,"state_code":"AUK","country_id":158,"country_code":"NZ","latitude":"-36.40000000","longitude":"174.66667000"},{"id":"79917","name":"Wellsford","state_id":4072,"state_code":"AUK","country_id":158,"country_code":"NZ","latitude":"-36.28333000","longitude":"174.51667000"},{"id":"79924","name":"Wiri","state_id":4072,"state_code":"AUK","country_id":158,"country_code":"NZ","latitude":"-36.99820000","longitude":"174.86019000"}]