[{"id":"79791","name":"Edgecumbe","state_id":4074,"state_code":"BOP","country_id":158,"country_code":"NZ","latitude":"-37.98333000","longitude":"176.83333000"},{"id":"79809","name":"Katikati","state_id":4074,"state_code":"BOP","country_id":158,"country_code":"NZ","latitude":"-37.55000000","longitude":"175.91667000"},{"id":"79811","name":"Kawerau","state_id":4074,"state_code":"BOP","country_id":158,"country_code":"NZ","latitude":"-38.10000000","longitude":"176.70000000"},{"id":"79821","name":"Maketu","state_id":4074,"state_code":"BOP","country_id":158,"country_code":"NZ","latitude":"-37.76667000","longitude":"176.45000000"},{"id":"79835","name":"Murupara","state_id":4074,"state_code":"BOP","country_id":158,"country_code":"NZ","latitude":"-38.46667000","longitude":"176.70000000"},{"id":"79845","name":"Opotiki","state_id":4074,"state_code":"BOP","country_id":158,"country_code":"NZ","latitude":"-38.00915000","longitude":"177.28706000"},{"id":"79875","name":"Rotorua","state_id":4074,"state_code":"BOP","country_id":158,"country_code":"NZ","latitude":"-38.13874000","longitude":"176.24516000"},{"id":"79889","name":"Tauranga","state_id":4074,"state_code":"BOP","country_id":158,"country_code":"NZ","latitude":"-37.68611000","longitude":"176.16667000"},{"id":"79901","name":"Waihi Beach","state_id":4074,"state_code":"BOP","country_id":158,"country_code":"NZ","latitude":"-37.40000000","longitude":"175.93333000"},{"id":"79919","name":"Whakatane","state_id":4074,"state_code":"BOP","country_id":158,"country_code":"NZ","latitude":"-37.95855000","longitude":"176.98545000"}]