[{"id":"106761","name":"Adrasmon","state_id":3400,"state_code":"SU","country_id":217,"country_code":"TJ","latitude":"40.64928000","longitude":"69.98472000"},{"id":"106762","name":"Ayn\u00ed","state_id":3400,"state_code":"SU","country_id":217,"country_code":"TJ","latitude":"39.39406000","longitude":"68.53766000"},{"id":"106764","name":"Buston","state_id":3400,"state_code":"SU","country_id":217,"country_code":"TJ","latitude":"40.52286000","longitude":"69.33307000"},{"id":"106766","name":"Chkalov","state_id":3400,"state_code":"SU","country_id":217,"country_code":"TJ","latitude":"40.23417000","longitude":"69.69481000"},{"id":"106772","name":"Ghafurov","state_id":3400,"state_code":"SU","country_id":217,"country_code":"TJ","latitude":"40.21571000","longitude":"69.72867000"},{"id":"106775","name":"Isfara","state_id":3400,"state_code":"SU","country_id":217,"country_code":"TJ","latitude":"40.12649000","longitude":"70.62526000"},{"id":"106777","name":"Istaravshan","state_id":3400,"state_code":"SU","country_id":217,"country_code":"TJ","latitude":"39.91420000","longitude":"69.00328000"},{"id":"106782","name":"Khujand","state_id":3400,"state_code":"SU","country_id":217,"country_code":"TJ","latitude":"40.28256000","longitude":"69.62216000"},{"id":"106783","name":"Kim","state_id":3400,"state_code":"SU","country_id":217,"country_code":"TJ","latitude":"40.20798000","longitude":"70.46882000"},{"id":"106786","name":"Konibodom","state_id":3400,"state_code":"SU","country_id":217,"country_code":"TJ","latitude":"40.29414000","longitude":"70.43122000"},{"id":"106787","name":"Konsoy","state_id":3400,"state_code":"SU","country_id":217,"country_code":"TJ","latitude":"40.49155000","longitude":"69.70245000"},{"id":"106792","name":"Neftobod","state_id":3400,"state_code":"SU","country_id":217,"country_code":"TJ","latitude":"40.21524000","longitude":"70.57193000"},{"id":"106794","name":"Nohiyai Konibodom","state_id":3400,"state_code":"SU","country_id":217,"country_code":"TJ","latitude":"40.26877000","longitude":"70.33057000"},{"id":"106799","name":"Nov","state_id":3400,"state_code":"SU","country_id":217,"country_code":"TJ","latitude":"40.15220000","longitude":"69.37076000"},{"id":"106802","name":"Oltintopkan","state_id":3400,"state_code":"SU","country_id":217,"country_code":"TJ","latitude":"40.65425000","longitude":"69.59811000"},{"id":"106804","name":"Pakhtakoron","state_id":3400,"state_code":"SU","country_id":217,"country_code":"TJ","latitude":"40.15709000","longitude":"68.74659000"},{"id":"106805","name":"Palos","state_id":3400,"state_code":"SU","country_id":217,"country_code":"TJ","latitude":"40.31628000","longitude":"69.73743000"},{"id":"106807","name":"Panjakent","state_id":3400,"state_code":"SU","country_id":217,"country_code":"TJ","latitude":"39.49524000","longitude":"67.60931000"},{"id":"106808","name":"Proletar","state_id":3400,"state_code":"SU","country_id":217,"country_code":"TJ","latitude":"40.16713000","longitude":"69.50163000"},{"id":"106809","name":"Quruqsoy","state_id":3400,"state_code":"SU","country_id":217,"country_code":"TJ","latitude":"40.57648000","longitude":"69.37962000"},{"id":"106815","name":"Shaydon","state_id":3400,"state_code":"SU","country_id":217,"country_code":"TJ","latitude":"40.66992000","longitude":"70.35020000"},{"id":"106816","name":"Shurob","state_id":3400,"state_code":"SU","country_id":217,"country_code":"TJ","latitude":"40.04605000","longitude":"70.54117000"},{"id":"106818","name":"Taboshar","state_id":3400,"state_code":"SU","country_id":217,"country_code":"TJ","latitude":"40.57017000","longitude":"69.64175000"},{"id":"106827","name":"Vorukh","state_id":3400,"state_code":"SU","country_id":217,"country_code":"TJ","latitude":"39.85125000","longitude":"70.58012000"}]