[{"id":"77171","name":"Condega","state_id":945,"state_code":"ES","country_id":159,"country_code":"NI","latitude":"13.36502000","longitude":"-86.39846000"},{"id":"77191","name":"Estel\u00ed","state_id":945,"state_code":"ES","country_id":159,"country_code":"NI","latitude":"13.09185000","longitude":"-86.35384000"},{"id":"77207","name":"La Trinidad","state_id":945,"state_code":"ES","country_id":159,"country_code":"NI","latitude":"12.96881000","longitude":"-86.23534000"},{"id":"77249","name":"Pueblo Nuevo","state_id":945,"state_code":"ES","country_id":159,"country_code":"NI","latitude":"13.37984000","longitude":"-86.48075000"},{"id":"77261","name":"San Juan de Limay","state_id":945,"state_code":"ES","country_id":159,"country_code":"NI","latitude":"13.17603000","longitude":"-86.61234000"}]