[{"id":"77180","name":"El Almendro","state_id":949,"state_code":"SJ","country_id":159,"country_code":"NI","latitude":"11.67859000","longitude":"-84.70269000"},{"id":"77193","name":"Greytown","state_id":949,"state_code":"SJ","country_id":159,"country_code":"NI","latitude":"10.94684000","longitude":"-83.73467000"},{"id":"77219","name":"Morrito","state_id":949,"state_code":"SJ","country_id":159,"country_code":"NI","latitude":"11.62118000","longitude":"-85.08052000"},{"id":"77255","name":"San Carlos","state_id":949,"state_code":"SJ","country_id":159,"country_code":"NI","latitude":"11.12360000","longitude":"-84.77795000"},{"id":"77268","name":"San Miguelito","state_id":949,"state_code":"SJ","country_id":159,"country_code":"NI","latitude":"11.40255000","longitude":"-84.89991000"}]