[{"id":"108909","name":"Ipsala","state_id":2151,"state_code":"22","country_id":225,"country_code":"TR","latitude":"40.92115000","longitude":"26.38273000"},{"id":"108910","name":"Ipsala Il\u00e7esi","state_id":2151,"state_code":"22","country_id":225,"country_code":"TR","latitude":"40.93204000","longitude":"26.39781000"},{"id":"107549","name":"Edirne","state_id":2151,"state_code":"22","country_id":225,"country_code":"TR","latitude":"41.67719000","longitude":"26.55597000"},{"id":"107580","name":"Enez","state_id":2151,"state_code":"22","country_id":225,"country_code":"TR","latitude":"40.72472000","longitude":"26.08250000"},{"id":"107581","name":"Enez Il\u00e7esi","state_id":2151,"state_code":"22","country_id":225,"country_code":"TR","latitude":"40.73389000","longitude":"26.10243000"},{"id":"107807","name":"Havsa","state_id":2151,"state_code":"22","country_id":225,"country_code":"TR","latitude":"41.54898000","longitude":"26.82207000"},{"id":"107808","name":"Havsa Il\u00e7esi","state_id":2151,"state_code":"22","country_id":225,"country_code":"TR","latitude":"41.55981000","longitude":"26.83394000"},{"id":"108087","name":"K\u00fcpl\u00fc","state_id":2151,"state_code":"22","country_id":225,"country_code":"TR","latitude":"41.10694000","longitude":"26.35194000"},{"id":"107992","name":"Kesan","state_id":2151,"state_code":"22","country_id":225,"country_code":"TR","latitude":"40.85583000","longitude":"26.63028000"},{"id":"107993","name":"Kesan Il\u00e7esi","state_id":2151,"state_code":"22","country_id":225,"country_code":"TR","latitude":"40.86611000","longitude":"26.64424000"},{"id":"108133","name":"L\u00e2lapasa","state_id":2151,"state_code":"22","country_id":225,"country_code":"TR","latitude":"41.83951000","longitude":"26.73561000"},{"id":"108134","name":"L\u00e2lapasa Il\u00e7esi","state_id":2151,"state_code":"22","country_id":225,"country_code":"TR","latitude":"41.85056000","longitude":"26.74865000"},{"id":"108176","name":"Meri\u00e7","state_id":2151,"state_code":"22","country_id":225,"country_code":"TR","latitude":"41.19183000","longitude":"26.42097000"},{"id":"108177","name":"Meri\u00e7 Il\u00e7esi","state_id":2151,"state_code":"22","country_id":225,"country_code":"TR","latitude":"41.20174000","longitude":"26.43499000"},{"id":"108523","name":"S\u00fcloglu Il\u00e7esi","state_id":2151,"state_code":"22","country_id":225,"country_code":"TR","latitude":"41.77956000","longitude":"26.92602000"},{"id":"108640","name":"Uzunk\u00f6pr\u00fc","state_id":2151,"state_code":"22","country_id":225,"country_code":"TR","latitude":"41.26597000","longitude":"26.68850000"},{"id":"108641","name":"Uzunk\u00f6pr\u00fc Il\u00e7esi","state_id":2151,"state_code":"22","country_id":225,"country_code":"TR","latitude":"41.27681000","longitude":"26.69645000"}]