[{"id":"107246","name":"Agin","state_id":2159,"state_code":"23","country_id":225,"country_code":"TR","latitude":"38.93792000","longitude":"38.71155000"},{"id":"107197","name":"Aricak","state_id":2159,"state_code":"23","country_id":225,"country_code":"TR","latitude":"38.56340000","longitude":"40.12480000"},{"id":"107198","name":"Aricak Il\u00e7esi","state_id":2159,"state_code":"23","country_id":225,"country_code":"TR","latitude":"38.56421000","longitude":"40.13506000"},{"id":"107288","name":"Baskil","state_id":2159,"state_code":"23","country_id":225,"country_code":"TR","latitude":"38.56866000","longitude":"38.81634000"},{"id":"107289","name":"Baskil Il\u00e7esi","state_id":2159,"state_code":"23","country_id":225,"country_code":"TR","latitude":"38.56695000","longitude":"38.82357000"},{"id":"107558","name":"Elazig","state_id":2159,"state_code":"23","country_id":225,"country_code":"TR","latitude":"38.67431000","longitude":"39.22321000"},{"id":"107901","name":"Karako\u00e7an","state_id":2159,"state_code":"23","country_id":225,"country_code":"TR","latitude":"38.95178000","longitude":"40.02706000"},{"id":"107902","name":"Karako\u00e7an \/ Elazig","state_id":2159,"state_code":"23","country_id":225,"country_code":"TR","latitude":"38.95527000","longitude":"40.04053000"},{"id":"107964","name":"Keban","state_id":2159,"state_code":"23","country_id":225,"country_code":"TR","latitude":"38.79380000","longitude":"38.73517000"},{"id":"107965","name":"Keban Il\u00e7esi","state_id":2159,"state_code":"23","country_id":225,"country_code":"TR","latitude":"38.79438000","longitude":"38.73773000"},{"id":"108027","name":"Kovancilar","state_id":2159,"state_code":"23","country_id":225,"country_code":"TR","latitude":"38.71882000","longitude":"39.86268000"},{"id":"108028","name":"Kovancilar Il\u00e7esi","state_id":2159,"state_code":"23","country_id":225,"country_code":"TR","latitude":"38.71883000","longitude":"39.86520000"},{"id":"108137","name":"Maden Il\u00e7esi","state_id":2159,"state_code":"23","country_id":225,"country_code":"TR","latitude":"38.39354000","longitude":"39.67252000"},{"id":"108188","name":"Merkez","state_id":2159,"state_code":"23","country_id":225,"country_code":"TR","latitude":"38.66790000","longitude":"39.21567000"},{"id":"108308","name":"Palu","state_id":2159,"state_code":"23","country_id":225,"country_code":"TR","latitude":"38.69135000","longitude":"39.91984000"},{"id":"108309","name":"Palu Il\u00e7esi","state_id":2159,"state_code":"23","country_id":225,"country_code":"TR","latitude":"38.69286000","longitude":"39.92652000"},{"id":"108479","name":"Sivrice","state_id":2159,"state_code":"23","country_id":225,"country_code":"TR","latitude":"38.44223000","longitude":"39.30938000"},{"id":"108480","name":"Sivrice Il\u00e7esi","state_id":2159,"state_code":"23","country_id":225,"country_code":"TR","latitude":"38.44921000","longitude":"39.30582000"},{"id":"108604","name":"Turluk","state_id":2159,"state_code":"23","country_id":225,"country_code":"TR","latitude":"39.44034000","longitude":"39.87773000"}]