[{"id":"108890","name":"Ili\u00e7 Il\u00e7esi","state_id":2160,"state_code":"24","country_id":225,"country_code":"TR","latitude":"39.45587000","longitude":"38.56409000"},{"id":"108876","name":"\u00dcz\u00fcml\u00fc Il\u00e7esi","state_id":2160,"state_code":"24","country_id":225,"country_code":"TR","latitude":"39.70943000","longitude":"39.70125000"},{"id":"108806","name":"\u00c7ayirli Il\u00e7esi","state_id":2160,"state_code":"24","country_id":225,"country_code":"TR","latitude":"39.80454000","longitude":"40.03724000"},{"id":"107433","name":"Cimin","state_id":2160,"state_code":"24","country_id":225,"country_code":"TR","latitude":"39.70947000","longitude":"39.70015000"},{"id":"107602","name":"Erzincan","state_id":2160,"state_code":"24","country_id":225,"country_code":"TR","latitude":"39.73919000","longitude":"39.49015000"},{"id":"107971","name":"Kemah","state_id":2160,"state_code":"24","country_id":225,"country_code":"TR","latitude":"39.59606000","longitude":"39.02329000"},{"id":"107972","name":"Kemah Il\u00e7esi","state_id":2160,"state_code":"24","country_id":225,"country_code":"TR","latitude":"39.60123000","longitude":"39.03422000"},{"id":"107973","name":"Kemaliye","state_id":2160,"state_code":"24","country_id":225,"country_code":"TR","latitude":"39.26288000","longitude":"38.49674000"},{"id":"107974","name":"Kemaliye Il\u00e7esi","state_id":2160,"state_code":"24","country_id":225,"country_code":"TR","latitude":"39.27163000","longitude":"38.50588000"},{"id":"108295","name":"Otlukbeli","state_id":2160,"state_code":"24","country_id":225,"country_code":"TR","latitude":"39.97000000","longitude":"40.01872000"},{"id":"108296","name":"Otlukbeli Il\u00e7esi","state_id":2160,"state_code":"24","country_id":225,"country_code":"TR","latitude":"39.97213000","longitude":"40.02139000"},{"id":"108365","name":"Refahiye","state_id":2160,"state_code":"24","country_id":225,"country_code":"TR","latitude":"39.89315000","longitude":"38.76607000"},{"id":"108366","name":"Refahiye Il\u00e7esi","state_id":2160,"state_code":"24","country_id":225,"country_code":"TR","latitude":"39.90132000","longitude":"38.76745000"},{"id":"108570","name":"Tercan","state_id":2160,"state_code":"24","country_id":225,"country_code":"TR","latitude":"39.77709000","longitude":"40.37783000"},{"id":"108571","name":"Tercan Il\u00e7esi","state_id":2160,"state_code":"24","country_id":225,"country_code":"TR","latitude":"39.77812000","longitude":"40.38505000"}]