[{"id":"107075","name":"Ahirli Il\u00e7esi","state_id":2171,"state_code":"42","country_id":225,"country_code":"TR","latitude":"37.24828000","longitude":"32.12419000"},{"id":"107115","name":"Aksehir","state_id":2171,"state_code":"42","country_id":225,"country_code":"TR","latitude":"38.35750000","longitude":"31.41639000"},{"id":"107116","name":"Aksehir Il\u00e7esi","state_id":2171,"state_code":"42","country_id":225,"country_code":"TR","latitude":"38.36730000","longitude":"31.41983000"},{"id":"107112","name":"Ak\u00f6ren Il\u00e7esi","state_id":2171,"state_code":"42","country_id":225,"country_code":"TR","latitude":"37.46265000","longitude":"32.37489000"},{"id":"107140","name":"Altinekin","state_id":2171,"state_code":"42","country_id":225,"country_code":"TR","latitude":"38.30778000","longitude":"32.86861000"},{"id":"107141","name":"Altinekin Il\u00e7esi","state_id":2171,"state_code":"42","country_id":225,"country_code":"TR","latitude":"38.31787000","longitude":"32.87447000"},{"id":"108789","name":"\u00c7atalh\u00f6y\u00fck","state_id":2171,"state_code":"42","country_id":225,"country_code":"TR","latitude":"37.66847000","longitude":"32.82689000"},{"id":"108816","name":"\u00c7eltik Il\u00e7esi","state_id":2171,"state_code":"42","country_id":225,"country_code":"TR","latitude":"39.03388000","longitude":"31.79408000"},{"id":"108849","name":"\u00c7umra","state_id":2171,"state_code":"42","country_id":225,"country_code":"TR","latitude":"37.57320000","longitude":"32.77446000"},{"id":"108850","name":"\u00c7umra Il\u00e7esi","state_id":2171,"state_code":"42","country_id":225,"country_code":"TR","latitude":"37.58165000","longitude":"32.77971000"},{"id":"107345","name":"Beysehir","state_id":2171,"state_code":"42","country_id":225,"country_code":"TR","latitude":"37.67735000","longitude":"31.72458000"},{"id":"107346","name":"Beysehir Il\u00e7esi","state_id":2171,"state_code":"42","country_id":225,"country_code":"TR","latitude":"37.68668000","longitude":"31.73051000"},{"id":"107386","name":"Bozkir","state_id":2171,"state_code":"42","country_id":225,"country_code":"TR","latitude":"37.18963000","longitude":"32.24736000"},{"id":"107387","name":"Bozkir Il\u00e7esi","state_id":2171,"state_code":"42","country_id":225,"country_code":"TR","latitude":"37.19978000","longitude":"32.25234000"},{"id":"107431","name":"Cihanbeyli","state_id":2171,"state_code":"42","country_id":225,"country_code":"TR","latitude":"38.66072000","longitude":"32.92437000"},{"id":"107432","name":"Cihanbeyli District","state_id":2171,"state_code":"42","country_id":225,"country_code":"TR","latitude":"38.67131000","longitude":"32.92522000"},{"id":"107471","name":"Derbent","state_id":2171,"state_code":"42","country_id":225,"country_code":"TR","latitude":"38.01422000","longitude":"32.01639000"},{"id":"107472","name":"Derbent Il\u00e7esi","state_id":2171,"state_code":"42","country_id":225,"country_code":"TR","latitude":"38.02403000","longitude":"32.02463000"},{"id":"107473","name":"Derebucak","state_id":2171,"state_code":"42","country_id":225,"country_code":"TR","latitude":"37.39179000","longitude":"31.50918000"},{"id":"107474","name":"Derebucak Il\u00e7esi","state_id":2171,"state_code":"42","country_id":225,"country_code":"TR","latitude":"37.40180000","longitude":"31.51665000"},{"id":"107513","name":"Doganhisar","state_id":2171,"state_code":"42","country_id":225,"country_code":"TR","latitude":"38.14630000","longitude":"31.67648000"},{"id":"107514","name":"Doganhisar Il\u00e7esi","state_id":2171,"state_code":"42","country_id":225,"country_code":"TR","latitude":"38.15650000","longitude":"31.68226000"},{"id":"107578","name":"Emirgazi","state_id":2171,"state_code":"42","country_id":225,"country_code":"TR","latitude":"37.90222000","longitude":"33.83722000"},{"id":"107579","name":"Emirgazi Il\u00e7esi","state_id":2171,"state_code":"42","country_id":225,"country_code":"TR","latitude":"37.91229000","longitude":"33.84666000"},{"id":"107589","name":"Eregli","state_id":2171,"state_code":"42","country_id":225,"country_code":"TR","latitude":"37.51333000","longitude":"34.04672000"},{"id":"107591","name":"Eregli Il\u00e7esi","state_id":2171,"state_code":"42","country_id":225,"country_code":"TR","latitude":"37.52305000","longitude":"34.05553000"},{"id":"107745","name":"G\u00fcneysinir Il\u00e7esi","state_id":2171,"state_code":"42","country_id":225,"country_code":"TR","latitude":"37.27977000","longitude":"32.73735000"},{"id":"107770","name":"Hadim","state_id":2171,"state_code":"42","country_id":225,"country_code":"TR","latitude":"36.98776000","longitude":"32.45674000"},{"id":"107771","name":"Hadim Il\u00e7esi","state_id":2171,"state_code":"42","country_id":225,"country_code":"TR","latitude":"36.99794000","longitude":"32.46117000"},{"id":"107778","name":"Halkapinar","state_id":2171,"state_code":"42","country_id":225,"country_code":"TR","latitude":"37.43394000","longitude":"34.18743000"},{"id":"107779","name":"Halkapinar Il\u00e7esi","state_id":2171,"state_code":"42","country_id":225,"country_code":"TR","latitude":"37.44361000","longitude":"34.19336000"},{"id":"107840","name":"H\u00fcy\u00fck","state_id":2171,"state_code":"42","country_id":225,"country_code":"TR","latitude":"37.95388000","longitude":"31.59639000"},{"id":"107841","name":"H\u00fcy\u00fck Il\u00e7esi","state_id":2171,"state_code":"42","country_id":225,"country_code":"TR","latitude":"37.96331000","longitude":"31.60010000"},{"id":"107846","name":"Ilgin","state_id":2171,"state_code":"42","country_id":225,"country_code":"TR","latitude":"38.27917000","longitude":"31.91389000"},{"id":"107847","name":"Ilgin Il\u00e7esi","state_id":2171,"state_code":"42","country_id":225,"country_code":"TR","latitude":"38.28942000","longitude":"31.91916000"},{"id":"107864","name":"Kadinhani","state_id":2171,"state_code":"42","country_id":225,"country_code":"TR","latitude":"38.23972000","longitude":"32.21139000"},{"id":"107865","name":"Kadinhani Il\u00e7esi","state_id":2171,"state_code":"42","country_id":225,"country_code":"TR","latitude":"38.24958000","longitude":"32.21730000"},{"id":"107912","name":"Karapinar","state_id":2171,"state_code":"42","country_id":225,"country_code":"TR","latitude":"37.71596000","longitude":"33.55064000"},{"id":"107913","name":"Karapinar Il\u00e7esi","state_id":2171,"state_code":"42","country_id":225,"country_code":"TR","latitude":"37.72637000","longitude":"33.55759000"},{"id":"107917","name":"Karatay","state_id":2171,"state_code":"42","country_id":225,"country_code":"TR","latitude":"37.94001000","longitude":"32.99828000"},{"id":"108016","name":"Konya","state_id":2171,"state_code":"42","country_id":225,"country_code":"TR","latitude":"37.87135000","longitude":"32.48464000"},{"id":"108042","name":"Kulu","state_id":2171,"state_code":"42","country_id":225,"country_code":"TR","latitude":"39.09513000","longitude":"33.07989000"},{"id":"108043","name":"Kulu Il\u00e7esi","state_id":2171,"state_code":"42","country_id":225,"country_code":"TR","latitude":"39.10536000","longitude":"33.08858000"},{"id":"108065","name":"Kuyulusebil","state_id":2171,"state_code":"42","country_id":225,"country_code":"TR","latitude":"38.65389000","longitude":"32.52972000"},{"id":"108175","name":"Meram Il\u00e7esi","state_id":2171,"state_code":"42","country_id":225,"country_code":"TR","latitude":"37.83984000","longitude":"32.47111000"},{"id":"108300","name":"Ovakavagi","state_id":2171,"state_code":"42","country_id":225,"country_code":"TR","latitude":"37.71079000","longitude":"32.93482000"},{"id":"108394","name":"Saray\u00f6n\u00fc","state_id":2171,"state_code":"42","country_id":225,"country_code":"TR","latitude":"38.26201000","longitude":"32.40457000"},{"id":"108395","name":"Saray\u00f6n\u00fc Il\u00e7esi","state_id":2171,"state_code":"42","country_id":225,"country_code":"TR","latitude":"38.27030000","longitude":"32.41188000"},{"id":"108427","name":"Selcuklu","state_id":2171,"state_code":"42","country_id":225,"country_code":"TR","latitude":"38.05761000","longitude":"32.54088000"},{"id":"108450","name":"Seydisehir","state_id":2171,"state_code":"42","country_id":225,"country_code":"TR","latitude":"37.41926000","longitude":"31.84527000"},{"id":"108451","name":"Seydisehir Il\u00e7esi","state_id":2171,"state_code":"42","country_id":225,"country_code":"TR","latitude":"37.42930000","longitude":"31.85046000"},{"id":"108546","name":"Taskent","state_id":2171,"state_code":"42","country_id":225,"country_code":"TR","latitude":"36.92430000","longitude":"32.49131000"},{"id":"108547","name":"Taskent Il\u00e7esi","state_id":2171,"state_code":"42","country_id":225,"country_code":"TR","latitude":"36.93392000","longitude":"32.49529000"},{"id":"108611","name":"Tuzluk\u00e7u","state_id":2171,"state_code":"42","country_id":225,"country_code":"TR","latitude":"38.47778000","longitude":"31.62639000"},{"id":"108612","name":"Tuzluk\u00e7u Il\u00e7esi","state_id":2171,"state_code":"42","country_id":225,"country_code":"TR","latitude":"38.48788000","longitude":"31.63047000"},{"id":"108668","name":"Yalih\u00fcy\u00fck","state_id":2171,"state_code":"42","country_id":225,"country_code":"TR","latitude":"37.30077000","longitude":"32.08548000"},{"id":"108669","name":"Yalih\u00fcy\u00fck Il\u00e7esi","state_id":2171,"state_code":"42","country_id":225,"country_code":"TR","latitude":"37.31110000","longitude":"32.08924000"},{"id":"108675","name":"Yarma","state_id":2171,"state_code":"42","country_id":225,"country_code":"TR","latitude":"37.81149000","longitude":"32.88278000"},{"id":"108696","name":"Yeniceoba","state_id":2171,"state_code":"42","country_id":225,"country_code":"TR","latitude":"38.86972000","longitude":"32.78833000"},{"id":"108738","name":"Yunak","state_id":2171,"state_code":"42","country_id":225,"country_code":"TR","latitude":"38.81418000","longitude":"31.73223000"},{"id":"108739","name":"Yunak Il\u00e7esi","state_id":2171,"state_code":"42","country_id":225,"country_code":"TR","latitude":"38.82374000","longitude":"31.73748000"}]