[{"id":"107085","name":"Akkus","state_id":2174,"state_code":"52","country_id":225,"country_code":"TR","latitude":"40.81000000","longitude":"36.96000000"},{"id":"107144","name":"Altinordu","state_id":2174,"state_code":"52","country_id":225,"country_code":"TR","latitude":"40.94879000","longitude":"37.79572000"},{"id":"107219","name":"Aybasti Il\u00e7esi","state_id":2174,"state_code":"52","country_id":225,"country_code":"TR","latitude":"40.69690000","longitude":"37.40794000"},{"id":"108887","name":"Ikizce","state_id":2174,"state_code":"52","country_id":225,"country_code":"TR","latitude":"41.05833000","longitude":"37.08028000"},{"id":"108888","name":"Ikizce Il\u00e7esi","state_id":2174,"state_code":"52","country_id":225,"country_code":"TR","latitude":"41.06793000","longitude":"37.08571000"},{"id":"108872","name":"\u00dcnye Il\u00e7esi","state_id":2174,"state_code":"52","country_id":225,"country_code":"TR","latitude":"41.13921000","longitude":"37.27246000"},{"id":"108765","name":"\u00c7amas","state_id":2174,"state_code":"52","country_id":225,"country_code":"TR","latitude":"40.90200000","longitude":"37.52786000"},{"id":"108766","name":"\u00c7amas Il\u00e7esi","state_id":2174,"state_code":"52","country_id":225,"country_code":"TR","latitude":"40.90840000","longitude":"37.52162000"},{"id":"108790","name":"\u00c7atalpinar Il\u00e7esi","state_id":2174,"state_code":"52","country_id":225,"country_code":"TR","latitude":"40.88678000","longitude":"37.44329000"},{"id":"108797","name":"\u00c7aybasi Il\u00e7esi","state_id":2174,"state_code":"52","country_id":225,"country_code":"TR","latitude":"41.02532000","longitude":"37.10867000"},{"id":"107633","name":"Fatsa","state_id":2174,"state_code":"52","country_id":225,"country_code":"TR","latitude":"41.02778000","longitude":"37.50139000"},{"id":"107634","name":"Fatsa Il\u00e7esi","state_id":2174,"state_code":"52","country_id":225,"country_code":"TR","latitude":"41.02211000","longitude":"37.49196000"},{"id":"107697","name":"G\u00f6lk\u00f6y Il\u00e7esi","state_id":2174,"state_code":"52","country_id":225,"country_code":"TR","latitude":"40.68726000","longitude":"37.61660000"},{"id":"107733","name":"G\u00fclyali Il\u00e7esi","state_id":2174,"state_code":"52","country_id":225,"country_code":"TR","latitude":"40.96682000","longitude":"38.05679000"},{"id":"107749","name":"G\u00fcrgentepe","state_id":2174,"state_code":"52","country_id":225,"country_code":"TR","latitude":"40.78567000","longitude":"37.58969000"},{"id":"107750","name":"G\u00fcrgentepe Il\u00e7esi","state_id":2174,"state_code":"52","country_id":225,"country_code":"TR","latitude":"40.77452000","longitude":"37.57579000"},{"id":"107855","name":"Kabad\u00fcz","state_id":2174,"state_code":"52","country_id":225,"country_code":"TR","latitude":"40.86096000","longitude":"37.88470000"},{"id":"107856","name":"Kabad\u00fcz Il\u00e7esi","state_id":2174,"state_code":"52","country_id":225,"country_code":"TR","latitude":"40.85712000","longitude":"37.90597000"},{"id":"107858","name":"Kabatas","state_id":2174,"state_code":"52","country_id":225,"country_code":"TR","latitude":"40.75000000","longitude":"37.45000000"},{"id":"107859","name":"Kabatas Il\u00e7esi","state_id":2174,"state_code":"52","country_id":225,"country_code":"TR","latitude":"40.75996000","longitude":"37.45875000"},{"id":"108018","name":"Korgan","state_id":2174,"state_code":"52","country_id":225,"country_code":"TR","latitude":"40.82472000","longitude":"37.34667000"},{"id":"108019","name":"Korgan Il\u00e7esi","state_id":2174,"state_code":"52","country_id":225,"country_code":"TR","latitude":"40.83503000","longitude":"37.35319000"},{"id":"108052","name":"Kumru","state_id":2174,"state_code":"52","country_id":225,"country_code":"TR","latitude":"40.87444000","longitude":"37.26389000"},{"id":"108053","name":"Kumru Il\u00e7esi","state_id":2174,"state_code":"52","country_id":225,"country_code":"TR","latitude":"40.88372000","longitude":"37.27610000"},{"id":"108201","name":"Mesudiye","state_id":2174,"state_code":"52","country_id":225,"country_code":"TR","latitude":"40.45446000","longitude":"37.77353000"},{"id":"108202","name":"Mesudiye Il\u00e7esi","state_id":2174,"state_code":"52","country_id":225,"country_code":"TR","latitude":"40.46419000","longitude":"37.77419000"},{"id":"108271","name":"Ordu","state_id":2174,"state_code":"52","country_id":225,"country_code":"TR","latitude":"40.97782000","longitude":"37.89047000"},{"id":"108341","name":"Persembe","state_id":2174,"state_code":"52","country_id":225,"country_code":"TR","latitude":"41.06556000","longitude":"37.77139000"},{"id":"108342","name":"Persembe Il\u00e7esi","state_id":2174,"state_code":"52","country_id":225,"country_code":"TR","latitude":"41.06068000","longitude":"37.76384000"},{"id":"108344","name":"Piraziz Il\u00e7esi","state_id":2174,"state_code":"52","country_id":225,"country_code":"TR","latitude":"40.95643000","longitude":"38.11667000"},{"id":"108622","name":"Ulubey","state_id":2174,"state_code":"52","country_id":225,"country_code":"TR","latitude":"40.86863000","longitude":"37.75405000"},{"id":"108623","name":"Ulubey Il\u00e7esi","state_id":2174,"state_code":"52","country_id":225,"country_code":"TR","latitude":"40.87352000","longitude":"37.75890000"}]