[{"id":"108875","name":"\u00dcsk\u00fcp","state_id":2176,"state_code":"39","country_id":225,"country_code":"TR","latitude":"41.73583000","longitude":"27.40528000"},{"id":"107254","name":"Babaeski","state_id":2176,"state_code":"39","country_id":225,"country_code":"TR","latitude":"41.43250000","longitude":"27.09306000"},{"id":"107255","name":"Babaeski Il\u00e7esi","state_id":2176,"state_code":"39","country_id":225,"country_code":"TR","latitude":"41.44371000","longitude":"27.10458000"},{"id":"107463","name":"Demirk\u00f6y Il\u00e7esi","state_id":2176,"state_code":"39","country_id":225,"country_code":"TR","latitude":"41.83567000","longitude":"27.77137000"},{"id":"108106","name":"Kirklareli","state_id":2176,"state_code":"39","country_id":225,"country_code":"TR","latitude":"41.73508000","longitude":"27.22521000"},{"id":"108011","name":"Kof\u00e7az","state_id":2176,"state_code":"39","country_id":225,"country_code":"TR","latitude":"41.94481000","longitude":"27.15829000"},{"id":"108012","name":"Kof\u00e7az Il\u00e7esi","state_id":2176,"state_code":"39","country_id":225,"country_code":"TR","latitude":"41.95470000","longitude":"27.17165000"},{"id":"108136","name":"L\u00fcleburgaz Il\u00e7esi","state_id":2176,"state_code":"39","country_id":225,"country_code":"TR","latitude":"41.41495000","longitude":"27.37325000"},{"id":"108362","name":"Pinarhisar","state_id":2176,"state_code":"39","country_id":225,"country_code":"TR","latitude":"41.62417000","longitude":"27.52000000"},{"id":"108363","name":"Pinarhisar Il\u00e7esi","state_id":2176,"state_code":"39","country_id":225,"country_code":"TR","latitude":"41.63517000","longitude":"27.52951000"},{"id":"108333","name":"Pehlivank\u00f6y","state_id":2176,"state_code":"39","country_id":225,"country_code":"TR","latitude":"41.34812000","longitude":"26.92522000"},{"id":"108334","name":"Pehlivank\u00f6y Il\u00e7esi","state_id":2176,"state_code":"39","country_id":225,"country_code":"TR","latitude":"41.35922000","longitude":"26.93445000"},{"id":"108655","name":"Vize","state_id":2176,"state_code":"39","country_id":225,"country_code":"TR","latitude":"41.57250000","longitude":"27.76583000"},{"id":"108656","name":"Vize Il\u00e7esi","state_id":2176,"state_code":"39","country_id":225,"country_code":"TR","latitude":"41.58294000","longitude":"27.77452000"}]