[{"id":"107215","name":"Aviski","state_id":2194,"state_code":"72","country_id":225,"country_code":"TR","latitude":"37.96459000","longitude":"41.33119000"},{"id":"107225","name":"Aydinkonak","state_id":2194,"state_code":"72","country_id":225,"country_code":"TR","latitude":"37.89461000","longitude":"41.16405000"},{"id":"108824","name":"\u00c7evrimova","state_id":2194,"state_code":"72","country_id":225,"country_code":"TR","latitude":"37.84003000","longitude":"41.27288000"},{"id":"107271","name":"Balpinar","state_id":2194,"state_code":"72","country_id":225,"country_code":"TR","latitude":"37.86804000","longitude":"41.05536000"},{"id":"107291","name":"Batman","state_id":2194,"state_code":"72","country_id":225,"country_code":"TR","latitude":"37.88738000","longitude":"41.13221000"},{"id":"107350","name":"Besiri","state_id":2194,"state_code":"72","country_id":225,"country_code":"TR","latitude":"37.91573000","longitude":"41.28650000"},{"id":"107351","name":"Besiri Il\u00e7esi","state_id":2194,"state_code":"72","country_id":225,"country_code":"TR","latitude":"37.85722000","longitude":"41.39306000"},{"id":"107352","name":"Bespinar","state_id":2194,"state_code":"72","country_id":225,"country_code":"TR","latitude":"37.83709000","longitude":"41.60219000"},{"id":"107357","name":"Binatli","state_id":2194,"state_code":"72","country_id":225,"country_code":"TR","latitude":"37.84708000","longitude":"41.21608000"},{"id":"107465","name":"Demiryol","state_id":2194,"state_code":"72","country_id":225,"country_code":"TR","latitude":"37.91751000","longitude":"41.14984000"},{"id":"107515","name":"Dogankavak","state_id":2194,"state_code":"72","country_id":225,"country_code":"TR","latitude":"37.96265000","longitude":"41.22675000"},{"id":"107595","name":"Erk\u00f6kl\u00fc","state_id":2194,"state_code":"72","country_id":225,"country_code":"TR","latitude":"37.86182000","longitude":"41.14413000"},{"id":"107663","name":"Gerc\u00fcs Il\u00e7esi","state_id":2194,"state_code":"72","country_id":225,"country_code":"TR","latitude":"37.59139000","longitude":"41.33278000"},{"id":"107664","name":"Gerdzhyush","state_id":2194,"state_code":"72","country_id":225,"country_code":"TR","latitude":"37.56249000","longitude":"41.37753000"},{"id":"107800","name":"Hasankeyf","state_id":2194,"state_code":"72","country_id":225,"country_code":"TR","latitude":"37.70612000","longitude":"41.40480000"},{"id":"107801","name":"Hasankeyf Il\u00e7esi","state_id":2194,"state_code":"72","country_id":225,"country_code":"TR","latitude":"37.69694000","longitude":"41.49972000"},{"id":"107827","name":"Hisar","state_id":2194,"state_code":"72","country_id":225,"country_code":"TR","latitude":"37.60094000","longitude":"41.22799000"},{"id":"107947","name":"Kayapinar","state_id":2194,"state_code":"72","country_id":225,"country_code":"TR","latitude":"37.55762000","longitude":"41.16231000"},{"id":"108035","name":"Kozluk Il\u00e7esi","state_id":2194,"state_code":"72","country_id":225,"country_code":"TR","latitude":"38.19249000","longitude":"41.48705000"},{"id":"108186","name":"Merkez","state_id":2194,"state_code":"72","country_id":225,"country_code":"TR","latitude":"37.84362000","longitude":"41.18341000"},{"id":"108302","name":"Oymatas","state_id":2194,"state_code":"72","country_id":225,"country_code":"TR","latitude":"37.79856000","longitude":"41.02083000"},{"id":"108415","name":"Sason","state_id":2194,"state_code":"72","country_id":225,"country_code":"TR","latitude":"38.32767000","longitude":"41.41377000"},{"id":"108416","name":"Sason Il\u00e7esi","state_id":2194,"state_code":"72","country_id":225,"country_code":"TR","latitude":"38.33460000","longitude":"41.41993000"},{"id":"108700","name":"Yenik\u00f6y","state_id":2194,"state_code":"72","country_id":225,"country_code":"TR","latitude":"37.88042000","longitude":"41.05004000"},{"id":"108708","name":"Yenipinar","state_id":2194,"state_code":"72","country_id":225,"country_code":"TR","latitude":"37.84291000","longitude":"41.30137000"},{"id":"108731","name":"Yolagzi","state_id":2194,"state_code":"72","country_id":225,"country_code":"TR","latitude":"37.52554000","longitude":"41.35340000"}]