[{"id":"107243","name":"Agli Il\u00e7esi","state_id":2197,"state_code":"37","country_id":225,"country_code":"TR","latitude":"41.69283000","longitude":"33.54487000"},{"id":"107052","name":"Abana","state_id":2197,"state_code":"37","country_id":225,"country_code":"TR","latitude":"41.97858000","longitude":"34.01100000"},{"id":"107053","name":"Abana Il\u00e7esi","state_id":2197,"state_code":"37","country_id":225,"country_code":"TR","latitude":"41.97079000","longitude":"34.00382000"},{"id":"107177","name":"Ara\u00e7","state_id":2197,"state_code":"37","country_id":225,"country_code":"TR","latitude":"41.24222000","longitude":"33.32767000"},{"id":"107178","name":"Ara\u00e7 Il\u00e7esi","state_id":2197,"state_code":"37","country_id":225,"country_code":"TR","latitude":"41.25152000","longitude":"33.33729000"},{"id":"107235","name":"Azdavay","state_id":2197,"state_code":"37","country_id":225,"country_code":"TR","latitude":"41.64267000","longitude":"33.30000000"},{"id":"107236","name":"Azdavay Il\u00e7esi","state_id":2197,"state_code":"37","country_id":225,"country_code":"TR","latitude":"41.65322000","longitude":"33.30980000"},{"id":"108954","name":"Senpazar Il\u00e7esi","state_id":2197,"state_code":"37","country_id":225,"country_code":"TR","latitude":"41.81651000","longitude":"33.21766000"},{"id":"108881","name":"Ihsangazi","state_id":2197,"state_code":"37","country_id":225,"country_code":"TR","latitude":"41.20432000","longitude":"33.55455000"},{"id":"108882","name":"Ihsangazi Il\u00e7esi","state_id":2197,"state_code":"37","country_id":225,"country_code":"TR","latitude":"41.20901000","longitude":"33.56968000"},{"id":"108899","name":"Inebolu","state_id":2197,"state_code":"37","country_id":225,"country_code":"TR","latitude":"41.97472000","longitude":"33.76083000"},{"id":"108900","name":"Inebolu Il\u00e7esi","state_id":2197,"state_code":"37","country_id":225,"country_code":"TR","latitude":"41.96616000","longitude":"33.76566000"},{"id":"108791","name":"\u00c7atalzeytin Il\u00e7esi","state_id":2197,"state_code":"37","country_id":225,"country_code":"TR","latitude":"41.93795000","longitude":"34.20285000"},{"id":"107383","name":"Bozkurt","state_id":2197,"state_code":"37","country_id":225,"country_code":"TR","latitude":"41.95769000","longitude":"34.01087000"},{"id":"107385","name":"Bozkurt Il\u00e7esi","state_id":2197,"state_code":"37","country_id":225,"country_code":"TR","latitude":"41.96789000","longitude":"34.01908000"},{"id":"107430","name":"Cide","state_id":2197,"state_code":"37","country_id":225,"country_code":"TR","latitude":"41.85583000","longitude":"33.03977000"},{"id":"107439","name":"Daday","state_id":2197,"state_code":"37","country_id":225,"country_code":"TR","latitude":"41.47866000","longitude":"33.46667000"},{"id":"107440","name":"Daday Il\u00e7esi","state_id":2197,"state_code":"37","country_id":225,"country_code":"TR","latitude":"41.48714000","longitude":"33.45798000"},{"id":"107488","name":"Devrekani","state_id":2197,"state_code":"37","country_id":225,"country_code":"TR","latitude":"41.60303000","longitude":"33.83922000"},{"id":"107489","name":"Devrekani Il\u00e7esi","state_id":2197,"state_code":"37","country_id":225,"country_code":"TR","latitude":"41.61355000","longitude":"33.84603000"},{"id":"107521","name":"Doganyurt","state_id":2197,"state_code":"37","country_id":225,"country_code":"TR","latitude":"42.00457000","longitude":"33.46029000"},{"id":"107522","name":"Doganyurt Il\u00e7esi","state_id":2197,"state_code":"37","country_id":225,"country_code":"TR","latitude":"42.00051000","longitude":"33.47343000"},{"id":"107793","name":"Han\u00f6n\u00fc","state_id":2197,"state_code":"37","country_id":225,"country_code":"TR","latitude":"41.62705000","longitude":"34.46667000"},{"id":"107794","name":"Han\u00f6n\u00fc Il\u00e7esi","state_id":2197,"state_code":"37","country_id":225,"country_code":"TR","latitude":"41.63731000","longitude":"34.47790000"},{"id":"107939","name":"Kastamonu","state_id":2197,"state_code":"37","country_id":225,"country_code":"TR","latitude":"41.37805000","longitude":"33.77528000"},{"id":"108088","name":"K\u00fcre","state_id":2197,"state_code":"37","country_id":225,"country_code":"TR","latitude":"41.80578000","longitude":"33.71161000"},{"id":"108089","name":"K\u00fcre Il\u00e7esi","state_id":2197,"state_code":"37","country_id":225,"country_code":"TR","latitude":"41.81643000","longitude":"33.71606000"},{"id":"108358","name":"Pinarbasi","state_id":2197,"state_code":"37","country_id":225,"country_code":"TR","latitude":"41.60388000","longitude":"33.11099000"},{"id":"108360","name":"Pinarbasi Il\u00e7esi","state_id":2197,"state_code":"37","country_id":225,"country_code":"TR","latitude":"41.61508000","longitude":"33.11306000"},{"id":"108448","name":"Seydiler","state_id":2197,"state_code":"37","country_id":225,"country_code":"TR","latitude":"41.62005000","longitude":"33.71815000"},{"id":"108449","name":"Seydiler Il\u00e7esi","state_id":2197,"state_code":"37","country_id":225,"country_code":"TR","latitude":"41.61920000","longitude":"33.73254000"},{"id":"108548","name":"Task\u00f6pr\u00fc","state_id":2197,"state_code":"37","country_id":225,"country_code":"TR","latitude":"41.50980000","longitude":"34.21414000"},{"id":"108550","name":"Task\u00f6pr\u00fc Il\u00e7esi","state_id":2197,"state_code":"37","country_id":225,"country_code":"TR","latitude":"41.51834000","longitude":"34.20272000"},{"id":"108593","name":"Tosya","state_id":2197,"state_code":"37","country_id":225,"country_code":"TR","latitude":"41.01545000","longitude":"34.04013000"},{"id":"108594","name":"Tosya Il\u00e7esi","state_id":2197,"state_code":"37","country_id":225,"country_code":"TR","latitude":"41.02639000","longitude":"34.04442000"}]