[{"id":"107063","name":"Adana","state_id":2212,"state_code":"01","country_id":225,"country_code":"TR","latitude":"37.00167000","longitude":"35.32889000"},{"id":"107120","name":"Aladag","state_id":2212,"state_code":"01","country_id":225,"country_code":"TR","latitude":"37.55854000","longitude":"35.40196000"},{"id":"108893","name":"Imamoglu","state_id":2212,"state_code":"01","country_id":225,"country_code":"TR","latitude":"37.27500000","longitude":"35.66649000"},{"id":"108848","name":"\u00c7ukurova","state_id":2212,"state_code":"01","country_id":225,"country_code":"TR","latitude":"37.05627000","longitude":"35.13119000"},{"id":"107258","name":"Bah\u00e7e","state_id":2212,"state_code":"01","country_id":225,"country_code":"TR","latitude":"37.19724000","longitude":"36.57658000"},{"id":"107427","name":"Ceyhan","state_id":2212,"state_code":"01","country_id":225,"country_code":"TR","latitude":"37.02472000","longitude":"35.81750000"},{"id":"107635","name":"Feke","state_id":2212,"state_code":"01","country_id":225,"country_code":"TR","latitude":"37.82405000","longitude":"35.91826000"},{"id":"107896","name":"Karaisali","state_id":2212,"state_code":"01","country_id":225,"country_code":"TR","latitude":"37.26655000","longitude":"35.05033000"},{"id":"107918","name":"Karatas","state_id":2212,"state_code":"01","country_id":225,"country_code":"TR","latitude":"36.57186000","longitude":"35.36784000"},{"id":"108033","name":"Kozan","state_id":2212,"state_code":"01","country_id":225,"country_code":"TR","latitude":"37.50000000","longitude":"35.75000000"},{"id":"108349","name":"Pozanti","state_id":2212,"state_code":"01","country_id":225,"country_code":"TR","latitude":"37.43671000","longitude":"34.88057000"},{"id":"108374","name":"Saimbeyli","state_id":2212,"state_code":"01","country_id":225,"country_code":"TR","latitude":"37.99615000","longitude":"36.09909000"},{"id":"108414","name":"Sari\u00e7am","state_id":2212,"state_code":"01","country_id":225,"country_code":"TR","latitude":"37.14971000","longitude":"35.50949000"},{"id":"108452","name":"Seyhan","state_id":2212,"state_code":"01","country_id":225,"country_code":"TR","latitude":"36.95540000","longitude":"35.21637000"},{"id":"108597","name":"Tufanbeyli","state_id":2212,"state_code":"01","country_id":225,"country_code":"TR","latitude":"38.27343000","longitude":"36.22731000"},{"id":"108745","name":"Y\u00fcregir","state_id":2212,"state_code":"01","country_id":225,"country_code":"TR","latitude":"36.99205000","longitude":"35.45402000"},{"id":"108737","name":"Yumurtalik","state_id":2212,"state_code":"01","country_id":225,"country_code":"TR","latitude":"36.78245000","longitude":"35.79949000"}]