[{"id":"108903","name":"Inhisar","state_id":2221,"state_code":"11","country_id":225,"country_code":"TR","latitude":"40.04932000","longitude":"30.38521000"},{"id":"108904","name":"Inhisar Il\u00e7esi","state_id":2221,"state_code":"11","country_id":225,"country_code":"TR","latitude":"40.05091000","longitude":"30.38368000"},{"id":"107356","name":"Bilecik","state_id":2221,"state_code":"11","country_id":225,"country_code":"TR","latitude":"40.14192000","longitude":"29.97932000"},{"id":"107393","name":"Boz\u00fcy\u00fck","state_id":2221,"state_code":"11","country_id":225,"country_code":"TR","latitude":"39.90778000","longitude":"30.03667000"},{"id":"107394","name":"Boz\u00fcy\u00fck Il\u00e7esi","state_id":2221,"state_code":"11","country_id":225,"country_code":"TR","latitude":"39.91806000","longitude":"30.05113000"},{"id":"107505","name":"Dodurga","state_id":2221,"state_code":"11","country_id":225,"country_code":"TR","latitude":"39.79972000","longitude":"29.91722000"},{"id":"107702","name":"G\u00f6lpazari","state_id":2221,"state_code":"11","country_id":225,"country_code":"TR","latitude":"40.28472000","longitude":"30.31722000"},{"id":"107703","name":"G\u00f6lpazari Il\u00e7esi","state_id":2221,"state_code":"11","country_id":225,"country_code":"TR","latitude":"40.29553000","longitude":"30.33386000"},{"id":"108086","name":"K\u00fcpl\u00fc","state_id":2221,"state_code":"11","country_id":225,"country_code":"TR","latitude":"40.09837000","longitude":"30.00010000"},{"id":"108291","name":"Osmaneli","state_id":2221,"state_code":"11","country_id":225,"country_code":"TR","latitude":"40.35722000","longitude":"30.01417000"},{"id":"108292","name":"Osmaneli Il\u00e7esi","state_id":2221,"state_code":"11","country_id":225,"country_code":"TR","latitude":"40.36742000","longitude":"30.02683000"},{"id":"108329","name":"Pazaryeri","state_id":2221,"state_code":"11","country_id":225,"country_code":"TR","latitude":"39.99395000","longitude":"29.90424000"},{"id":"108330","name":"Pazaryeri Il\u00e7esi","state_id":2221,"state_code":"11","country_id":225,"country_code":"TR","latitude":"40.00444000","longitude":"29.92051000"},{"id":"108518","name":"S\u00f6g\u00fct Il\u00e7esi","state_id":2221,"state_code":"11","country_id":225,"country_code":"TR","latitude":"40.02479000","longitude":"30.17300000"},{"id":"108650","name":"Vezirhan","state_id":2221,"state_code":"11","country_id":225,"country_code":"TR","latitude":"40.24472000","longitude":"30.02000000"},{"id":"108705","name":"Yenipazar","state_id":2221,"state_code":"11","country_id":225,"country_code":"TR","latitude":"40.17833000","longitude":"30.52000000"},{"id":"108706","name":"Yenipazar Il\u00e7esi","state_id":2221,"state_code":"11","country_id":225,"country_code":"TR","latitude":"40.18944000","longitude":"30.50821000"}]