[{"id":"107069","name":"Afsin","state_id":2227,"state_code":"46","country_id":225,"country_code":"TR","latitude":"38.24769000","longitude":"36.91399000"},{"id":"107070","name":"Afsin Il\u00e7esi","state_id":2227,"state_code":"46","country_id":225,"country_code":"TR","latitude":"38.25795000","longitude":"36.91897000"},{"id":"107164","name":"Andirin","state_id":2227,"state_code":"46","country_id":225,"country_code":"TR","latitude":"37.57757000","longitude":"36.35492000"},{"id":"107165","name":"Andirin Il\u00e7esi","state_id":2227,"state_code":"46","country_id":225,"country_code":"TR","latitude":"37.58791000","longitude":"36.36112000"},{"id":"108808","name":"\u00c7aglayancerit","state_id":2227,"state_code":"46","country_id":225,"country_code":"TR","latitude":"37.74523000","longitude":"37.28618000"},{"id":"108809","name":"\u00c7aglayancerit Il\u00e7esi","state_id":2227,"state_code":"46","country_id":225,"country_code":"TR","latitude":"37.74976000","longitude":"37.29033000"},{"id":"107424","name":"Celeyke","state_id":2227,"state_code":"46","country_id":225,"country_code":"TR","latitude":"38.05974000","longitude":"37.18786000"},{"id":"107529","name":"Dulkadiroglu","state_id":2227,"state_code":"46","country_id":225,"country_code":"TR","latitude":"37.58254000","longitude":"36.91973000"},{"id":"107556","name":"Ekin\u00f6z\u00fc Il\u00e7esi","state_id":2227,"state_code":"46","country_id":225,"country_code":"TR","latitude":"38.07007000","longitude":"37.19414000"},{"id":"107562","name":"Elbistan","state_id":2227,"state_code":"46","country_id":225,"country_code":"TR","latitude":"38.20591000","longitude":"37.19830000"},{"id":"107563","name":"Elbistan Il\u00e7esi","state_id":2227,"state_code":"46","country_id":225,"country_code":"TR","latitude":"38.21542000","longitude":"37.20463000"},{"id":"107681","name":"G\u00f6ksun","state_id":2227,"state_code":"46","country_id":225,"country_code":"TR","latitude":"38.02096000","longitude":"36.49730000"},{"id":"107682","name":"G\u00f6ksun Il\u00e7esi","state_id":2227,"state_code":"46","country_id":225,"country_code":"TR","latitude":"38.03089000","longitude":"36.50239000"},{"id":"107869","name":"Kahramanmaras","state_id":2227,"state_code":"46","country_id":225,"country_code":"TR","latitude":"37.58470000","longitude":"36.92641000"},{"id":"108255","name":"Nurhak","state_id":2227,"state_code":"46","country_id":225,"country_code":"TR","latitude":"37.96366000","longitude":"37.44047000"},{"id":"108256","name":"Nurhak Il\u00e7esi","state_id":2227,"state_code":"46","country_id":225,"country_code":"TR","latitude":"37.96638000","longitude":"37.44107000"},{"id":"108270","name":"Onikisubat","state_id":2227,"state_code":"46","country_id":225,"country_code":"TR","latitude":"37.59002000","longitude":"36.90548000"},{"id":"108325","name":"Pazarcik","state_id":2227,"state_code":"46","country_id":225,"country_code":"TR","latitude":"37.48685000","longitude":"37.29961000"},{"id":"108326","name":"Pazarcik Il\u00e7esi","state_id":2227,"state_code":"46","country_id":225,"country_code":"TR","latitude":"37.59467000","longitude":"36.93168000"},{"id":"108521","name":"S\u00fcleymanli","state_id":2227,"state_code":"46","country_id":225,"country_code":"TR","latitude":"37.87264000","longitude":"36.81714000"},{"id":"108615","name":"T\u00fcrkoglu Il\u00e7esi","state_id":2227,"state_code":"46","country_id":225,"country_code":"TR","latitude":"37.38417000","longitude":"36.84626000"}]