[{"id":"107155","name":"Amasra","state_id":2148,"state_code":"74","country_id":225,"country_code":"TR","latitude":"41.74633000","longitude":"32.38633000"},{"id":"107156","name":"Amasra Il\u00e7esi","state_id":2148,"state_code":"74","country_id":225,"country_code":"TR","latitude":"41.73791000","longitude":"32.39455000"},{"id":"107286","name":"Bartin","state_id":2148,"state_code":"74","country_id":225,"country_code":"TR","latitude":"41.63583000","longitude":"32.33750000"},{"id":"108057","name":"Kurucasile","state_id":2148,"state_code":"74","country_id":225,"country_code":"TR","latitude":"41.83781000","longitude":"32.71621000"},{"id":"108058","name":"Kurucasile Il\u00e7esi","state_id":2148,"state_code":"74","country_id":225,"country_code":"TR","latitude":"41.82880000","longitude":"32.71937000"},{"id":"108629","name":"Ulus Il\u00e7esi","state_id":2148,"state_code":"74","country_id":225,"country_code":"TR","latitude":"41.59373000","longitude":"32.65066000"},{"id":"107147","name":"Altintas Il\u00e7esi","state_id":2149,"state_code":"43","country_id":225,"country_code":"TR","latitude":"39.06932000","longitude":"30.12048000"},{"id":"107202","name":"Aslanapa","state_id":2149,"state_code":"43","country_id":225,"country_code":"TR","latitude":"39.21581000","longitude":"29.86990000"},{"id":"107203","name":"Aslanapa Il\u00e7esi","state_id":2149,"state_code":"43","country_id":225,"country_code":"TR","latitude":"39.22588000","longitude":"29.88222000"},{"id":"108933","name":"Saphane","state_id":2149,"state_code":"43","country_id":225,"country_code":"TR","latitude":"39.02730000","longitude":"29.22218000"},{"id":"108934","name":"Saphane Il\u00e7esi","state_id":2149,"state_code":"43","country_id":225,"country_code":"TR","latitude":"39.03599000","longitude":"29.22743000"},{"id":"108792","name":"\u00c7avdarhisar Il\u00e7esi","state_id":2149,"state_code":"43","country_id":225,"country_code":"TR","latitude":"39.20333000","longitude":"29.63094000"},{"id":"107508","name":"Domani\u00e7","state_id":2149,"state_code":"43","country_id":225,"country_code":"TR","latitude":"39.80194000","longitude":"29.60918000"},{"id":"107509","name":"Domani\u00e7 Il\u00e7esi","state_id":2149,"state_code":"43","country_id":225,"country_code":"TR","latitude":"39.80935000","longitude":"29.62205000"},{"id":"107530","name":"Dumlupinar","state_id":2149,"state_code":"43","country_id":225,"country_code":"TR","latitude":"38.85408000","longitude":"29.97720000"},{"id":"107531","name":"Dumlupinar Il\u00e7esi","state_id":2149,"state_code":"43","country_id":225,"country_code":"TR","latitude":"38.87639000","longitude":"30.00639000"},{"id":"107573","name":"Emet","state_id":2149,"state_code":"43","country_id":225,"country_code":"TR","latitude":"39.34300000","longitude":"29.25847000"},{"id":"107574","name":"Emet Il\u00e7esi","state_id":2149,"state_code":"43","country_id":225,"country_code":"TR","latitude":"39.35219000","longitude":"29.27431000"},{"id":"107651","name":"Gediz","state_id":2149,"state_code":"43","country_id":225,"country_code":"TR","latitude":"38.99389000","longitude":"29.39131000"},{"id":"107652","name":"Gediz Il\u00e7esi","state_id":2149,"state_code":"43","country_id":225,"country_code":"TR","latitude":"39.05272000","longitude":"29.41755000"},{"id":"107828","name":"Hisarcik Il\u00e7esi","state_id":2149,"state_code":"43","country_id":225,"country_code":"TR","latitude":"39.25987000","longitude":"29.24134000"},{"id":"108092","name":"K\u00fctahya","state_id":2149,"state_code":"43","country_id":225,"country_code":"TR","latitude":"39.42417000","longitude":"29.98333000"},{"id":"108327","name":"Pazarlar","state_id":2149,"state_code":"43","country_id":225,"country_code":"TR","latitude":"38.99500000","longitude":"29.12583000"},{"id":"108328","name":"Pazarlar Il\u00e7esi","state_id":2149,"state_code":"43","country_id":225,"country_code":"TR","latitude":"39.00509000","longitude":"29.13593000"},{"id":"108465","name":"Simav","state_id":2149,"state_code":"43","country_id":225,"country_code":"TR","latitude":"39.08820000","longitude":"28.97767000"},{"id":"108466","name":"Simav Il\u00e7esi","state_id":2149,"state_code":"43","country_id":225,"country_code":"TR","latitude":"39.09822000","longitude":"28.96464000"},{"id":"108543","name":"Tavsanli","state_id":2149,"state_code":"43","country_id":225,"country_code":"TR","latitude":"39.54237000","longitude":"29.49866000"},{"id":"108545","name":"Tavsanli Il\u00e7esi","state_id":2149,"state_code":"43","country_id":225,"country_code":"TR","latitude":"39.54897000","longitude":"29.51649000"},{"id":"107064","name":"Adapazari","state_id":2150,"state_code":"54","country_id":225,"country_code":"TR","latitude":"40.78056000","longitude":"30.40333000"},{"id":"107100","name":"Akyazi","state_id":2150,"state_code":"54","country_id":225,"country_code":"TR","latitude":"40.68500000","longitude":"30.62222000"},{"id":"107101","name":"Akyazi Il\u00e7esi","state_id":2150,"state_code":"54","country_id":225,"country_code":"TR","latitude":"40.69600000","longitude":"30.62803000"},{"id":"107186","name":"Arifiye","state_id":2150,"state_code":"54","country_id":225,"country_code":"TR","latitude":"40.71327000","longitude":"30.36128000"},{"id":"107588","name":"Erenler","state_id":2150,"state_code":"54","country_id":225,"country_code":"TR","latitude":"40.75564000","longitude":"30.41453000"},{"id":"107638","name":"Ferizli","state_id":2150,"state_code":"54","country_id":225,"country_code":"TR","latitude":"40.94082000","longitude":"30.48583000"},{"id":"107639","name":"Ferizli Il\u00e7esi","state_id":2150,"state_code":"54","country_id":225,"country_code":"TR","latitude":"40.95092000","longitude":"30.48912000"},{"id":"107673","name":"Geyve","state_id":2150,"state_code":"54","country_id":225,"country_code":"TR","latitude":"40.50750000","longitude":"30.29250000"},{"id":"107674","name":"Geyve Il\u00e7esi","state_id":2150,"state_code":"54","country_id":225,"country_code":"TR","latitude":"40.51701000","longitude":"30.29645000"},{"id":"107822","name":"Hendek","state_id":2150,"state_code":"54","country_id":225,"country_code":"TR","latitude":"40.79944000","longitude":"30.74806000"},{"id":"107823","name":"Hendek Il\u00e7esi","state_id":2150,"state_code":"54","country_id":225,"country_code":"TR","latitude":"40.80938000","longitude":"30.73915000"},{"id":"107910","name":"Karap\u00fcr\u00e7ek","state_id":2150,"state_code":"54","country_id":225,"country_code":"TR","latitude":"40.64194000","longitude":"30.53944000"},{"id":"107911","name":"Karap\u00fcr\u00e7ek Il\u00e7esi","state_id":2150,"state_code":"54","country_id":225,"country_code":"TR","latitude":"40.65188000","longitude":"30.54509000"},{"id":"107915","name":"Karasu Il\u00e7esi","state_id":2150,"state_code":"54","country_id":225,"country_code":"TR","latitude":"41.09983000","longitude":"30.68241000"},{"id":"107914","name":"Karasu Mahallesi","state_id":2150,"state_code":"54","country_id":225,"country_code":"TR","latitude":"41.07096000","longitude":"30.78543000"},{"id":"107951","name":"Kaynarca","state_id":2150,"state_code":"54","country_id":225,"country_code":"TR","latitude":"41.03083000","longitude":"30.30750000"},{"id":"107952","name":"Kaynarca Il\u00e7esi","state_id":2150,"state_code":"54","country_id":225,"country_code":"TR","latitude":"41.04048000","longitude":"30.29619000"},{"id":"108003","name":"Kocaali","state_id":2150,"state_code":"54","country_id":225,"country_code":"TR","latitude":"41.05336000","longitude":"30.85278000"},{"id":"108004","name":"Kocaali Il\u00e7esi","state_id":2150,"state_code":"54","country_id":225,"country_code":"TR","latitude":"41.06361000","longitude":"30.85815000"},{"id":"108312","name":"Pamukova","state_id":2150,"state_code":"54","country_id":225,"country_code":"TR","latitude":"40.50810000","longitude":"30.16732000"},{"id":"108313","name":"Pamukova Il\u00e7esi","state_id":2150,"state_code":"54","country_id":225,"country_code":"TR","latitude":"40.51806000","longitude":"30.17288000"},{"id":"108385","name":"Sapanca","state_id":2150,"state_code":"54","country_id":225,"country_code":"TR","latitude":"40.69141000","longitude":"30.26738000"},{"id":"108386","name":"Sapanca Il\u00e7esi","state_id":2150,"state_code":"54","country_id":225,"country_code":"TR","latitude":"40.70222000","longitude":"30.27443000"},{"id":"108519","name":"S\u00f6g\u00fctl\u00fc","state_id":2150,"state_code":"54","country_id":225,"country_code":"TR","latitude":"40.90590000","longitude":"30.47448000"},{"id":"108520","name":"S\u00f6g\u00fctl\u00fc Il\u00e7esi","state_id":2150,"state_code":"54","country_id":225,"country_code":"TR","latitude":"40.91610000","longitude":"30.47824000"},{"id":"108438","name":"Serdivan","state_id":2150,"state_code":"54","country_id":225,"country_code":"TR","latitude":"40.76371000","longitude":"30.36784000"},{"id":"108534","name":"Tarakli","state_id":2150,"state_code":"54","country_id":225,"country_code":"TR","latitude":"40.39694000","longitude":"30.49278000"},{"id":"108535","name":"Tarakli Il\u00e7esi","state_id":2150,"state_code":"54","country_id":225,"country_code":"TR","latitude":"40.40685000","longitude":"30.50001000"},{"id":"108909","name":"Ipsala","state_id":2151,"state_code":"22","country_id":225,"country_code":"TR","latitude":"40.92115000","longitude":"26.38273000"},{"id":"108910","name":"Ipsala Il\u00e7esi","state_id":2151,"state_code":"22","country_id":225,"country_code":"TR","latitude":"40.93204000","longitude":"26.39781000"},{"id":"107549","name":"Edirne","state_id":2151,"state_code":"22","country_id":225,"country_code":"TR","latitude":"41.67719000","longitude":"26.55597000"},{"id":"107580","name":"Enez","state_id":2151,"state_code":"22","country_id":225,"country_code":"TR","latitude":"40.72472000","longitude":"26.08250000"},{"id":"107581","name":"Enez Il\u00e7esi","state_id":2151,"state_code":"22","country_id":225,"country_code":"TR","latitude":"40.73389000","longitude":"26.10243000"},{"id":"107807","name":"Havsa","state_id":2151,"state_code":"22","country_id":225,"country_code":"TR","latitude":"41.54898000","longitude":"26.82207000"},{"id":"107808","name":"Havsa Il\u00e7esi","state_id":2151,"state_code":"22","country_id":225,"country_code":"TR","latitude":"41.55981000","longitude":"26.83394000"},{"id":"108087","name":"K\u00fcpl\u00fc","state_id":2151,"state_code":"22","country_id":225,"country_code":"TR","latitude":"41.10694000","longitude":"26.35194000"},{"id":"107992","name":"Kesan","state_id":2151,"state_code":"22","country_id":225,"country_code":"TR","latitude":"40.85583000","longitude":"26.63028000"},{"id":"107993","name":"Kesan Il\u00e7esi","state_id":2151,"state_code":"22","country_id":225,"country_code":"TR","latitude":"40.86611000","longitude":"26.64424000"},{"id":"108133","name":"L\u00e2lapasa","state_id":2151,"state_code":"22","country_id":225,"country_code":"TR","latitude":"41.83951000","longitude":"26.73561000"},{"id":"108134","name":"L\u00e2lapasa Il\u00e7esi","state_id":2151,"state_code":"22","country_id":225,"country_code":"TR","latitude":"41.85056000","longitude":"26.74865000"},{"id":"108176","name":"Meri\u00e7","state_id":2151,"state_code":"22","country_id":225,"country_code":"TR","latitude":"41.19183000","longitude":"26.42097000"},{"id":"108177","name":"Meri\u00e7 Il\u00e7esi","state_id":2151,"state_code":"22","country_id":225,"country_code":"TR","latitude":"41.20174000","longitude":"26.43499000"},{"id":"108523","name":"S\u00fcloglu Il\u00e7esi","state_id":2151,"state_code":"22","country_id":225,"country_code":"TR","latitude":"41.77956000","longitude":"26.92602000"},{"id":"108640","name":"Uzunk\u00f6pr\u00fc","state_id":2151,"state_code":"22","country_id":225,"country_code":"TR","latitude":"41.26597000","longitude":"26.68850000"},{"id":"108641","name":"Uzunk\u00f6pr\u00fc Il\u00e7esi","state_id":2151,"state_code":"22","country_id":225,"country_code":"TR","latitude":"41.27681000","longitude":"26.69645000"},{"id":"108908","name":"Ipekyolu","state_id":2152,"state_code":"65","country_id":225,"country_code":"TR","latitude":"38.49041000","longitude":"43.34690000"},{"id":"108866","name":"\u00d6zalp","state_id":2152,"state_code":"65","country_id":225,"country_code":"TR","latitude":"38.65455000","longitude":"43.98869000"},{"id":"108867","name":"\u00d6zalp Il\u00e7esi","state_id":2152,"state_code":"65","country_id":225,"country_code":"TR","latitude":"38.66283000","longitude":"43.99603000"},{"id":"108760","name":"\u00c7aldiran","state_id":2152,"state_code":"65","country_id":225,"country_code":"TR","latitude":"39.14317000","longitude":"43.91068000"},{"id":"108761","name":"\u00c7aldiran Il\u00e7esi","state_id":2152,"state_code":"65","country_id":225,"country_code":"TR","latitude":"39.15053000","longitude":"43.91415000"},{"id":"108787","name":"\u00c7atak Il\u00e7esi","state_id":2152,"state_code":"65","country_id":225,"country_code":"TR","latitude":"38.00780000","longitude":"43.06195000"},{"id":"107315","name":"Baskale","state_id":2152,"state_code":"65","country_id":225,"country_code":"TR","latitude":"38.04526000","longitude":"44.01718000"},{"id":"107316","name":"Baskale Il\u00e7esi","state_id":2152,"state_code":"65","country_id":225,"country_code":"TR","latitude":"38.05305000","longitude":"44.02163000"},{"id":"107262","name":"Bah\u00e7esaray","state_id":2152,"state_code":"65","country_id":225,"country_code":"TR","latitude":"38.12460000","longitude":"42.79825000"},{"id":"107263","name":"Bah\u00e7esaray Il\u00e7esi","state_id":2152,"state_code":"65","country_id":225,"country_code":"TR","latitude":"38.12635000","longitude":"42.80493000"},{"id":"107551","name":"Edremit","state_id":2152,"state_code":"65","country_id":225,"country_code":"TR","latitude":"38.37889000","longitude":"43.29717000"},{"id":"107583","name":"Ercis","state_id":2152,"state_code":"65","country_id":225,"country_code":"TR","latitude":"39.15123000","longitude":"43.33705000"},{"id":"107753","name":"G\u00fcrpinar","state_id":2152,"state_code":"65","country_id":225,"country_code":"TR","latitude":"38.32372000","longitude":"43.40991000"},{"id":"107755","name":"G\u00fcrpinar Il\u00e7esi","state_id":2152,"state_code":"65","country_id":225,"country_code":"TR","latitude":"38.32396000","longitude":"43.41036000"},{"id":"107670","name":"Gevas","state_id":2152,"state_code":"65","country_id":225,"country_code":"TR","latitude":"38.29210000","longitude":"43.10189000"},{"id":"107671","name":"Gevas Il\u00e7esi","state_id":2152,"state_code":"65","country_id":225,"country_code":"TR","latitude":"38.29390000","longitude":"43.10530000"},{"id":"108015","name":"Konalga","state_id":2152,"state_code":"65","country_id":225,"country_code":"TR","latitude":"37.86035000","longitude":"43.09678000"},{"id":"108220","name":"Muradiye","state_id":2152,"state_code":"65","country_id":225,"country_code":"TR","latitude":"38.97889000","longitude":"43.75374000"},{"id":"108387","name":"Saray","state_id":2152,"state_code":"65","country_id":225,"country_code":"TR","latitude":"38.64691000","longitude":"44.16116000"},{"id":"108389","name":"Saray Il\u00e7esi","state_id":2152,"state_code":"65","country_id":225,"country_code":"TR","latitude":"38.65513000","longitude":"44.17731000"},{"id":"108613","name":"Tuspa","state_id":2152,"state_code":"65","country_id":225,"country_code":"TR","latitude":"38.48423000","longitude":"43.40218000"},{"id":"108646","name":"Van","state_id":2152,"state_code":"65","country_id":225,"country_code":"TR","latitude":"38.49457000","longitude":"43.38323000"},{"id":"107060","name":"Adakli Il\u00e7esi","state_id":2153,"state_code":"12","country_id":225,"country_code":"TR","latitude":"39.22870000","longitude":"40.48252000"},{"id":"107358","name":"Bing\u00f6l","state_id":2153,"state_code":"12","country_id":225,"country_code":"TR","latitude":"38.88472000","longitude":"40.49389000"},{"id":"107661","name":"Gen\u00e7","state_id":2153,"state_code":"12","country_id":225,"country_code":"TR","latitude":"38.74773000","longitude":"40.55343000"},{"id":"107662","name":"Gen\u00e7 Il\u00e7esi","state_id":2153,"state_code":"12","country_id":225,"country_code":"TR","latitude":"38.75972000","longitude":"40.56639000"},{"id":"107927","name":"Karliova","state_id":2153,"state_code":"12","country_id":225,"country_code":"TR","latitude":"39.29044000","longitude":"41.00594000"},{"id":"107928","name":"Karliova Il\u00e7esi","state_id":2153,"state_code":"12","country_id":225,"country_code":"TR","latitude":"39.29780000","longitude":"41.01342000"},{"id":"108002","name":"Kigi Il\u00e7esi","state_id":2153,"state_code":"12","country_id":225,"country_code":"TR","latitude":"39.30894000","longitude":"40.34995000"},{"id":"108182","name":"Merkez","state_id":2153,"state_code":"12","country_id":225,"country_code":"TR","latitude":"38.95025000","longitude":"40.52802000"},{"id":"108483","name":"Solhan","state_id":2153,"state_code":"12","country_id":225,"country_code":"TR","latitude":"38.96525000","longitude":"41.05443000"},{"id":"108484","name":"Solhan Il\u00e7esi","state_id":2153,"state_code":"12","country_id":225,"country_code":"TR","latitude":"38.96965000","longitude":"41.05604000"},{"id":"108681","name":"Yayladere","state_id":2153,"state_code":"12","country_id":225,"country_code":"TR","latitude":"39.22614000","longitude":"40.06950000"},{"id":"108688","name":"Yedisu","state_id":2153,"state_code":"12","country_id":225,"country_code":"TR","latitude":"39.43277000","longitude":"40.53368000"},{"id":"108689","name":"Yedisu Il\u00e7esi","state_id":2153,"state_code":"12","country_id":225,"country_code":"TR","latitude":"39.43404000","longitude":"40.54482000"},{"id":"107559","name":"Elbeyli","state_id":2154,"state_code":"79","country_id":225,"country_code":"TR","latitude":"36.67417000","longitude":"37.46667000"},{"id":"107561","name":"Elbeyli Il\u00e7esi","state_id":2154,"state_code":"79","country_id":225,"country_code":"TR","latitude":"36.72556000","longitude":"37.44000000"},{"id":"107997","name":"Kilis","state_id":2154,"state_code":"79","country_id":225,"country_code":"TR","latitude":"36.71611000","longitude":"37.11500000"},{"id":"108228","name":"Musabeyli","state_id":2154,"state_code":"79","country_id":225,"country_code":"TR","latitude":"36.88639000","longitude":"36.91861000"},{"id":"108229","name":"Musabeyli Il\u00e7esi","state_id":2154,"state_code":"79","country_id":225,"country_code":"TR","latitude":"36.90472000","longitude":"36.96278000"},{"id":"108345","name":"Polateli Il\u00e7esi","state_id":2154,"state_code":"79","country_id":225,"country_code":"TR","latitude":"36.83694000","longitude":"37.15083000"},{"id":"107067","name":"Adiyaman","state_id":2155,"state_code":"02","country_id":225,"country_code":"TR","latitude":"37.76441000","longitude":"38.27629000"},{"id":"107173","name":"Aralik Il\u00e7esi","state_id":2155,"state_code":"02","country_id":225,"country_code":"TR","latitude":"39.88314000","longitude":"44.52330000"},{"id":"108814","name":"\u00c7elikhan","state_id":2155,"state_code":"02","country_id":225,"country_code":"TR","latitude":"38.02560000","longitude":"38.23665000"},{"id":"108815","name":"\u00c7elikhan Il\u00e7esi","state_id":2155,"state_code":"02","country_id":225,"country_code":"TR","latitude":"38.03275000","longitude":"38.23705000"},{"id":"107332","name":"Besni","state_id":2155,"state_code":"02","country_id":225,"country_code":"TR","latitude":"37.69278000","longitude":"37.86111000"},{"id":"107333","name":"Besni Il\u00e7esi","state_id":2155,"state_code":"02","country_id":225,"country_code":"TR","latitude":"37.70142000","longitude":"37.87086000"},{"id":"107688","name":"G\u00f6lbasi","state_id":2155,"state_code":"02","country_id":225,"country_code":"TR","latitude":"37.78361000","longitude":"37.63667000"},{"id":"107689","name":"G\u00f6lbasi Il\u00e7esi","state_id":2155,"state_code":"02","country_id":225,"country_code":"TR","latitude":"37.79000000","longitude":"37.64989000"},{"id":"107666","name":"Gerger","state_id":2155,"state_code":"02","country_id":225,"country_code":"TR","latitude":"37.95000000","longitude":"39.01667000"},{"id":"107667","name":"Gerger Il\u00e7esi","state_id":2155,"state_code":"02","country_id":225,"country_code":"TR","latitude":"38.02856000","longitude":"39.03281000"},{"id":"108069","name":"K\u00e2hta","state_id":2155,"state_code":"02","country_id":225,"country_code":"TR","latitude":"37.78552000","longitude":"38.62370000"},{"id":"108070","name":"K\u00e2hta Il\u00e7esi","state_id":2155,"state_code":"02","country_id":225,"country_code":"TR","latitude":"37.79477000","longitude":"38.63119000"},{"id":"108194","name":"Merkez","state_id":2155,"state_code":"02","country_id":225,"country_code":"TR","latitude":"37.74454000","longitude":"38.26801000"},{"id":"108379","name":"Samsat","state_id":2155,"state_code":"02","country_id":225,"country_code":"TR","latitude":"37.58194000","longitude":"38.47417000"},{"id":"108380","name":"Samsat Il\u00e7esi","state_id":2155,"state_code":"02","country_id":225,"country_code":"TR","latitude":"37.58565000","longitude":"38.48946000"},{"id":"108471","name":"Sincik","state_id":2155,"state_code":"02","country_id":225,"country_code":"TR","latitude":"38.03645000","longitude":"38.61257000"},{"id":"108472","name":"Sincik Il\u00e7esi","state_id":2155,"state_code":"02","country_id":225,"country_code":"TR","latitude":"38.03373000","longitude":"38.61319000"},{"id":"108606","name":"Tut","state_id":2155,"state_code":"02","country_id":225,"country_code":"TR","latitude":"37.79529000","longitude":"37.91610000"},{"id":"108607","name":"Tut Il\u00e7esi","state_id":2155,"state_code":"02","country_id":225,"country_code":"TR","latitude":"37.80528000","longitude":"37.92296000"},{"id":"107079","name":"Akdeniz","state_id":2156,"state_code":"33","country_id":225,"country_code":"TR","latitude":"36.86424000","longitude":"34.67731000"},{"id":"107080","name":"Akdere","state_id":2156,"state_code":"33","country_id":225,"country_code":"TR","latitude":"36.24083000","longitude":"33.75041000"},{"id":"107160","name":"Anamur","state_id":2156,"state_code":"33","country_id":225,"country_code":"TR","latitude":"36.07508000","longitude":"32.83691000"},{"id":"107161","name":"Anamur Il\u00e7esi","state_id":2156,"state_code":"33","country_id":225,"country_code":"TR","latitude":"36.08361000","longitude":"32.82615000"},{"id":"107221","name":"Aydincik","state_id":2156,"state_code":"33","country_id":225,"country_code":"TR","latitude":"36.14370000","longitude":"33.32016000"},{"id":"107223","name":"Aydincik Il\u00e7esi","state_id":2156,"state_code":"33","country_id":225,"country_code":"TR","latitude":"36.15358000","longitude":"33.30397000"},{"id":"108771","name":"\u00c7amliyayla Il\u00e7esi","state_id":2156,"state_code":"33","country_id":225,"country_code":"TR","latitude":"37.18000000","longitude":"34.60678000"},{"id":"107391","name":"Bozyazi","state_id":2156,"state_code":"33","country_id":225,"country_code":"TR","latitude":"36.10820000","longitude":"32.96113000"},{"id":"107392","name":"Bozyazi Il\u00e7esi","state_id":2156,"state_code":"33","country_id":225,"country_code":"TR","latitude":"36.11329000","longitude":"32.97886000"},{"id":"107572","name":"Elvanli","state_id":2156,"state_code":"33","country_id":225,"country_code":"TR","latitude":"36.70401000","longitude":"34.37374000"},{"id":"107586","name":"Erdemli","state_id":2156,"state_code":"33","country_id":225,"country_code":"TR","latitude":"36.60498000","longitude":"34.30836000"},{"id":"107587","name":"Erdemli Il\u00e7esi","state_id":2156,"state_code":"33","country_id":225,"country_code":"TR","latitude":"36.61383000","longitude":"34.29601000"},{"id":"107730","name":"G\u00fclnar","state_id":2156,"state_code":"33","country_id":225,"country_code":"TR","latitude":"36.34148000","longitude":"33.39921000"},{"id":"107731","name":"G\u00fclnar Il\u00e7esi","state_id":2156,"state_code":"33","country_id":225,"country_code":"TR","latitude":"36.35290000","longitude":"33.40308000"},{"id":"108007","name":"Kocahasanli","state_id":2156,"state_code":"33","country_id":225,"country_code":"TR","latitude":"36.58417000","longitude":"34.27359000"},{"id":"108198","name":"Mersin","state_id":2156,"state_code":"33","country_id":225,"country_code":"TR","latitude":"36.81196000","longitude":"34.63886000"},{"id":"108204","name":"Mezitli Il\u00e7esi","state_id":2156,"state_code":"33","country_id":225,"country_code":"TR","latitude":"36.89400000","longitude":"34.42987000"},{"id":"108232","name":"Mut","state_id":2156,"state_code":"33","country_id":225,"country_code":"TR","latitude":"36.71842000","longitude":"33.38718000"},{"id":"108357","name":"Pinarbasi","state_id":2156,"state_code":"33","country_id":225,"country_code":"TR","latitude":"36.70340000","longitude":"34.36270000"},{"id":"108458","name":"Silifke","state_id":2156,"state_code":"33","country_id":225,"country_code":"TR","latitude":"36.37778000","longitude":"33.93444000"},{"id":"108459","name":"Silifke Il\u00e7esi","state_id":2156,"state_code":"33","country_id":225,"country_code":"TR","latitude":"36.38869000","longitude":"33.94072000"},{"id":"108536","name":"Tarsus","state_id":2156,"state_code":"33","country_id":225,"country_code":"TR","latitude":"36.91766000","longitude":"34.89277000"},{"id":"108588","name":"Toroslar","state_id":2156,"state_code":"33","country_id":225,"country_code":"TR","latitude":"36.87083000","longitude":"34.60299000"},{"id":"108715","name":"Yenisehir","state_id":2156,"state_code":"33","country_id":225,"country_code":"TR","latitude":"36.81602000","longitude":"34.57621000"},{"id":"107057","name":"Acipayam","state_id":2157,"state_code":"20","country_id":225,"country_code":"TR","latitude":"37.42385000","longitude":"29.34941000"},{"id":"107058","name":"Acipayam Il\u00e7esi","state_id":2157,"state_code":"20","country_id":225,"country_code":"TR","latitude":"37.43536000","longitude":"29.36146000"},{"id":"107086","name":"Akk\u00f6y","state_id":2157,"state_code":"20","country_id":225,"country_code":"TR","latitude":"37.95694000","longitude":"29.07813000"},{"id":"107084","name":"Akkent","state_id":2157,"state_code":"20","country_id":225,"country_code":"TR","latitude":"38.15268000","longitude":"29.37890000"},{"id":"108759","name":"\u00c7al Il\u00e7esi","state_id":2157,"state_code":"20","country_id":225,"country_code":"TR","latitude":"38.09371000","longitude":"29.40467000"},{"id":"108767","name":"\u00c7ameli Il\u00e7esi","state_id":2157,"state_code":"20","country_id":225,"country_code":"TR","latitude":"37.08660000","longitude":"29.35225000"},{"id":"108781","name":"\u00c7ardak","state_id":2157,"state_code":"20","country_id":225,"country_code":"TR","latitude":"37.77485000","longitude":"29.70593000"},{"id":"108836","name":"\u00c7ivril","state_id":2157,"state_code":"20","country_id":225,"country_code":"TR","latitude":"38.30139000","longitude":"29.73861000"},{"id":"108837","name":"\u00c7ivril Il\u00e7esi","state_id":2157,"state_code":"20","country_id":225,"country_code":"TR","latitude":"38.31191000","longitude":"29.72430000"},{"id":"107252","name":"Babadag","state_id":2157,"state_code":"20","country_id":225,"country_code":"TR","latitude":"37.80764000","longitude":"28.85665000"},{"id":"107253","name":"Babadag Il\u00e7esi","state_id":2157,"state_code":"20","country_id":225,"country_code":"TR","latitude":"37.81823000","longitude":"28.86820000"},{"id":"107265","name":"Baklan","state_id":2157,"state_code":"20","country_id":225,"country_code":"TR","latitude":"37.97694000","longitude":"29.60861000"},{"id":"107266","name":"Baklan Il\u00e7esi","state_id":2157,"state_code":"20","country_id":225,"country_code":"TR","latitude":"37.98760000","longitude":"29.62032000"},{"id":"107326","name":"Bekilli","state_id":2157,"state_code":"20","country_id":225,"country_code":"TR","latitude":"38.24027000","longitude":"29.42559000"},{"id":"107334","name":"Beyaga\u00e7 Il\u00e7esi","state_id":2157,"state_code":"20","country_id":225,"country_code":"TR","latitude":"37.24546000","longitude":"28.90041000"},{"id":"107384","name":"Bozkurt","state_id":2157,"state_code":"20","country_id":225,"country_code":"TR","latitude":"37.77583000","longitude":"29.60811000"},{"id":"107408","name":"Buldan","state_id":2157,"state_code":"20","country_id":225,"country_code":"TR","latitude":"38.04500000","longitude":"28.83056000"},{"id":"107409","name":"Buldan Il\u00e7esi","state_id":2157,"state_code":"20","country_id":225,"country_code":"TR","latitude":"38.05536000","longitude":"28.84007000"},{"id":"107470","name":"Denizli","state_id":2157,"state_code":"20","country_id":225,"country_code":"TR","latitude":"37.77417000","longitude":"29.08750000"},{"id":"107721","name":"G\u00f6zler","state_id":2157,"state_code":"20","country_id":225,"country_code":"TR","latitude":"38.10679000","longitude":"29.15375000"},{"id":"107742","name":"G\u00fcney Il\u00e7esi","state_id":2157,"state_code":"20","country_id":225,"country_code":"TR","latitude":"38.16454000","longitude":"29.07324000"},{"id":"107833","name":"Honaz","state_id":2157,"state_code":"20","country_id":225,"country_code":"TR","latitude":"37.77146000","longitude":"29.34466000"},{"id":"107871","name":"Kale","state_id":2157,"state_code":"20","country_id":225,"country_code":"TR","latitude":"37.43917000","longitude":"28.84528000"},{"id":"107873","name":"Kale Il\u00e7esi","state_id":2157,"state_code":"20","country_id":225,"country_code":"TR","latitude":"37.44537000","longitude":"28.85582000"},{"id":"108196","name":"Merkezefendi","state_id":2157,"state_code":"20","country_id":225,"country_code":"TR","latitude":"37.80544000","longitude":"29.04236000"},{"id":"108197","name":"Merkezefendi Il\u00e7esi","state_id":2157,"state_code":"20","country_id":225,"country_code":"TR","latitude":"37.80610000","longitude":"29.01562000"},{"id":"108247","name":"Nikfer","state_id":2157,"state_code":"20","country_id":225,"country_code":"TR","latitude":"37.40542000","longitude":"29.13727000"},{"id":"108310","name":"Pamukkale","state_id":2157,"state_code":"20","country_id":225,"country_code":"TR","latitude":"37.91644000","longitude":"29.11729000"},{"id":"108311","name":"Pamukkale Il\u00e7esi","state_id":2157,"state_code":"20","country_id":225,"country_code":"TR","latitude":"37.96709000","longitude":"29.08635000"},{"id":"108393","name":"Sarayk\u00f6y","state_id":2157,"state_code":"20","country_id":225,"country_code":"TR","latitude":"37.91580000","longitude":"28.87999000"},{"id":"108442","name":"Serinhisar","state_id":2157,"state_code":"20","country_id":225,"country_code":"TR","latitude":"37.58105000","longitude":"29.26639000"},{"id":"108443","name":"Serinhisar Il\u00e7esi","state_id":2157,"state_code":"20","country_id":225,"country_code":"TR","latitude":"37.59127000","longitude":"29.27246000"},{"id":"108540","name":"Tavas","state_id":2157,"state_code":"20","country_id":225,"country_code":"TR","latitude":"37.57351000","longitude":"29.07058000"},{"id":"108541","name":"Tavas Il\u00e7esi","state_id":2157,"state_code":"20","country_id":225,"country_code":"TR","latitude":"37.58387000","longitude":"29.07970000"},{"id":"107105","name":"Ak\u00e7adag","state_id":2158,"state_code":"44","country_id":225,"country_code":"TR","latitude":"38.33899000","longitude":"37.97021000"},{"id":"107106","name":"Ak\u00e7adag Il\u00e7esi","state_id":2158,"state_code":"44","country_id":225,"country_code":"TR","latitude":"38.34403000","longitude":"37.97409000"},{"id":"107175","name":"Arapgir","state_id":2158,"state_code":"44","country_id":225,"country_code":"TR","latitude":"39.04117000","longitude":"38.49516000"},{"id":"107176","name":"Arapgir Il\u00e7esi","state_id":2158,"state_code":"44","country_id":225,"country_code":"TR","latitude":"39.05029000","longitude":"38.50255000"},{"id":"107183","name":"Arguvan","state_id":2158,"state_code":"44","country_id":225,"country_code":"TR","latitude":"38.78172000","longitude":"38.26349000"},{"id":"107292","name":"Battalgazi","state_id":2158,"state_code":"44","country_id":225,"country_code":"TR","latitude":"38.43932000","longitude":"38.45764000"},{"id":"107447","name":"Darende","state_id":2158,"state_code":"44","country_id":225,"country_code":"TR","latitude":"38.54583000","longitude":"37.50583000"},{"id":"107448","name":"Darende Il\u00e7esi","state_id":2158,"state_code":"44","country_id":225,"country_code":"TR","latitude":"38.55585000","longitude":"37.51378000"},{"id":"107525","name":"Dogansehir","state_id":2158,"state_code":"44","country_id":225,"country_code":"TR","latitude":"38.08574000","longitude":"37.87116000"},{"id":"107526","name":"Dogansehir Il\u00e7esi","state_id":2158,"state_code":"44","country_id":225,"country_code":"TR","latitude":"38.09134000","longitude":"37.87687000"},{"id":"107520","name":"Doganyol","state_id":2158,"state_code":"44","country_id":225,"country_code":"TR","latitude":"38.30746000","longitude":"39.03431000"},{"id":"107819","name":"Hekimhan","state_id":2158,"state_code":"44","country_id":225,"country_code":"TR","latitude":"38.81622000","longitude":"37.92882000"},{"id":"107820","name":"Hekimhan Il\u00e7esi","state_id":2158,"state_code":"44","country_id":225,"country_code":"TR","latitude":"38.81627000","longitude":"37.93134000"},{"id":"107870","name":"Kale","state_id":2158,"state_code":"44","country_id":225,"country_code":"TR","latitude":"39.03333000","longitude":"38.00000000"},{"id":"107872","name":"Kale Il\u00e7esi","state_id":2158,"state_code":"44","country_id":225,"country_code":"TR","latitude":"38.39773000","longitude":"38.74406000"},{"id":"108044","name":"Kuluncak","state_id":2158,"state_code":"44","country_id":225,"country_code":"TR","latitude":"38.87656000","longitude":"37.66279000"},{"id":"108045","name":"Kuluncak Il\u00e7esi","state_id":2158,"state_code":"44","country_id":225,"country_code":"TR","latitude":"38.88244000","longitude":"37.67181000"},{"id":"108141","name":"Malatya","state_id":2158,"state_code":"44","country_id":225,"country_code":"TR","latitude":"38.35018000","longitude":"38.31667000"},{"id":"108354","name":"P\u00fct\u00fcrge","state_id":2158,"state_code":"44","country_id":225,"country_code":"TR","latitude":"38.19630000","longitude":"38.87418000"},{"id":"108684","name":"Yazihan","state_id":2158,"state_code":"44","country_id":225,"country_code":"TR","latitude":"38.59292000","longitude":"38.17327000"},{"id":"108685","name":"Yazihan Il\u00e7esi","state_id":2158,"state_code":"44","country_id":225,"country_code":"TR","latitude":"38.59567000","longitude":"38.17967000"},{"id":"108728","name":"Yesilyurt","state_id":2158,"state_code":"44","country_id":225,"country_code":"TR","latitude":"38.29602000","longitude":"38.24526000"},{"id":"108730","name":"Yesilyurt Il\u00e7esi","state_id":2158,"state_code":"44","country_id":225,"country_code":"TR","latitude":"38.29814000","longitude":"38.24698000"},{"id":"107246","name":"Agin","state_id":2159,"state_code":"23","country_id":225,"country_code":"TR","latitude":"38.93792000","longitude":"38.71155000"},{"id":"107197","name":"Aricak","state_id":2159,"state_code":"23","country_id":225,"country_code":"TR","latitude":"38.56340000","longitude":"40.12480000"},{"id":"107198","name":"Aricak Il\u00e7esi","state_id":2159,"state_code":"23","country_id":225,"country_code":"TR","latitude":"38.56421000","longitude":"40.13506000"},{"id":"107288","name":"Baskil","state_id":2159,"state_code":"23","country_id":225,"country_code":"TR","latitude":"38.56866000","longitude":"38.81634000"},{"id":"107289","name":"Baskil Il\u00e7esi","state_id":2159,"state_code":"23","country_id":225,"country_code":"TR","latitude":"38.56695000","longitude":"38.82357000"},{"id":"107558","name":"Elazig","state_id":2159,"state_code":"23","country_id":225,"country_code":"TR","latitude":"38.67431000","longitude":"39.22321000"},{"id":"107901","name":"Karako\u00e7an","state_id":2159,"state_code":"23","country_id":225,"country_code":"TR","latitude":"38.95178000","longitude":"40.02706000"},{"id":"107902","name":"Karako\u00e7an \/ Elazig","state_id":2159,"state_code":"23","country_id":225,"country_code":"TR","latitude":"38.95527000","longitude":"40.04053000"},{"id":"107964","name":"Keban","state_id":2159,"state_code":"23","country_id":225,"country_code":"TR","latitude":"38.79380000","longitude":"38.73517000"},{"id":"107965","name":"Keban Il\u00e7esi","state_id":2159,"state_code":"23","country_id":225,"country_code":"TR","latitude":"38.79438000","longitude":"38.73773000"},{"id":"108027","name":"Kovancilar","state_id":2159,"state_code":"23","country_id":225,"country_code":"TR","latitude":"38.71882000","longitude":"39.86268000"},{"id":"108028","name":"Kovancilar Il\u00e7esi","state_id":2159,"state_code":"23","country_id":225,"country_code":"TR","latitude":"38.71883000","longitude":"39.86520000"},{"id":"108137","name":"Maden Il\u00e7esi","state_id":2159,"state_code":"23","country_id":225,"country_code":"TR","latitude":"38.39354000","longitude":"39.67252000"},{"id":"108188","name":"Merkez","state_id":2159,"state_code":"23","country_id":225,"country_code":"TR","latitude":"38.66790000","longitude":"39.21567000"},{"id":"108308","name":"Palu","state_id":2159,"state_code":"23","country_id":225,"country_code":"TR","latitude":"38.69135000","longitude":"39.91984000"},{"id":"108309","name":"Palu Il\u00e7esi","state_id":2159,"state_code":"23","country_id":225,"country_code":"TR","latitude":"38.69286000","longitude":"39.92652000"},{"id":"108479","name":"Sivrice","state_id":2159,"state_code":"23","country_id":225,"country_code":"TR","latitude":"38.44223000","longitude":"39.30938000"},{"id":"108480","name":"Sivrice Il\u00e7esi","state_id":2159,"state_code":"23","country_id":225,"country_code":"TR","latitude":"38.44921000","longitude":"39.30582000"},{"id":"108604","name":"Turluk","state_id":2159,"state_code":"23","country_id":225,"country_code":"TR","latitude":"39.44034000","longitude":"39.87773000"},{"id":"108890","name":"Ili\u00e7 Il\u00e7esi","state_id":2160,"state_code":"24","country_id":225,"country_code":"TR","latitude":"39.45587000","longitude":"38.56409000"},{"id":"108876","name":"\u00dcz\u00fcml\u00fc Il\u00e7esi","state_id":2160,"state_code":"24","country_id":225,"country_code":"TR","latitude":"39.70943000","longitude":"39.70125000"},{"id":"108806","name":"\u00c7ayirli Il\u00e7esi","state_id":2160,"state_code":"24","country_id":225,"country_code":"TR","latitude":"39.80454000","longitude":"40.03724000"},{"id":"107433","name":"Cimin","state_id":2160,"state_code":"24","country_id":225,"country_code":"TR","latitude":"39.70947000","longitude":"39.70015000"},{"id":"107602","name":"Erzincan","state_id":2160,"state_code":"24","country_id":225,"country_code":"TR","latitude":"39.73919000","longitude":"39.49015000"},{"id":"107971","name":"Kemah","state_id":2160,"state_code":"24","country_id":225,"country_code":"TR","latitude":"39.59606000","longitude":"39.02329000"},{"id":"107972","name":"Kemah Il\u00e7esi","state_id":2160,"state_code":"24","country_id":225,"country_code":"TR","latitude":"39.60123000","longitude":"39.03422000"},{"id":"107973","name":"Kemaliye","state_id":2160,"state_code":"24","country_id":225,"country_code":"TR","latitude":"39.26288000","longitude":"38.49674000"},{"id":"107974","name":"Kemaliye Il\u00e7esi","state_id":2160,"state_code":"24","country_id":225,"country_code":"TR","latitude":"39.27163000","longitude":"38.50588000"},{"id":"108295","name":"Otlukbeli","state_id":2160,"state_code":"24","country_id":225,"country_code":"TR","latitude":"39.97000000","longitude":"40.01872000"},{"id":"108296","name":"Otlukbeli Il\u00e7esi","state_id":2160,"state_code":"24","country_id":225,"country_code":"TR","latitude":"39.97213000","longitude":"40.02139000"},{"id":"108365","name":"Refahiye","state_id":2160,"state_code":"24","country_id":225,"country_code":"TR","latitude":"39.89315000","longitude":"38.76607000"},{"id":"108366","name":"Refahiye Il\u00e7esi","state_id":2160,"state_code":"24","country_id":225,"country_code":"TR","latitude":"39.90132000","longitude":"38.76745000"},{"id":"108570","name":"Tercan","state_id":2160,"state_code":"24","country_id":225,"country_code":"TR","latitude":"39.77709000","longitude":"40.37783000"},{"id":"108571","name":"Tercan Il\u00e7esi","state_id":2160,"state_code":"24","country_id":225,"country_code":"TR","latitude":"39.77812000","longitude":"40.38505000"},{"id":"107157","name":"Amasya","state_id":2161,"state_code":"05","country_id":225,"country_code":"TR","latitude":"40.65333000","longitude":"35.83306000"},{"id":"107457","name":"Dedek\u00f6y","state_id":2161,"state_code":"05","country_id":225,"country_code":"TR","latitude":"40.74752000","longitude":"35.04249000"},{"id":"107716","name":"G\u00f6yn\u00fccek","state_id":2161,"state_code":"05","country_id":225,"country_code":"TR","latitude":"40.39917000","longitude":"35.52500000"},{"id":"107717","name":"G\u00f6yn\u00fccek Il\u00e7esi","state_id":2161,"state_code":"05","country_id":225,"country_code":"TR","latitude":"40.41008000","longitude":"35.53104000"},{"id":"107737","name":"G\u00fcm\u00fcshacik\u00f6y","state_id":2161,"state_code":"05","country_id":225,"country_code":"TR","latitude":"40.87306000","longitude":"35.21472000"},{"id":"107738","name":"G\u00fcm\u00fcshacik\u00f6y Il\u00e7esi","state_id":2161,"state_code":"05","country_id":225,"country_code":"TR","latitude":"40.88365000","longitude":"35.22111000"},{"id":"107781","name":"Hamam\u00f6z\u00fc Il\u00e7esi","state_id":2161,"state_code":"05","country_id":225,"country_code":"TR","latitude":"40.79539000","longitude":"35.03367000"},{"id":"108195","name":"Merkez","state_id":2161,"state_code":"05","country_id":225,"country_code":"TR","latitude":"40.61939000","longitude":"35.87016000"},{"id":"108200","name":"Merzifon Il\u00e7esi","state_id":2161,"state_code":"05","country_id":225,"country_code":"TR","latitude":"40.88348000","longitude":"35.47116000"},{"id":"108500","name":"Suluova","state_id":2161,"state_code":"05","country_id":225,"country_code":"TR","latitude":"40.83129000","longitude":"35.64788000"},{"id":"108501","name":"Suluova Il\u00e7esi","state_id":2161,"state_code":"05","country_id":225,"country_code":"TR","latitude":"40.84202000","longitude":"35.65922000"},{"id":"108554","name":"Tasova","state_id":2161,"state_code":"05","country_id":225,"country_code":"TR","latitude":"40.75972000","longitude":"36.32250000"},{"id":"108555","name":"Tasova Il\u00e7esi","state_id":2161,"state_code":"05","country_id":225,"country_code":"TR","latitude":"40.76998000","longitude":"36.33092000"},{"id":"107406","name":"Bulanik","state_id":2162,"state_code":"49","country_id":225,"country_code":"TR","latitude":"39.08656000","longitude":"42.27158000"},{"id":"107407","name":"Bulanik Il\u00e7esi","state_id":2162,"state_code":"49","country_id":225,"country_code":"TR","latitude":"39.09285000","longitude":"42.27316000"},{"id":"107802","name":"Hask\u00f6y","state_id":2162,"state_code":"49","country_id":225,"country_code":"TR","latitude":"38.68231000","longitude":"41.67851000"},{"id":"107803","name":"Hask\u00f6y Il\u00e7esi","state_id":2162,"state_code":"49","country_id":225,"country_code":"TR","latitude":"38.68464000","longitude":"41.68831000"},{"id":"108022","name":"Korkut","state_id":2162,"state_code":"49","country_id":225,"country_code":"TR","latitude":"38.73390000","longitude":"41.78396000"},{"id":"108023","name":"Korkut Il\u00e7esi","state_id":2162,"state_code":"49","country_id":225,"country_code":"TR","latitude":"38.73826000","longitude":"41.78689000"},{"id":"108142","name":"Malazgirt","state_id":2162,"state_code":"49","country_id":225,"country_code":"TR","latitude":"39.14650000","longitude":"42.53536000"},{"id":"108143","name":"Malazgirt Il\u00e7esi","state_id":2162,"state_code":"49","country_id":225,"country_code":"TR","latitude":"39.15089000","longitude":"42.54543000"},{"id":"108191","name":"Merkez","state_id":2162,"state_code":"49","country_id":225,"country_code":"TR","latitude":"38.83793000","longitude":"41.48332000"},{"id":"108236","name":"Mus","state_id":2162,"state_code":"49","country_id":225,"country_code":"TR","latitude":"38.73163000","longitude":"41.48482000"},{"id":"108647","name":"Varto","state_id":2162,"state_code":"49","country_id":225,"country_code":"TR","latitude":"39.17375000","longitude":"41.45402000"},{"id":"108648","name":"Varto Il\u00e7esi","state_id":2162,"state_code":"49","country_id":225,"country_code":"TR","latitude":"39.17090000","longitude":"41.45440000"},{"id":"107123","name":"Alanyurt","state_id":2163,"state_code":"16","country_id":225,"country_code":"TR","latitude":"40.10881000","longitude":"29.51871000"},{"id":"108902","name":"Ineg\u00f6l","state_id":2163,"state_code":"16","country_id":225,"country_code":"TR","latitude":"40.01193000","longitude":"29.53678000"},{"id":"108901","name":"Inegol","state_id":2163,"state_code":"16","country_id":225,"country_code":"TR","latitude":"40.07806000","longitude":"29.51333000"},{"id":"108925","name":"Iznik","state_id":2163,"state_code":"16","country_id":225,"country_code":"TR","latitude":"40.42861000","longitude":"29.72111000"},{"id":"108926","name":"Iznik Il\u00e7esi","state_id":2163,"state_code":"16","country_id":225,"country_code":"TR","latitude":"40.43940000","longitude":"29.72644000"},{"id":"108757","name":"\u00c7akirca","state_id":2163,"state_code":"16","country_id":225,"country_code":"TR","latitude":"40.47056000","longitude":"29.66333000"},{"id":"108758","name":"\u00c7akirli","state_id":2163,"state_code":"16","country_id":225,"country_code":"TR","latitude":"40.51806000","longitude":"29.45222000"},{"id":"107269","name":"Balarim","state_id":2163,"state_code":"16","country_id":225,"country_code":"TR","latitude":"40.37381000","longitude":"29.59025000"},{"id":"107419","name":"B\u00fcy\u00fckorhan Il\u00e7esi","state_id":2163,"state_code":"16","country_id":225,"country_code":"TR","latitude":"39.78223000","longitude":"28.89338000"},{"id":"107374","name":"Boyalica","state_id":2163,"state_code":"16","country_id":225,"country_code":"TR","latitude":"40.48194000","longitude":"29.56083000"},{"id":"107414","name":"Bursa","state_id":2163,"state_code":"16","country_id":225,"country_code":"TR","latitude":"40.19559000","longitude":"29.06013000"},{"id":"107426","name":"Cerrah","state_id":2163,"state_code":"16","country_id":225,"country_code":"TR","latitude":"40.07124000","longitude":"29.44661000"},{"id":"107464","name":"Demirtas","state_id":2163,"state_code":"16","country_id":225,"country_code":"TR","latitude":"40.27194000","longitude":"29.09833000"},{"id":"107560","name":"Elbeyli","state_id":2163,"state_code":"16","country_id":225,"country_code":"TR","latitude":"40.48611000","longitude":"29.72472000"},{"id":"107756","name":"G\u00fcrsu","state_id":2163,"state_code":"16","country_id":225,"country_code":"TR","latitude":"40.25498000","longitude":"29.21183000"},{"id":"107660","name":"Gemlik","state_id":2163,"state_code":"16","country_id":225,"country_code":"TR","latitude":"40.43510000","longitude":"29.14943000"},{"id":"107785","name":"Hamzabey","state_id":2163,"state_code":"16","country_id":225,"country_code":"TR","latitude":"40.13583000","longitude":"29.52639000"},{"id":"107795","name":"Harmancik Il\u00e7esi","state_id":2163,"state_code":"16","country_id":225,"country_code":"TR","latitude":"39.67743000","longitude":"29.15523000"},{"id":"107890","name":"Karacabey","state_id":2163,"state_code":"16","country_id":225,"country_code":"TR","latitude":"40.21323000","longitude":"28.36120000"},{"id":"107891","name":"Karacabey Il\u00e7esi","state_id":2163,"state_code":"16","country_id":225,"country_code":"TR","latitude":"40.22288000","longitude":"28.36656000"},{"id":"107935","name":"Karincali","state_id":2163,"state_code":"16","country_id":225,"country_code":"TR","latitude":"39.97118000","longitude":"28.85894000"},{"id":"108094","name":"K\u00fc\u00e7\u00fckkumla","state_id":2163,"state_code":"16","country_id":225,"country_code":"TR","latitude":"40.47047000","longitude":"29.10152000"},{"id":"107967","name":"Keles","state_id":2163,"state_code":"16","country_id":225,"country_code":"TR","latitude":"39.91361000","longitude":"29.22944000"},{"id":"107968","name":"Keles Il\u00e7esi","state_id":2163,"state_code":"16","country_id":225,"country_code":"TR","latitude":"39.92363000","longitude":"29.23644000"},{"id":"107987","name":"Kestel","state_id":2163,"state_code":"16","country_id":225,"country_code":"TR","latitude":"40.19828000","longitude":"29.21237000"},{"id":"107988","name":"Kestel Il\u00e7esi","state_id":2163,"state_code":"16","country_id":225,"country_code":"TR","latitude":"40.18218000","longitude":"29.28916000"},{"id":"108001","name":"Kirazli","state_id":2163,"state_code":"16","country_id":225,"country_code":"TR","latitude":"40.09964000","longitude":"29.04163000"},{"id":"108059","name":"Kursunlu","state_id":2163,"state_code":"16","country_id":225,"country_code":"TR","latitude":"40.03712000","longitude":"29.65972000"},{"id":"108217","name":"Mudanya","state_id":2163,"state_code":"16","country_id":225,"country_code":"TR","latitude":"40.33342000","longitude":"28.77218000"},{"id":"108230","name":"Mustafakemalpasa","state_id":2163,"state_code":"16","country_id":225,"country_code":"TR","latitude":"40.03815000","longitude":"28.40866000"},{"id":"108231","name":"Mustafakemalpasa Il\u00e7esi","state_id":2163,"state_code":"16","country_id":225,"country_code":"TR","latitude":"40.04973000","longitude":"28.41833000"},{"id":"108239","name":"Narlica","state_id":2163,"state_code":"16","country_id":225,"country_code":"TR","latitude":"40.38583000","longitude":"29.48111000"},{"id":"108249","name":"Nil\u00fcfer","state_id":2163,"state_code":"16","country_id":225,"country_code":"TR","latitude":"40.21375000","longitude":"28.98464000"},{"id":"108272","name":"Orhaneli","state_id":2163,"state_code":"16","country_id":225,"country_code":"TR","latitude":"39.90333000","longitude":"28.99056000"},{"id":"108273","name":"Orhaneli Il\u00e7esi","state_id":2163,"state_code":"16","country_id":225,"country_code":"TR","latitude":"39.91406000","longitude":"28.99790000"},{"id":"108274","name":"Orhangazi","state_id":2163,"state_code":"16","country_id":225,"country_code":"TR","latitude":"40.48917000","longitude":"29.30889000"},{"id":"108275","name":"Orhangazi Il\u00e7esi","state_id":2163,"state_code":"16","country_id":225,"country_code":"TR","latitude":"40.49979000","longitude":"29.31207000"},{"id":"108293","name":"Osmangazi","state_id":2163,"state_code":"16","country_id":225,"country_code":"TR","latitude":"40.15644000","longitude":"29.08753000"},{"id":"108517","name":"S\u00f6l\u00f6z","state_id":2163,"state_code":"16","country_id":225,"country_code":"TR","latitude":"40.39480000","longitude":"29.41559000"},{"id":"108529","name":"Tacir","state_id":2163,"state_code":"16","country_id":225,"country_code":"TR","latitude":"40.52556000","longitude":"29.73972000"},{"id":"108530","name":"Tahtak\u00f6pr\u00fc","state_id":2163,"state_code":"16","country_id":225,"country_code":"TR","latitude":"39.95000000","longitude":"29.65000000"},{"id":"108537","name":"Tatkavakli","state_id":2163,"state_code":"16","country_id":225,"country_code":"TR","latitude":"40.03333000","longitude":"28.36667000"},{"id":"108632","name":"Umurbey","state_id":2163,"state_code":"16","country_id":225,"country_code":"TR","latitude":"40.41472000","longitude":"29.18306000"},{"id":"108746","name":"Yildirim Il\u00e7esi","state_id":2163,"state_code":"16","country_id":225,"country_code":"TR","latitude":"40.19567000","longitude":"29.03640000"},{"id":"108714","name":"Yenisehir","state_id":2163,"state_code":"16","country_id":225,"country_code":"TR","latitude":"40.26444000","longitude":"29.65306000"},{"id":"108717","name":"Yenisehir Il\u00e7esi","state_id":2163,"state_code":"16","country_id":225,"country_code":"TR","latitude":"40.27425000","longitude":"29.65764000"},{"id":"108692","name":"Yenice","state_id":2163,"state_code":"16","country_id":225,"country_code":"TR","latitude":"40.08778000","longitude":"29.42194000"},{"id":"108702","name":"Yenik\u00f6y","state_id":2163,"state_code":"16","country_id":225,"country_code":"TR","latitude":"40.53568000","longitude":"29.35364000"},{"id":"107133","name":"Alpu","state_id":2164,"state_code":"26","country_id":225,"country_code":"TR","latitude":"39.76903000","longitude":"30.96060000"},{"id":"107134","name":"Alpu Il\u00e7esi","state_id":2164,"state_code":"26","country_id":225,"country_code":"TR","latitude":"39.77889000","longitude":"30.97022000"},{"id":"108906","name":"In\u00f6n\u00fc","state_id":2164,"state_code":"26","country_id":225,"country_code":"TR","latitude":"39.81534000","longitude":"30.14549000"},{"id":"108907","name":"In\u00f6n\u00fci Il\u00e7esi","state_id":2164,"state_code":"26","country_id":225,"country_code":"TR","latitude":"39.82531000","longitude":"30.16043000"},{"id":"108827","name":"\u00c7ifteler","state_id":2164,"state_code":"26","country_id":225,"country_code":"TR","latitude":"39.38306000","longitude":"31.03917000"},{"id":"108828","name":"\u00c7ifteler Il\u00e7esi","state_id":2164,"state_code":"26","country_id":225,"country_code":"TR","latitude":"39.39270000","longitude":"31.04354000"},{"id":"107339","name":"Beylikova","state_id":2164,"state_code":"26","country_id":225,"country_code":"TR","latitude":"39.68694000","longitude":"31.20556000"},{"id":"107340","name":"Beylikova Il\u00e7esi","state_id":2164,"state_code":"26","country_id":225,"country_code":"TR","latitude":"39.69736000","longitude":"31.21207000"},{"id":"107378","name":"Bozan","state_id":2164,"state_code":"26","country_id":225,"country_code":"TR","latitude":"39.78806000","longitude":"31.10167000"},{"id":"107608","name":"Eskisehir","state_id":2164,"state_code":"26","country_id":225,"country_code":"TR","latitude":"39.77667000","longitude":"30.52056000"},{"id":"107748","name":"G\u00fcny\u00fcz\u00fc Il\u00e7esi","state_id":2164,"state_code":"26","country_id":225,"country_code":"TR","latitude":"39.39410000","longitude":"31.81400000"},{"id":"107786","name":"Han","state_id":2164,"state_code":"26","country_id":225,"country_code":"TR","latitude":"39.15917000","longitude":"30.86139000"},{"id":"107787","name":"Han Il\u00e7esi","state_id":2164,"state_code":"26","country_id":225,"country_code":"TR","latitude":"39.16895000","longitude":"30.86661000"},{"id":"108103","name":"Kirka","state_id":2164,"state_code":"26","country_id":225,"country_code":"TR","latitude":"39.27944000","longitude":"30.52639000"},{"id":"108138","name":"Mahmudiye Il\u00e7esi","state_id":2164,"state_code":"26","country_id":225,"country_code":"TR","latitude":"39.50724000","longitude":"30.99247000"},{"id":"108210","name":"Mihali\u00e7cik Il\u00e7esi","state_id":2164,"state_code":"26","country_id":225,"country_code":"TR","latitude":"39.87564000","longitude":"31.50091000"},{"id":"108208","name":"Mihalgazi","state_id":2164,"state_code":"26","country_id":225,"country_code":"TR","latitude":"40.02621000","longitude":"30.57707000"},{"id":"108209","name":"Mihalgazi Il\u00e7esi","state_id":2164,"state_code":"26","country_id":225,"country_code":"TR","latitude":"40.03715000","longitude":"30.58375000"},{"id":"108260","name":"Odunpazari","state_id":2164,"state_code":"26","country_id":225,"country_code":"TR","latitude":"39.76699000","longitude":"30.54113000"},{"id":"108398","name":"Saricakaya Il\u00e7esi","state_id":2164,"state_code":"26","country_id":225,"country_code":"TR","latitude":"40.04671000","longitude":"30.61994000"},{"id":"108446","name":"Sevin\u00e7","state_id":2164,"state_code":"26","country_id":225,"country_code":"TR","latitude":"39.78000000","longitude":"30.68889000"},{"id":"108453","name":"Seyitgazi","state_id":2164,"state_code":"26","country_id":225,"country_code":"TR","latitude":"39.44472000","longitude":"30.69472000"},{"id":"108454","name":"Seyitgazi Il\u00e7esi","state_id":2164,"state_code":"26","country_id":225,"country_code":"TR","latitude":"39.45397000","longitude":"30.70082000"},{"id":"108481","name":"Sivrihisar","state_id":2164,"state_code":"26","country_id":225,"country_code":"TR","latitude":"39.45037000","longitude":"31.53409000"},{"id":"108482","name":"Sivrihisar Il\u00e7esi","state_id":2164,"state_code":"26","country_id":225,"country_code":"TR","latitude":"39.45941000","longitude":"31.52476000"},{"id":"108566","name":"Tepebasi","state_id":2164,"state_code":"26","country_id":225,"country_code":"TR","latitude":"39.78430000","longitude":"30.50206000"},{"id":"107250","name":"Askale","state_id":2165,"state_code":"25","country_id":225,"country_code":"TR","latitude":"39.92083000","longitude":"40.69500000"},{"id":"107251","name":"Askale Il\u00e7esi","state_id":2165,"state_code":"25","country_id":225,"country_code":"TR","latitude":"39.93082000","longitude":"40.68718000"},{"id":"108950","name":"Senkaya","state_id":2165,"state_code":"25","country_id":225,"country_code":"TR","latitude":"40.55652000","longitude":"42.34266000"},{"id":"108951","name":"Senkaya Il\u00e7esi","state_id":2165,"state_code":"25","country_id":225,"country_code":"TR","latitude":"40.56221000","longitude":"42.34524000"},{"id":"107237","name":"Aziziye","state_id":2165,"state_code":"25","country_id":225,"country_code":"TR","latitude":"39.94028000","longitude":"41.11153000"},{"id":"108918","name":"Ispir","state_id":2165,"state_code":"25","country_id":225,"country_code":"TR","latitude":"40.47981000","longitude":"40.99373000"},{"id":"108919","name":"Ispir Il\u00e7esi","state_id":2165,"state_code":"25","country_id":225,"country_code":"TR","latitude":"40.48305000","longitude":"40.99837000"},{"id":"108786","name":"\u00c7at Il\u00e7esi","state_id":2165,"state_code":"25","country_id":225,"country_code":"TR","latitude":"39.61055000","longitude":"40.97851000"},{"id":"107603","name":"Erzurum","state_id":2165,"state_code":"25","country_id":225,"country_code":"TR","latitude":"39.90861000","longitude":"41.27694000"},{"id":"107842","name":"Hinis","state_id":2165,"state_code":"25","country_id":225,"country_code":"TR","latitude":"39.35766000","longitude":"41.69253000"},{"id":"107843","name":"Hinis Il\u00e7esi","state_id":2165,"state_code":"25","country_id":225,"country_code":"TR","latitude":"39.36104000","longitude":"41.69717000"},{"id":"107836","name":"Horasan","state_id":2165,"state_code":"25","country_id":225,"country_code":"TR","latitude":"40.03885000","longitude":"42.16366000"},{"id":"107837","name":"Horasan Il\u00e7esi","state_id":2165,"state_code":"25","country_id":225,"country_code":"TR","latitude":"40.04228000","longitude":"42.16723000"},{"id":"107848","name":"Ilica","state_id":2165,"state_code":"25","country_id":225,"country_code":"TR","latitude":"39.94653000","longitude":"41.09520000"},{"id":"107921","name":"Kara\u00e7oban","state_id":2165,"state_code":"25","country_id":225,"country_code":"TR","latitude":"39.34364000","longitude":"42.09918000"},{"id":"107922","name":"Kara\u00e7oban Il\u00e7esi","state_id":2165,"state_code":"25","country_id":225,"country_code":"TR","latitude":"39.35157000","longitude":"42.10970000"},{"id":"107919","name":"Karayazi","state_id":2165,"state_code":"25","country_id":225,"country_code":"TR","latitude":"39.69604000","longitude":"42.14277000"},{"id":"107920","name":"Karayazi Il\u00e7esi","state_id":2165,"state_code":"25","country_id":225,"country_code":"TR","latitude":"39.70292000","longitude":"42.14503000"},{"id":"108076","name":"K\u00f6pr\u00fck\u00f6y Il\u00e7esi","state_id":2165,"state_code":"25","country_id":225,"country_code":"TR","latitude":"39.97178000","longitude":"41.86804000"},{"id":"108241","name":"Narman","state_id":2165,"state_code":"25","country_id":225,"country_code":"TR","latitude":"40.34449000","longitude":"41.86088000"},{"id":"108242","name":"Narman Il\u00e7esi","state_id":2165,"state_code":"25","country_id":225,"country_code":"TR","latitude":"40.34492000","longitude":"41.87003000"},{"id":"108265","name":"Oltu","state_id":2165,"state_code":"25","country_id":225,"country_code":"TR","latitude":"40.53945000","longitude":"41.98722000"},{"id":"108266","name":"Oltu Il\u00e7esi","state_id":2165,"state_code":"25","country_id":225,"country_code":"TR","latitude":"40.54562000","longitude":"41.99582000"},{"id":"108267","name":"Olur","state_id":2165,"state_code":"25","country_id":225,"country_code":"TR","latitude":"40.82165000","longitude":"42.13055000"},{"id":"108268","name":"Olur Il\u00e7esi","state_id":2165,"state_code":"25","country_id":225,"country_code":"TR","latitude":"40.82661000","longitude":"42.13229000"},{"id":"108307","name":"Paland\u00f6ken","state_id":2165,"state_code":"25","country_id":225,"country_code":"TR","latitude":"39.85560000","longitude":"41.27975000"},{"id":"108314","name":"Pasinler","state_id":2165,"state_code":"25","country_id":225,"country_code":"TR","latitude":"39.97975000","longitude":"41.66997000"},{"id":"108315","name":"Pasinler Il\u00e7esi","state_id":2165,"state_code":"25","country_id":225,"country_code":"TR","latitude":"39.97735000","longitude":"41.67848000"},{"id":"108331","name":"Pazaryolu","state_id":2165,"state_code":"25","country_id":225,"country_code":"TR","latitude":"40.41142000","longitude":"40.76780000"},{"id":"108332","name":"Pazaryolu Il\u00e7esi","state_id":2165,"state_code":"25","country_id":225,"country_code":"TR","latitude":"40.41377000","longitude":"40.77253000"},{"id":"108562","name":"Tekman","state_id":2165,"state_code":"25","country_id":225,"country_code":"TR","latitude":"39.64111000","longitude":"41.50542000"},{"id":"108563","name":"Tekman Il\u00e7esi","state_id":2165,"state_code":"25","country_id":225,"country_code":"TR","latitude":"39.64998000","longitude":"41.51160000"},{"id":"108589","name":"Tortum","state_id":2165,"state_code":"25","country_id":225,"country_code":"TR","latitude":"40.28892000","longitude":"41.54096000"},{"id":"108590","name":"Tortum Il\u00e7esi","state_id":2165,"state_code":"25","country_id":225,"country_code":"TR","latitude":"40.29699000","longitude":"41.55084000"},{"id":"108636","name":"Uzundere","state_id":2165,"state_code":"25","country_id":225,"country_code":"TR","latitude":"40.53218000","longitude":"41.53832000"},{"id":"108637","name":"Uzundere Il\u00e7esi","state_id":2165,"state_code":"25","country_id":225,"country_code":"TR","latitude":"40.53175000","longitude":"41.54826000"},{"id":"108663","name":"Yakutiye","state_id":2165,"state_code":"25","country_id":225,"country_code":"TR","latitude":"40.00132000","longitude":"41.30997000"},{"id":"107852","name":"Igdir","state_id":2166,"state_code":"76","country_id":225,"country_code":"TR","latitude":"39.92371000","longitude":"44.04500000"},{"id":"107899","name":"Karakoyunlu","state_id":2166,"state_code":"76","country_id":225,"country_code":"TR","latitude":"39.87036000","longitude":"43.63014000"},{"id":"107900","name":"Karakoyunlu Il\u00e7esi","state_id":2166,"state_code":"76","country_id":225,"country_code":"TR","latitude":"39.88040000","longitude":"43.63302000"},{"id":"108610","name":"Tuzluca Il\u00e7esi","state_id":2166,"state_code":"76","country_id":225,"country_code":"TR","latitude":"40.03863000","longitude":"43.65212000"},{"id":"108937","name":"Sark\u00f6y Il\u00e7esi","state_id":2167,"state_code":"59","country_id":225,"country_code":"TR","latitude":"40.62513000","longitude":"27.10069000"},{"id":"108819","name":"\u00c7erkezk\u00f6y","state_id":2167,"state_code":"59","country_id":225,"country_code":"TR","latitude":"41.28616000","longitude":"27.99969000"},{"id":"108842","name":"\u00c7orlu","state_id":2167,"state_code":"59","country_id":225,"country_code":"TR","latitude":"41.15917000","longitude":"27.80000000"},{"id":"107594","name":"Ergene","state_id":2167,"state_code":"59","country_id":225,"country_code":"TR","latitude":"40.85953000","longitude":"27.27081000"},{"id":"107813","name":"Hayrabolu","state_id":2167,"state_code":"59","country_id":225,"country_code":"TR","latitude":"41.21311000","longitude":"27.10688000"},{"id":"107814","name":"Hayrabolu Il\u00e7esi","state_id":2167,"state_code":"59","country_id":225,"country_code":"TR","latitude":"41.22445000","longitude":"27.11951000"},{"id":"107885","name":"Kapakli","state_id":2167,"state_code":"59","country_id":225,"country_code":"TR","latitude":"41.32912000","longitude":"27.98064000"},{"id":"108046","name":"Kumbag","state_id":2167,"state_code":"59","country_id":225,"country_code":"TR","latitude":"40.88236000","longitude":"27.45919000"},{"id":"108144","name":"Malkara","state_id":2167,"state_code":"59","country_id":225,"country_code":"TR","latitude":"40.89000000","longitude":"26.90111000"},{"id":"108145","name":"Malkara Il\u00e7esi","state_id":2167,"state_code":"59","country_id":225,"country_code":"TR","latitude":"40.90052000","longitude":"26.91367000"},{"id":"108156","name":"Marmara Ereglisi","state_id":2167,"state_code":"59","country_id":225,"country_code":"TR","latitude":"40.97003000","longitude":"27.95528000"},{"id":"108157","name":"Marmara Ereglisi Il\u00e7esi","state_id":2167,"state_code":"59","country_id":225,"country_code":"TR","latitude":"40.98021000","longitude":"27.94102000"},{"id":"108159","name":"Marmaracik","state_id":2167,"state_code":"59","country_id":225,"country_code":"TR","latitude":"41.20667000","longitude":"27.75444000"},{"id":"108223","name":"Muratli Il\u00e7esi","state_id":2167,"state_code":"59","country_id":225,"country_code":"TR","latitude":"41.18345000","longitude":"27.51454000"},{"id":"108388","name":"Saray","state_id":2167,"state_code":"59","country_id":225,"country_code":"TR","latitude":"41.44431000","longitude":"27.92194000"},{"id":"108390","name":"Saray Il\u00e7esi","state_id":2167,"state_code":"59","country_id":225,"country_code":"TR","latitude":"41.45475000","longitude":"27.93734000"},{"id":"108522","name":"S\u00fcleymanpasa","state_id":2167,"state_code":"59","country_id":225,"country_code":"TR","latitude":"40.97990000","longitude":"27.30377000"},{"id":"108499","name":"Sultank\u00f6y","state_id":2167,"state_code":"59","country_id":225,"country_code":"TR","latitude":"41.02139000","longitude":"27.98861000"},{"id":"108559","name":"Tekirdag","state_id":2167,"state_code":"59","country_id":225,"country_code":"TR","latitude":"40.97810000","longitude":"27.51101000"},{"id":"108649","name":"Velimese","state_id":2167,"state_code":"59","country_id":225,"country_code":"TR","latitude":"41.25361000","longitude":"27.87833000"},{"id":"107208","name":"Atkaracalar","state_id":2168,"state_code":"18","country_id":225,"country_code":"TR","latitude":"40.81593000","longitude":"33.07556000"},{"id":"107209","name":"Atkaracalar Il\u00e7esi","state_id":2168,"state_code":"18","country_id":225,"country_code":"TR","latitude":"40.82560000","longitude":"33.08202000"},{"id":"108928","name":"Saban\u00f6z\u00fc","state_id":2168,"state_code":"18","country_id":225,"country_code":"TR","latitude":"40.48333000","longitude":"33.28333000"},{"id":"108820","name":"\u00c7erkes","state_id":2168,"state_code":"18","country_id":225,"country_code":"TR","latitude":"40.81164000","longitude":"32.89358000"},{"id":"108821","name":"\u00c7erkes Il\u00e7esi","state_id":2168,"state_code":"18","country_id":225,"country_code":"TR","latitude":"40.82165000","longitude":"32.90005000"},{"id":"107303","name":"Bayram\u00f6ren","state_id":2168,"state_code":"18","country_id":225,"country_code":"TR","latitude":"40.94329000","longitude":"33.20300000"},{"id":"107304","name":"Bayram\u00f6ren Il\u00e7esi","state_id":2168,"state_code":"18","country_id":225,"country_code":"TR","latitude":"40.95121000","longitude":"33.20992000"},{"id":"107564","name":"Eldivan","state_id":2168,"state_code":"18","country_id":225,"country_code":"TR","latitude":"40.52975000","longitude":"33.49903000"},{"id":"107565","name":"Eldivan Il\u00e7esi","state_id":2168,"state_code":"18","country_id":225,"country_code":"TR","latitude":"40.53921000","longitude":"33.50574000"},{"id":"107844","name":"Ilgaz","state_id":2168,"state_code":"18","country_id":225,"country_code":"TR","latitude":"40.92511000","longitude":"33.62586000"},{"id":"107845","name":"Ilgaz Il\u00e7esi","state_id":2168,"state_code":"18","country_id":225,"country_code":"TR","latitude":"40.93351000","longitude":"33.61542000"},{"id":"108122","name":"Kizilirmak","state_id":2168,"state_code":"18","country_id":225,"country_code":"TR","latitude":"40.34556000","longitude":"33.98639000"},{"id":"108123","name":"Kizilirmak Il\u00e7esi","state_id":2168,"state_code":"18","country_id":225,"country_code":"TR","latitude":"40.35504000","longitude":"33.99317000"},{"id":"107995","name":"Khanjarah","state_id":2168,"state_code":"18","country_id":225,"country_code":"TR","latitude":"40.59995000","longitude":"33.61530000"},{"id":"108020","name":"Korgun","state_id":2168,"state_code":"18","country_id":225,"country_code":"TR","latitude":"40.73479000","longitude":"33.51844000"},{"id":"108021","name":"Korgun Il\u00e7esi","state_id":2168,"state_code":"18","country_id":225,"country_code":"TR","latitude":"40.74560000","longitude":"33.52411000"},{"id":"108060","name":"Kursunlu","state_id":2168,"state_code":"18","country_id":225,"country_code":"TR","latitude":"40.84101000","longitude":"33.26028000"},{"id":"108061","name":"Kursunlu Il\u00e7esi","state_id":2168,"state_code":"18","country_id":225,"country_code":"TR","latitude":"40.84739000","longitude":"33.27350000"},{"id":"108276","name":"Orta","state_id":2168,"state_code":"18","country_id":225,"country_code":"TR","latitude":"40.62420000","longitude":"33.10928000"},{"id":"108277","name":"Orta Il\u00e7esi","state_id":2168,"state_code":"18","country_id":225,"country_code":"TR","latitude":"40.63413000","longitude":"33.11458000"},{"id":"108673","name":"Yaprakli","state_id":2168,"state_code":"18","country_id":225,"country_code":"TR","latitude":"40.75785000","longitude":"33.77819000"},{"id":"108674","name":"Yaprakli Il\u00e7esi","state_id":2168,"state_code":"18","country_id":225,"country_code":"TR","latitude":"40.76858000","longitude":"33.78379000"},{"id":"107092","name":"Akseki","state_id":2169,"state_code":"07","country_id":225,"country_code":"TR","latitude":"37.04861000","longitude":"31.79000000"},{"id":"107093","name":"Akseki Il\u00e7esi","state_id":2169,"state_code":"07","country_id":225,"country_code":"TR","latitude":"37.05820000","longitude":"31.80153000"},{"id":"107095","name":"Aksu","state_id":2169,"state_code":"07","country_id":225,"country_code":"TR","latitude":"36.95389000","longitude":"30.84778000"},{"id":"107122","name":"Alanya","state_id":2169,"state_code":"07","country_id":225,"country_code":"TR","latitude":"36.54375000","longitude":"31.99982000"},{"id":"107169","name":"Antalya","state_id":2169,"state_code":"07","country_id":225,"country_code":"TR","latitude":"36.90812000","longitude":"30.69556000"},{"id":"107216","name":"Avsallar","state_id":2169,"state_code":"07","country_id":225,"country_code":"TR","latitude":"36.62448000","longitude":"31.76941000"},{"id":"108877","name":"Ibradi","state_id":2169,"state_code":"07","country_id":225,"country_code":"TR","latitude":"37.09694000","longitude":"31.59917000"},{"id":"108878","name":"Ibradi Il\u00e7esi","state_id":2169,"state_code":"07","country_id":225,"country_code":"TR","latitude":"37.10757000","longitude":"31.60969000"},{"id":"107327","name":"Belek","state_id":2169,"state_code":"07","country_id":225,"country_code":"TR","latitude":"36.86278000","longitude":"31.05556000"},{"id":"107336","name":"Beykonak","state_id":2169,"state_code":"07","country_id":225,"country_code":"TR","latitude":"36.32573000","longitude":"30.30302000"},{"id":"107396","name":"Bogazkent","state_id":2169,"state_code":"07","country_id":225,"country_code":"TR","latitude":"36.85319000","longitude":"31.16388000"},{"id":"107541","name":"D\u00f6semealti Il\u00e7esi","state_id":2169,"state_code":"07","country_id":225,"country_code":"TR","latitude":"37.02366000","longitude":"30.59040000"},{"id":"107467","name":"Demre","state_id":2169,"state_code":"07","country_id":225,"country_code":"TR","latitude":"36.24444000","longitude":"29.98500000"},{"id":"107468","name":"Demre Il\u00e7esi","state_id":2169,"state_code":"07","country_id":225,"country_code":"TR","latitude":"36.25510000","longitude":"29.99788000"},{"id":"107557","name":"Eksere","state_id":2169,"state_code":"07","country_id":225,"country_code":"TR","latitude":"36.81339000","longitude":"31.99971000"},{"id":"107570","name":"Elmali","state_id":2169,"state_code":"07","country_id":225,"country_code":"TR","latitude":"36.73583000","longitude":"29.91775000"},{"id":"107571","name":"Elmali Il\u00e7esi","state_id":2169,"state_code":"07","country_id":225,"country_code":"TR","latitude":"36.74641000","longitude":"29.92324000"},{"id":"107617","name":"Evrenseki","state_id":2169,"state_code":"07","country_id":225,"country_code":"TR","latitude":"36.83868000","longitude":"31.35559000"},{"id":"107641","name":"Finike","state_id":2169,"state_code":"07","country_id":225,"country_code":"TR","latitude":"36.42355000","longitude":"30.06645000"},{"id":"107648","name":"Gazipasa","state_id":2169,"state_code":"07","country_id":225,"country_code":"TR","latitude":"36.26942000","longitude":"32.31792000"},{"id":"107649","name":"Gazipasa Il\u00e7esi","state_id":2169,"state_code":"07","country_id":225,"country_code":"TR","latitude":"36.28012000","longitude":"32.30570000"},{"id":"107718","name":"G\u00f6yn\u00fck","state_id":2169,"state_code":"07","country_id":225,"country_code":"TR","latitude":"36.66000000","longitude":"30.55000000"},{"id":"107740","name":"G\u00fcndogmus Il\u00e7esi","state_id":2169,"state_code":"07","country_id":225,"country_code":"TR","latitude":"36.82446000","longitude":"32.00679000"},{"id":"107962","name":"Kas","state_id":2169,"state_code":"07","country_id":225,"country_code":"TR","latitude":"36.20176000","longitude":"29.63766000"},{"id":"107963","name":"Kas Il\u00e7esi","state_id":2169,"state_code":"07","country_id":225,"country_code":"TR","latitude":"36.21207000","longitude":"29.65605000"},{"id":"107876","name":"Kalkan","state_id":2169,"state_code":"07","country_id":225,"country_code":"TR","latitude":"36.26510000","longitude":"29.41369000"},{"id":"108112","name":"Kizilaga\u00e7","state_id":2169,"state_code":"07","country_id":225,"country_code":"TR","latitude":"36.73055000","longitude":"31.53517000"},{"id":"107978","name":"Kemer","state_id":2169,"state_code":"07","country_id":225,"country_code":"TR","latitude":"36.59778000","longitude":"30.56056000"},{"id":"107979","name":"Kemer Il\u00e7esi","state_id":2169,"state_code":"07","country_id":225,"country_code":"TR","latitude":"36.60249000","longitude":"30.48039000"},{"id":"107981","name":"Kepez Il\u00e7esi","state_id":2169,"state_code":"07","country_id":225,"country_code":"TR","latitude":"37.01187000","longitude":"30.75966000"},{"id":"108017","name":"Konyaalti","state_id":2169,"state_code":"07","country_id":225,"country_code":"TR","latitude":"36.86424000","longitude":"30.62714000"},{"id":"108024","name":"Korkuteli","state_id":2169,"state_code":"07","country_id":225,"country_code":"TR","latitude":"37.06498000","longitude":"30.19565000"},{"id":"108025","name":"Korkuteli Il\u00e7esi","state_id":2169,"state_code":"07","country_id":225,"country_code":"TR","latitude":"37.07581000","longitude":"30.20293000"},{"id":"108048","name":"Kumk\u00f6y","state_id":2169,"state_code":"07","country_id":225,"country_code":"TR","latitude":"36.88286000","longitude":"30.95178000"},{"id":"108051","name":"Kumluca","state_id":2169,"state_code":"07","country_id":225,"country_code":"TR","latitude":"36.58000000","longitude":"30.30000000"},{"id":"108139","name":"Mahmutlar","state_id":2169,"state_code":"07","country_id":225,"country_code":"TR","latitude":"36.49463000","longitude":"32.09085000"},{"id":"108148","name":"Manavgat","state_id":2169,"state_code":"07","country_id":225,"country_code":"TR","latitude":"36.78667000","longitude":"31.44306000"},{"id":"108149","name":"Manavgat Il\u00e7esi","state_id":2169,"state_code":"07","country_id":225,"country_code":"TR","latitude":"36.79008000","longitude":"31.46286000"},{"id":"108224","name":"Muratpasa","state_id":2169,"state_code":"07","country_id":225,"country_code":"TR","latitude":"36.89157000","longitude":"30.76498000"},{"id":"108225","name":"Muratpasa Il\u00e7esi","state_id":2169,"state_code":"07","country_id":225,"country_code":"TR","latitude":"36.87907000","longitude":"30.76859000"},{"id":"108263","name":"Okurcalar","state_id":2169,"state_code":"07","country_id":225,"country_code":"TR","latitude":"36.64876000","longitude":"31.70387000"},{"id":"108319","name":"Payallar","state_id":2169,"state_code":"07","country_id":225,"country_code":"TR","latitude":"36.60160000","longitude":"31.85057000"},{"id":"108441","name":"Serik","state_id":2169,"state_code":"07","country_id":225,"country_code":"TR","latitude":"37.07743000","longitude":"31.00677000"},{"id":"108456","name":"Side","state_id":2169,"state_code":"07","country_id":225,"country_code":"TR","latitude":"36.76667000","longitude":"31.38889000"},{"id":"108614","name":"T\u00fcrkler","state_id":2169,"state_code":"07","country_id":225,"country_code":"TR","latitude":"36.60198000","longitude":"31.82067000"},{"id":"108560","name":"Tekirova","state_id":2169,"state_code":"07","country_id":225,"country_code":"TR","latitude":"36.50170000","longitude":"30.52723000"},{"id":"108605","name":"Turun\u00e7ova","state_id":2169,"state_code":"07","country_id":225,"country_code":"TR","latitude":"36.36889000","longitude":"30.13750000"},{"id":"107245","name":"Agva","state_id":2170,"state_code":"34","country_id":225,"country_code":"TR","latitude":"41.13806000","longitude":"29.85667000"},{"id":"107061","name":"Adalan","state_id":2170,"state_code":"34","country_id":225,"country_code":"TR","latitude":"40.87590000","longitude":"29.08940000"},{"id":"107062","name":"Adalar","state_id":2170,"state_code":"34","country_id":225,"country_code":"TR","latitude":"40.86913000","longitude":"29.12064000"},{"id":"107199","name":"Arik\u00f6y","state_id":2170,"state_code":"34","country_id":225,"country_code":"TR","latitude":"41.23044000","longitude":"29.00425000"},{"id":"107188","name":"Arnavutk\u00f6y","state_id":2170,"state_code":"34","country_id":225,"country_code":"TR","latitude":"41.19674000","longitude":"28.73405000"},{"id":"107207","name":"Atasehir","state_id":2170,"state_code":"34","country_id":225,"country_code":"TR","latitude":"40.99104000","longitude":"29.13471000"},{"id":"107213","name":"Avcilar","state_id":2170,"state_code":"34","country_id":225,"country_code":"TR","latitude":"41.02355000","longitude":"28.71860000"},{"id":"108963","name":"Sisli","state_id":2170,"state_code":"34","country_id":225,"country_code":"TR","latitude":"41.12514000","longitude":"29.00013000"},{"id":"108958","name":"Sile","state_id":2170,"state_code":"34","country_id":225,"country_code":"TR","latitude":"41.12902000","longitude":"29.61845000"},{"id":"108927","name":"I\u00e7meler","state_id":2170,"state_code":"34","country_id":225,"country_code":"TR","latitude":"40.84639000","longitude":"29.30889000"},{"id":"108871","name":"\u00dcmraniye","state_id":2170,"state_code":"34","country_id":225,"country_code":"TR","latitude":"41.03482000","longitude":"29.10896000"},{"id":"108874","name":"\u00dcsk\u00fcdar","state_id":2170,"state_code":"34","country_id":225,"country_code":"TR","latitude":"41.02274000","longitude":"29.01366000"},{"id":"108780","name":"\u00c7anta","state_id":2170,"state_code":"34","country_id":225,"country_code":"TR","latitude":"41.07897000","longitude":"28.08323000"},{"id":"108788","name":"\u00c7atalca","state_id":2170,"state_code":"34","country_id":225,"country_code":"TR","latitude":"41.29651000","longitude":"28.45419000"},{"id":"108812","name":"\u00c7ekmek\u00f6y","state_id":2170,"state_code":"34","country_id":225,"country_code":"TR","latitude":"41.03819000","longitude":"29.20029000"},{"id":"107312","name":"Basaksehir","state_id":2170,"state_code":"34","country_id":225,"country_code":"TR","latitude":"41.09203000","longitude":"28.80203000"},{"id":"107308","name":"Bagcilar","state_id":2170,"state_code":"34","country_id":225,"country_code":"TR","latitude":"41.04275000","longitude":"28.83625000"},{"id":"107261","name":"Bah\u00e7elievler","state_id":2170,"state_code":"34","country_id":225,"country_code":"TR","latitude":"41.00652000","longitude":"28.84099000"},{"id":"107267","name":"Bakirk\u00f6y","state_id":2170,"state_code":"34","country_id":225,"country_code":"TR","latitude":"40.98388000","longitude":"28.83541000"},{"id":"107302","name":"Bayrampasa","state_id":2170,"state_code":"34","country_id":225,"country_code":"TR","latitude":"41.04691000","longitude":"28.90278000"},{"id":"107421","name":"B\u00fcy\u00fck\u00e7avuslu","state_id":2170,"state_code":"34","country_id":225,"country_code":"TR","latitude":"41.24002000","longitude":"28.06331000"},{"id":"107422","name":"B\u00fcy\u00fck\u00e7ekmece","state_id":2170,"state_code":"34","country_id":225,"country_code":"TR","latitude":"41.04521000","longitude":"28.59573000"},{"id":"107349","name":"Besiktas","state_id":2170,"state_code":"34","country_id":225,"country_code":"TR","latitude":"41.07122000","longitude":"29.02321000"},{"id":"107337","name":"Beykoz","state_id":2170,"state_code":"34","country_id":225,"country_code":"TR","latitude":"41.13774000","longitude":"29.16932000"},{"id":"107338","name":"Beylikd\u00fcz\u00fc","state_id":2170,"state_code":"34","country_id":225,"country_code":"TR","latitude":"41.00322000","longitude":"28.64067000"},{"id":"107341","name":"Beyoglu","state_id":2170,"state_code":"34","country_id":225,"country_code":"TR","latitude":"41.03786000","longitude":"28.96767000"},{"id":"107375","name":"Boyalik","state_id":2170,"state_code":"34","country_id":225,"country_code":"TR","latitude":"41.26337000","longitude":"28.63142000"},{"id":"107425","name":"Cel\u00e2liye","state_id":2170,"state_code":"34","country_id":225,"country_code":"TR","latitude":"41.05188000","longitude":"28.41867000"},{"id":"107536","name":"Durusu","state_id":2170,"state_code":"34","country_id":225,"country_code":"TR","latitude":"41.30337000","longitude":"28.67635000"},{"id":"107575","name":"Emin\u00f6n\u00fc","state_id":2170,"state_code":"34","country_id":225,"country_code":"TR","latitude":"41.01766000","longitude":"28.97438000"},{"id":"107604","name":"Esenler","state_id":2170,"state_code":"34","country_id":225,"country_code":"TR","latitude":"41.07925000","longitude":"28.85235000"},{"id":"107605","name":"Esenyurt","state_id":2170,"state_code":"34","country_id":225,"country_code":"TR","latitude":"41.04000000","longitude":"28.66161000"},{"id":"107622","name":"Ey\u00fcpsultan","state_id":2170,"state_code":"34","country_id":225,"country_code":"TR","latitude":"41.19904000","longitude":"28.88667000"},{"id":"107632","name":"Fatih","state_id":2170,"state_code":"34","country_id":225,"country_code":"TR","latitude":"41.01746000","longitude":"28.94053000"},{"id":"107647","name":"Gaziosmanpasa","state_id":2170,"state_code":"34","country_id":225,"country_code":"TR","latitude":"41.07857000","longitude":"28.89679000"},{"id":"107746","name":"G\u00fcng\u00f6ren","state_id":2170,"state_code":"34","country_id":225,"country_code":"TR","latitude":"41.01787000","longitude":"28.87882000"},{"id":"108756","name":"g\u00fcng\u00f6ren merter","state_id":2170,"state_code":"34","country_id":225,"country_code":"TR","latitude":"41.00711000","longitude":"28.88795000"},{"id":"107754","name":"G\u00fcrpinar","state_id":2170,"state_code":"34","country_id":225,"country_code":"TR","latitude":"40.99256000","longitude":"28.61428000"},{"id":"107851","name":"Istanbul","state_id":2170,"state_code":"34","country_id":225,"country_code":"TR","latitude":"41.01384000","longitude":"28.94966000"},{"id":"107863","name":"Kadik\u00f6y","state_id":2170,"state_code":"34","country_id":225,"country_code":"TR","latitude":"40.98229000","longitude":"29.09032000"},{"id":"107892","name":"Karacak\u00f6y","state_id":2170,"state_code":"34","country_id":225,"country_code":"TR","latitude":"41.40338000","longitude":"28.38055000"},{"id":"107933","name":"Kartal","state_id":2170,"state_code":"34","country_id":225,"country_code":"TR","latitude":"40.91197000","longitude":"29.21190000"},{"id":"107942","name":"Kavakli","state_id":2170,"state_code":"34","country_id":225,"country_code":"TR","latitude":"41.09258000","longitude":"28.33172000"},{"id":"108071","name":"K\u00e2githane","state_id":2170,"state_code":"34","country_id":225,"country_code":"TR","latitude":"41.08319000","longitude":"28.97826000"},{"id":"108100","name":"Kinali","state_id":2170,"state_code":"34","country_id":225,"country_code":"TR","latitude":"40.90713000","longitude":"29.05499000"},{"id":"108095","name":"K\u00fc\u00e7\u00fck\u00e7ekmece","state_id":2170,"state_code":"34","country_id":225,"country_code":"TR","latitude":"41.06947000","longitude":"28.76983000"},{"id":"108047","name":"Kumburgaz","state_id":2170,"state_code":"34","country_id":225,"country_code":"TR","latitude":"41.02108000","longitude":"28.48033000"},{"id":"108146","name":"Maltepe","state_id":2170,"state_code":"34","country_id":225,"country_code":"TR","latitude":"40.95890000","longitude":"29.17866000"},{"id":"108199","name":"Merter Keresteciler","state_id":2170,"state_code":"34","country_id":225,"country_code":"TR","latitude":"41.01295000","longitude":"28.88593000"},{"id":"108213","name":"Mimarsinan","state_id":2170,"state_code":"34","country_id":225,"country_code":"TR","latitude":"41.01790000","longitude":"28.56176000"},{"id":"108221","name":"Muratbey","state_id":2170,"state_code":"34","country_id":225,"country_code":"TR","latitude":"41.09630000","longitude":"28.49227000"},{"id":"108287","name":"Ortak\u00f6y","state_id":2170,"state_code":"34","country_id":225,"country_code":"TR","latitude":"41.10154000","longitude":"28.37588000"},{"id":"108336","name":"Pendik","state_id":2170,"state_code":"34","country_id":225,"country_code":"TR","latitude":"40.94577000","longitude":"29.33019000"},{"id":"108382","name":"Sancaktepe","state_id":2170,"state_code":"34","country_id":225,"country_code":"TR","latitude":"40.98949000","longitude":"29.24320000"},{"id":"108411","name":"Sariyer","state_id":2170,"state_code":"34","country_id":225,"country_code":"TR","latitude":"41.21482000","longitude":"29.05678000"},{"id":"108432","name":"Selimpasa","state_id":2170,"state_code":"34","country_id":225,"country_code":"TR","latitude":"41.05448000","longitude":"28.36678000"},{"id":"108460","name":"Silivri","state_id":2170,"state_code":"34","country_id":225,"country_code":"TR","latitude":"41.18116000","longitude":"28.19890000"},{"id":"108492","name":"Sultanbeyli","state_id":2170,"state_code":"34","country_id":225,"country_code":"TR","latitude":"40.95264000","longitude":"29.26797000"},{"id":"108495","name":"Sultangazi","state_id":2170,"state_code":"34","country_id":225,"country_code":"TR","latitude":"41.21792000","longitude":"28.71740000"},{"id":"108568","name":"Tepecik","state_id":2170,"state_code":"34","country_id":225,"country_code":"TR","latitude":"41.02931000","longitude":"28.54978000"},{"id":"108609","name":"Tuzla","state_id":2170,"state_code":"34","country_id":225,"country_code":"TR","latitude":"40.86368000","longitude":"29.31942000"},{"id":"108631","name":"Umraniye","state_id":2170,"state_code":"34","country_id":225,"country_code":"TR","latitude":"41.01643000","longitude":"29.12476000"},{"id":"108662","name":"Yakuplu","state_id":2170,"state_code":"34","country_id":225,"country_code":"TR","latitude":"40.98894000","longitude":"28.67582000"},{"id":"108750","name":"Zeytinburnu","state_id":2170,"state_code":"34","country_id":225,"country_code":"TR","latitude":"41.00824000","longitude":"28.90952000"},{"id":"107075","name":"Ahirli Il\u00e7esi","state_id":2171,"state_code":"42","country_id":225,"country_code":"TR","latitude":"37.24828000","longitude":"32.12419000"},{"id":"107115","name":"Aksehir","state_id":2171,"state_code":"42","country_id":225,"country_code":"TR","latitude":"38.35750000","longitude":"31.41639000"},{"id":"107116","name":"Aksehir Il\u00e7esi","state_id":2171,"state_code":"42","country_id":225,"country_code":"TR","latitude":"38.36730000","longitude":"31.41983000"},{"id":"107112","name":"Ak\u00f6ren Il\u00e7esi","state_id":2171,"state_code":"42","country_id":225,"country_code":"TR","latitude":"37.46265000","longitude":"32.37489000"},{"id":"107140","name":"Altinekin","state_id":2171,"state_code":"42","country_id":225,"country_code":"TR","latitude":"38.30778000","longitude":"32.86861000"},{"id":"107141","name":"Altinekin Il\u00e7esi","state_id":2171,"state_code":"42","country_id":225,"country_code":"TR","latitude":"38.31787000","longitude":"32.87447000"},{"id":"108789","name":"\u00c7atalh\u00f6y\u00fck","state_id":2171,"state_code":"42","country_id":225,"country_code":"TR","latitude":"37.66847000","longitude":"32.82689000"},{"id":"108816","name":"\u00c7eltik Il\u00e7esi","state_id":2171,"state_code":"42","country_id":225,"country_code":"TR","latitude":"39.03388000","longitude":"31.79408000"},{"id":"108849","name":"\u00c7umra","state_id":2171,"state_code":"42","country_id":225,"country_code":"TR","latitude":"37.57320000","longitude":"32.77446000"},{"id":"108850","name":"\u00c7umra Il\u00e7esi","state_id":2171,"state_code":"42","country_id":225,"country_code":"TR","latitude":"37.58165000","longitude":"32.77971000"},{"id":"107345","name":"Beysehir","state_id":2171,"state_code":"42","country_id":225,"country_code":"TR","latitude":"37.67735000","longitude":"31.72458000"},{"id":"107346","name":"Beysehir Il\u00e7esi","state_id":2171,"state_code":"42","country_id":225,"country_code":"TR","latitude":"37.68668000","longitude":"31.73051000"},{"id":"107386","name":"Bozkir","state_id":2171,"state_code":"42","country_id":225,"country_code":"TR","latitude":"37.18963000","longitude":"32.24736000"},{"id":"107387","name":"Bozkir Il\u00e7esi","state_id":2171,"state_code":"42","country_id":225,"country_code":"TR","latitude":"37.19978000","longitude":"32.25234000"},{"id":"107431","name":"Cihanbeyli","state_id":2171,"state_code":"42","country_id":225,"country_code":"TR","latitude":"38.66072000","longitude":"32.92437000"},{"id":"107432","name":"Cihanbeyli District","state_id":2171,"state_code":"42","country_id":225,"country_code":"TR","latitude":"38.67131000","longitude":"32.92522000"},{"id":"107471","name":"Derbent","state_id":2171,"state_code":"42","country_id":225,"country_code":"TR","latitude":"38.01422000","longitude":"32.01639000"},{"id":"107472","name":"Derbent Il\u00e7esi","state_id":2171,"state_code":"42","country_id":225,"country_code":"TR","latitude":"38.02403000","longitude":"32.02463000"},{"id":"107473","name":"Derebucak","state_id":2171,"state_code":"42","country_id":225,"country_code":"TR","latitude":"37.39179000","longitude":"31.50918000"},{"id":"107474","name":"Derebucak Il\u00e7esi","state_id":2171,"state_code":"42","country_id":225,"country_code":"TR","latitude":"37.40180000","longitude":"31.51665000"},{"id":"107513","name":"Doganhisar","state_id":2171,"state_code":"42","country_id":225,"country_code":"TR","latitude":"38.14630000","longitude":"31.67648000"},{"id":"107514","name":"Doganhisar Il\u00e7esi","state_id":2171,"state_code":"42","country_id":225,"country_code":"TR","latitude":"38.15650000","longitude":"31.68226000"},{"id":"107578","name":"Emirgazi","state_id":2171,"state_code":"42","country_id":225,"country_code":"TR","latitude":"37.90222000","longitude":"33.83722000"},{"id":"107579","name":"Emirgazi Il\u00e7esi","state_id":2171,"state_code":"42","country_id":225,"country_code":"TR","latitude":"37.91229000","longitude":"33.84666000"},{"id":"107589","name":"Eregli","state_id":2171,"state_code":"42","country_id":225,"country_code":"TR","latitude":"37.51333000","longitude":"34.04672000"},{"id":"107591","name":"Eregli Il\u00e7esi","state_id":2171,"state_code":"42","country_id":225,"country_code":"TR","latitude":"37.52305000","longitude":"34.05553000"},{"id":"107745","name":"G\u00fcneysinir Il\u00e7esi","state_id":2171,"state_code":"42","country_id":225,"country_code":"TR","latitude":"37.27977000","longitude":"32.73735000"},{"id":"107770","name":"Hadim","state_id":2171,"state_code":"42","country_id":225,"country_code":"TR","latitude":"36.98776000","longitude":"32.45674000"},{"id":"107771","name":"Hadim Il\u00e7esi","state_id":2171,"state_code":"42","country_id":225,"country_code":"TR","latitude":"36.99794000","longitude":"32.46117000"},{"id":"107778","name":"Halkapinar","state_id":2171,"state_code":"42","country_id":225,"country_code":"TR","latitude":"37.43394000","longitude":"34.18743000"},{"id":"107779","name":"Halkapinar Il\u00e7esi","state_id":2171,"state_code":"42","country_id":225,"country_code":"TR","latitude":"37.44361000","longitude":"34.19336000"},{"id":"107840","name":"H\u00fcy\u00fck","state_id":2171,"state_code":"42","country_id":225,"country_code":"TR","latitude":"37.95388000","longitude":"31.59639000"},{"id":"107841","name":"H\u00fcy\u00fck Il\u00e7esi","state_id":2171,"state_code":"42","country_id":225,"country_code":"TR","latitude":"37.96331000","longitude":"31.60010000"},{"id":"107846","name":"Ilgin","state_id":2171,"state_code":"42","country_id":225,"country_code":"TR","latitude":"38.27917000","longitude":"31.91389000"},{"id":"107847","name":"Ilgin Il\u00e7esi","state_id":2171,"state_code":"42","country_id":225,"country_code":"TR","latitude":"38.28942000","longitude":"31.91916000"},{"id":"107864","name":"Kadinhani","state_id":2171,"state_code":"42","country_id":225,"country_code":"TR","latitude":"38.23972000","longitude":"32.21139000"},{"id":"107865","name":"Kadinhani Il\u00e7esi","state_id":2171,"state_code":"42","country_id":225,"country_code":"TR","latitude":"38.24958000","longitude":"32.21730000"},{"id":"107912","name":"Karapinar","state_id":2171,"state_code":"42","country_id":225,"country_code":"TR","latitude":"37.71596000","longitude":"33.55064000"},{"id":"107913","name":"Karapinar Il\u00e7esi","state_id":2171,"state_code":"42","country_id":225,"country_code":"TR","latitude":"37.72637000","longitude":"33.55759000"},{"id":"107917","name":"Karatay","state_id":2171,"state_code":"42","country_id":225,"country_code":"TR","latitude":"37.94001000","longitude":"32.99828000"},{"id":"108016","name":"Konya","state_id":2171,"state_code":"42","country_id":225,"country_code":"TR","latitude":"37.87135000","longitude":"32.48464000"},{"id":"108042","name":"Kulu","state_id":2171,"state_code":"42","country_id":225,"country_code":"TR","latitude":"39.09513000","longitude":"33.07989000"},{"id":"108043","name":"Kulu Il\u00e7esi","state_id":2171,"state_code":"42","country_id":225,"country_code":"TR","latitude":"39.10536000","longitude":"33.08858000"},{"id":"108065","name":"Kuyulusebil","state_id":2171,"state_code":"42","country_id":225,"country_code":"TR","latitude":"38.65389000","longitude":"32.52972000"},{"id":"108175","name":"Meram Il\u00e7esi","state_id":2171,"state_code":"42","country_id":225,"country_code":"TR","latitude":"37.83984000","longitude":"32.47111000"},{"id":"108300","name":"Ovakavagi","state_id":2171,"state_code":"42","country_id":225,"country_code":"TR","latitude":"37.71079000","longitude":"32.93482000"},{"id":"108394","name":"Saray\u00f6n\u00fc","state_id":2171,"state_code":"42","country_id":225,"country_code":"TR","latitude":"38.26201000","longitude":"32.40457000"},{"id":"108395","name":"Saray\u00f6n\u00fc Il\u00e7esi","state_id":2171,"state_code":"42","country_id":225,"country_code":"TR","latitude":"38.27030000","longitude":"32.41188000"},{"id":"108427","name":"Selcuklu","state_id":2171,"state_code":"42","country_id":225,"country_code":"TR","latitude":"38.05761000","longitude":"32.54088000"},{"id":"108450","name":"Seydisehir","state_id":2171,"state_code":"42","country_id":225,"country_code":"TR","latitude":"37.41926000","longitude":"31.84527000"},{"id":"108451","name":"Seydisehir Il\u00e7esi","state_id":2171,"state_code":"42","country_id":225,"country_code":"TR","latitude":"37.42930000","longitude":"31.85046000"},{"id":"108546","name":"Taskent","state_id":2171,"state_code":"42","country_id":225,"country_code":"TR","latitude":"36.92430000","longitude":"32.49131000"},{"id":"108547","name":"Taskent Il\u00e7esi","state_id":2171,"state_code":"42","country_id":225,"country_code":"TR","latitude":"36.93392000","longitude":"32.49529000"},{"id":"108611","name":"Tuzluk\u00e7u","state_id":2171,"state_code":"42","country_id":225,"country_code":"TR","latitude":"38.47778000","longitude":"31.62639000"},{"id":"108612","name":"Tuzluk\u00e7u Il\u00e7esi","state_id":2171,"state_code":"42","country_id":225,"country_code":"TR","latitude":"38.48788000","longitude":"31.63047000"},{"id":"108668","name":"Yalih\u00fcy\u00fck","state_id":2171,"state_code":"42","country_id":225,"country_code":"TR","latitude":"37.30077000","longitude":"32.08548000"},{"id":"108669","name":"Yalih\u00fcy\u00fck Il\u00e7esi","state_id":2171,"state_code":"42","country_id":225,"country_code":"TR","latitude":"37.31110000","longitude":"32.08924000"},{"id":"108675","name":"Yarma","state_id":2171,"state_code":"42","country_id":225,"country_code":"TR","latitude":"37.81149000","longitude":"32.88278000"},{"id":"108696","name":"Yeniceoba","state_id":2171,"state_code":"42","country_id":225,"country_code":"TR","latitude":"38.86972000","longitude":"32.78833000"},{"id":"108738","name":"Yunak","state_id":2171,"state_code":"42","country_id":225,"country_code":"TR","latitude":"38.81418000","longitude":"31.73223000"},{"id":"108739","name":"Yunak Il\u00e7esi","state_id":2171,"state_code":"42","country_id":225,"country_code":"TR","latitude":"38.82374000","longitude":"31.73748000"},{"id":"107366","name":"Bolu","state_id":2172,"state_code":"14","country_id":225,"country_code":"TR","latitude":"40.73583000","longitude":"31.60611000"},{"id":"107537","name":"D\u00f6rtdivan","state_id":2172,"state_code":"14","country_id":225,"country_code":"TR","latitude":"40.72052000","longitude":"32.06314000"},{"id":"107538","name":"D\u00f6rtdivan Il\u00e7esi","state_id":2172,"state_code":"14","country_id":225,"country_code":"TR","latitude":"40.73040000","longitude":"32.07079000"},{"id":"107719","name":"G\u00f6yn\u00fck","state_id":2172,"state_code":"14","country_id":225,"country_code":"TR","latitude":"40.40028000","longitude":"30.78833000"},{"id":"107720","name":"G\u00f6yn\u00fck Il\u00e7esi","state_id":2172,"state_code":"14","country_id":225,"country_code":"TR","latitude":"40.41056000","longitude":"30.79181000"},{"id":"107665","name":"Gerede","state_id":2172,"state_code":"14","country_id":225,"country_code":"TR","latitude":"40.71364000","longitude":"32.31263000"},{"id":"108096","name":"Kibriscik","state_id":2172,"state_code":"14","country_id":225,"country_code":"TR","latitude":"40.40778000","longitude":"31.85194000"},{"id":"108097","name":"Kibriscik Il\u00e7esi","state_id":2172,"state_code":"14","country_id":225,"country_code":"TR","latitude":"40.41777000","longitude":"31.85584000"},{"id":"108172","name":"Mengen","state_id":2172,"state_code":"14","country_id":225,"country_code":"TR","latitude":"40.93877000","longitude":"32.07642000"},{"id":"108173","name":"Mengen Il\u00e7esi","state_id":2172,"state_code":"14","country_id":225,"country_code":"TR","latitude":"40.94849000","longitude":"32.06535000"},{"id":"108218","name":"Mudurnu","state_id":2172,"state_code":"14","country_id":225,"country_code":"TR","latitude":"40.47300000","longitude":"31.20755000"},{"id":"108219","name":"Mudurnu Il\u00e7esi","state_id":2172,"state_code":"14","country_id":225,"country_code":"TR","latitude":"40.48344000","longitude":"31.21412000"},{"id":"108421","name":"Seben","state_id":2172,"state_code":"14","country_id":225,"country_code":"TR","latitude":"40.41134000","longitude":"31.57359000"},{"id":"108422","name":"Seben Il\u00e7esi","state_id":2172,"state_code":"14","country_id":225,"country_code":"TR","latitude":"40.42162000","longitude":"31.58299000"},{"id":"108709","name":"Yeni\u00e7aga","state_id":2172,"state_code":"14","country_id":225,"country_code":"TR","latitude":"40.77115000","longitude":"32.03375000"},{"id":"108710","name":"Yeni\u00e7aga Il\u00e7esi","state_id":2172,"state_code":"14","country_id":225,"country_code":"TR","latitude":"40.77767000","longitude":"32.04920000"},{"id":"107117","name":"Alaca","state_id":2173,"state_code":"19","country_id":225,"country_code":"TR","latitude":"40.16833000","longitude":"34.84250000"},{"id":"107118","name":"Alaca Il\u00e7esi","state_id":2173,"state_code":"19","country_id":225,"country_code":"TR","latitude":"40.17835000","longitude":"34.84968000"},