[{"id":"64946","name":"Kampong Speu","state_id":3988,"state_code":"5","country_id":37,"country_code":"KH","latitude":"11.45332000","longitude":"104.52085000"},{"id":"64962","name":"Krong Chbar Mon","state_id":3988,"state_code":"5","country_id":37,"country_code":"KH","latitude":"11.47091000","longitude":"104.50655000"},{"id":"65032","name":"Srok Odongk","state_id":3988,"state_code":"5","country_id":37,"country_code":"KH","latitude":"11.66845000","longitude":"104.61224000"},{"id":"64989","name":"Srok Basedth","state_id":3988,"state_code":"5","country_id":37,"country_code":"KH","latitude":"11.18432000","longitude":"104.53584000"},{"id":"65008","name":"Srok K\u00f4ng Pisei","state_id":3988,"state_code":"5","country_id":37,"country_code":"KH","latitude":"11.31648000","longitude":"104.65992000"}]