[{"id":"67570","name":"Sipkovica","state_id":663,"state_code":"76","country_id":129,"country_code":"MK","latitude":"42.03500000","longitude":"20.91556000"},{"id":"67425","name":"Dzepciste","state_id":663,"state_code":"76","country_id":129,"country_code":"MK","latitude":"42.03287000","longitude":"20.99817000"},{"id":"67415","name":"Dobroste","state_id":663,"state_code":"76","country_id":129,"country_code":"MK","latitude":"42.10333000","longitude":"21.07778000"},{"id":"67429","name":"Golema Recica","state_id":663,"state_code":"76","country_id":129,"country_code":"MK","latitude":"41.98803000","longitude":"20.94517000"},{"id":"67505","name":"Pirok","state_id":663,"state_code":"76","country_id":129,"country_code":"MK","latitude":"41.91083000","longitude":"20.91056000"},{"id":"67508","name":"Poroj","state_id":663,"state_code":"76","country_id":129,"country_code":"MK","latitude":"42.02913000","longitude":"20.99266000"},{"id":"67524","name":"Selce","state_id":663,"state_code":"76","country_id":129,"country_code":"MK","latitude":"42.03482000","longitude":"20.94035000"},{"id":"67543","name":"Tetovo","state_id":663,"state_code":"76","country_id":129,"country_code":"MK","latitude":"42.00973000","longitude":"20.97155000"}]