[{"id":"77316","name":"Abdissenbosch","state_id":2615,"state_code":"LI","country_id":156,"country_code":"NL","latitude":"50.91667000","longitude":"6.03333000"},{"id":"77332","name":"Amby","state_id":2615,"state_code":"LI","country_id":156,"country_code":"NL","latitude":"50.86215000","longitude":"5.73226000"},{"id":"77333","name":"America","state_id":2615,"state_code":"LI","country_id":156,"country_code":"NL","latitude":"51.43667000","longitude":"5.97917000"},{"id":"77339","name":"Amstenrade","state_id":2615,"state_code":"LI","country_id":156,"country_code":"NL","latitude":"50.93917000","longitude":"5.92361000"},{"id":"77353","name":"Arcen","state_id":2615,"state_code":"LI","country_id":156,"country_code":"NL","latitude":"51.47667000","longitude":"6.18056000"},{"id":"77367","name":"Baarlo","state_id":2615,"state_code":"LI","country_id":156,"country_code":"NL","latitude":"51.33083000","longitude":"6.09444000"},{"id":"77378","name":"Banholt","state_id":2615,"state_code":"LI","country_id":156,"country_code":"NL","latitude":"50.79000000","longitude":"5.80833000"},{"id":"77385","name":"Beegden","state_id":2615,"state_code":"LI","country_id":156,"country_code":"NL","latitude":"51.18917000","longitude":"5.91944000"},{"id":"77387","name":"Beek","state_id":2615,"state_code":"LI","country_id":156,"country_code":"NL","latitude":"50.94083000","longitude":"5.79722000"},{"id":"77391","name":"Beersdal","state_id":2615,"state_code":"LI","country_id":156,"country_code":"NL","latitude":"50.90597000","longitude":"5.96440000"},{"id":"77393","name":"Beesel","state_id":2615,"state_code":"LI","country_id":156,"country_code":"NL","latitude":"51.26833000","longitude":"6.03889000"},{"id":"77397","name":"Belfort","state_id":2615,"state_code":"LI","country_id":156,"country_code":"NL","latitude":"50.84698000","longitude":"5.65991000"},{"id":"77404","name":"Berg","state_id":2615,"state_code":"LI","country_id":156,"country_code":"NL","latitude":"50.86167000","longitude":"5.78333000"},{"id":"77413","name":"Beringe","state_id":2615,"state_code":"LI","country_id":156,"country_code":"NL","latitude":"51.33667000","longitude":"5.94861000"},{"id":"77429","name":"Biesland","state_id":2615,"state_code":"LI","country_id":156,"country_code":"NL","latitude":"50.84110000","longitude":"5.67573000"},{"id":"77438","name":"Bleijerheide","state_id":2615,"state_code":"LI","country_id":156,"country_code":"NL","latitude":"50.85538000","longitude":"6.06789000"},{"id":"77442","name":"Blitterswijck","state_id":2615,"state_code":"LI","country_id":156,"country_code":"NL","latitude":"51.53083000","longitude":"6.10833000"},{"id":"77447","name":"Bocholtz","state_id":2615,"state_code":"LI","country_id":156,"country_code":"NL","latitude":"50.81833000","longitude":"6.00556000"},{"id":"77457","name":"Borgharen","state_id":2615,"state_code":"LI","country_id":156,"country_code":"NL","latitude":"50.87750000","longitude":"5.68750000"},{"id":"77458","name":"Born","state_id":2615,"state_code":"LI","country_id":156,"country_code":"NL","latitude":"51.03167000","longitude":"5.80972000"},{"id":"77468","name":"Brabander","state_id":2615,"state_code":"LI","country_id":156,"country_code":"NL","latitude":"51.53583000","longitude":"5.96806000"},{"id":"77469","name":"Brachterbeek","state_id":2615,"state_code":"LI","country_id":156,"country_code":"NL","latitude":"51.14694000","longitude":"5.90446000"},{"id":"77484","name":"Broekhem","state_id":2615,"state_code":"LI","country_id":156,"country_code":"NL","latitude":"50.87119000","longitude":"5.82069000"},{"id":"77486","name":"Broeksittard","state_id":2615,"state_code":"LI","country_id":156,"country_code":"NL","latitude":"51.00290000","longitude":"5.89511000"},{"id":"77491","name":"Brukske","state_id":2615,"state_code":"LI","country_id":156,"country_code":"NL","latitude":"51.52101000","longitude":"5.99270000"},{"id":"77495","name":"Brunssum","state_id":2615,"state_code":"LI","country_id":156,"country_code":"NL","latitude":"50.94667000","longitude":"5.97083000"},{"id":"77496","name":"Buchten","state_id":2615,"state_code":"LI","country_id":156,"country_code":"NL","latitude":"51.04333000","longitude":"5.80972000"},{"id":"77500","name":"Budschop","state_id":2615,"state_code":"LI","country_id":156,"country_code":"NL","latitude":"51.28511000","longitude":"5.75898000"},{"id":"77502","name":"Bunde","state_id":2615,"state_code":"LI","country_id":156,"country_code":"NL","latitude":"50.89667000","longitude":"5.73194000"},{"id":"77516","name":"Chevremont","state_id":2615,"state_code":"LI","country_id":156,"country_code":"NL","latitude":"50.87554000","longitude":"6.05981000"},{"id":"77544","name":"De Heeg","state_id":2615,"state_code":"LI","country_id":156,"country_code":"NL","latitude":"50.82454000","longitude":"5.72309000"},{"id":"77585","name":"Doenrade","state_id":2615,"state_code":"LI","country_id":156,"country_code":"NL","latitude":"50.96750000","longitude":"5.90694000"},{"id":"77636","name":"Egchel","state_id":2615,"state_code":"LI","country_id":156,"country_code":"NL","latitude":"51.31417000","longitude":"5.97222000"},{"id":"77640","name":"Eijsden","state_id":2615,"state_code":"LI","country_id":156,"country_code":"NL","latitude":"50.78000000","longitude":"5.71770000"},{"id":"77641","name":"Eijsden-Margraten","state_id":2615,"state_code":"LI","country_id":156,"country_code":"NL","latitude":"50.80090000","longitude":"5.77408000"},{"id":"77643","name":"Einighausen","state_id":2615,"state_code":"LI","country_id":156,"country_code":"NL","latitude":"51.00167000","longitude":"5.82778000"},{"id":"77649","name":"Elsloo","state_id":2615,"state_code":"LI","country_id":156,"country_code":"NL","latitude":"50.94917000","longitude":"5.77083000"},{"id":"77693","name":"Geleen","state_id":2615,"state_code":"LI","country_id":156,"country_code":"NL","latitude":"50.97417000","longitude":"5.82917000"},{"id":"77720","name":"Gemeente Beek","state_id":2615,"state_code":"LI","country_id":156,"country_code":"NL","latitude":"50.93237000","longitude":"5.80587000"},{"id":"77722","name":"Gemeente Beesel","state_id":2615,"state_code":"LI","country_id":156,"country_code":"NL","latitude":"51.27016000","longitude":"6.06771000"},{"id":"77724","name":"Gemeente Bergen","state_id":2615,"state_code":"LI","country_id":156,"country_code":"NL","latitude":"51.57717000","longitude":"6.09014000"},{"id":"77744","name":"Gemeente Brunssum","state_id":2615,"state_code":"LI","country_id":156,"country_code":"NL","latitude":"50.94451000","longitude":"5.97618000"},{"id":"77776","name":"Gemeente Echt-Susteren","state_id":2615,"state_code":"LI","country_id":156,"country_code":"NL","latitude":"51.10000000","longitude":"5.86667000"},{"id":"77792","name":"Gemeente Gennep","state_id":2615,"state_code":"LI","country_id":156,"country_code":"NL","latitude":"51.70063000","longitude":"5.98447000"},{"id":"77816","name":"Gemeente Heerlen","state_id":2615,"state_code":"LI","country_id":156,"country_code":"NL","latitude":"50.88777000","longitude":"5.97407000"},{"id":"77833","name":"Gemeente Horst aan de Maas","state_id":2615,"state_code":"LI","country_id":156,"country_code":"NL","latitude":"51.45931000","longitude":"6.10254000"},{"id":"77842","name":"Gemeente Kerkrade","state_id":2615,"state_code":"LI","country_id":156,"country_code":"NL","latitude":"50.87337000","longitude":"6.04876000"},{"id":"77856","name":"Gemeente Leudal","state_id":2615,"state_code":"LI","country_id":156,"country_code":"NL","latitude":"51.24371000","longitude":"5.89815000"},{"id":"77866","name":"Gemeente Maasgouw","state_id":2615,"state_code":"LI","country_id":156,"country_code":"NL","latitude":"51.15426000","longitude":"5.87712000"},{"id":"77868","name":"Gemeente Maastricht","state_id":2615,"state_code":"LI","country_id":156,"country_code":"NL","latitude":"50.85000000","longitude":"5.70000000"},{"id":"77870","name":"Gemeente Meerssen","state_id":2615,"state_code":"LI","country_id":156,"country_code":"NL","latitude":"50.89518000","longitude":"5.75711000"},{"id":"77879","name":"Gemeente Mook en Middelaar","state_id":2615,"state_code":"LI","country_id":156,"country_code":"NL","latitude":"51.74777000","longitude":"5.90200000"},{"id":"77881","name":"Gemeente Nederweert","state_id":2615,"state_code":"LI","country_id":156,"country_code":"NL","latitude":"51.28813000","longitude":"5.77157000"},{"id":"77909","name":"Gemeente Peel en Maas","state_id":2615,"state_code":"LI","country_id":156,"country_code":"NL","latitude":"51.32353000","longitude":"5.97261000"},{"id":"77924","name":"Gemeente Roerdalen","state_id":2615,"state_code":"LI","country_id":156,"country_code":"NL","latitude":"51.13492000","longitude":"6.03542000"},{"id":"77925","name":"Gemeente Roermond","state_id":2615,"state_code":"LI","country_id":156,"country_code":"NL","latitude":"51.19999000","longitude":"6.00900000"},{"id":"77933","name":"Gemeente Simpelveld","state_id":2615,"state_code":"LI","country_id":156,"country_code":"NL","latitude":"50.82901000","longitude":"5.98410000"},{"id":"77936","name":"Gemeente Sittard-Geleen","state_id":2615,"state_code":"LI","country_id":156,"country_code":"NL","latitude":"51.01074000","longitude":"5.82288000"},{"id":"77948","name":"Gemeente Stein","state_id":2615,"state_code":"LI","country_id":156,"country_code":"NL","latitude":"50.97358000","longitude":"5.76126000"},{"id":"77966","name":"Gemeente Vaals","state_id":2615,"state_code":"LI","country_id":156,"country_code":"NL","latitude":"50.77848000","longitude":"5.97674000"},{"id":"77973","name":"Gemeente Venlo","state_id":2615,"state_code":"LI","country_id":156,"country_code":"NL","latitude":"51.39277000","longitude":"6.16041000"},{"id":"77974","name":"Gemeente Venray","state_id":2615,"state_code":"LI","country_id":156,"country_code":"NL","latitude":"51.51412000","longitude":"5.95927000"},{"id":"77978","name":"Gemeente Voerendaal","state_id":2615,"state_code":"LI","country_id":156,"country_code":"NL","latitude":"50.87117000","longitude":"5.91495000"},{"id":"77988","name":"Gemeente Weert","state_id":2615,"state_code":"LI","country_id":156,"country_code":"NL","latitude":"51.23418000","longitude":"5.69067000"},{"id":"78024","name":"Gennep","state_id":2615,"state_code":"LI","country_id":156,"country_code":"NL","latitude":"51.69833000","longitude":"5.97361000"},{"id":"78049","name":"Gracht","state_id":2615,"state_code":"LI","country_id":156,"country_code":"NL","latitude":"50.85175000","longitude":"6.02793000"},{"id":"78051","name":"Grashoek","state_id":2615,"state_code":"LI","country_id":156,"country_code":"NL","latitude":"51.36083000","longitude":"5.94306000"},{"id":"78054","name":"Grevenbicht","state_id":2615,"state_code":"LI","country_id":156,"country_code":"NL","latitude":"51.03833000","longitude":"5.77500000"},{"id":"78064","name":"Gronsveld","state_id":2615,"state_code":"LI","country_id":156,"country_code":"NL","latitude":"50.81083000","longitude":"5.73056000"},{"id":"78070","name":"Gulpen","state_id":2615,"state_code":"LI","country_id":156,"country_code":"NL","latitude":"50.81583000","longitude":"5.88889000"},{"id":"78071","name":"Gulpen-Wittem","state_id":2615,"state_code":"LI","country_id":156,"country_code":"NL","latitude":"50.81374000","longitude":"5.89296000"},{"id":"78072","name":"Guttecoven","state_id":2615,"state_code":"LI","country_id":156,"country_code":"NL","latitude":"51.01500000","longitude":"5.81806000"},{"id":"78078","name":"Haanrade","state_id":2615,"state_code":"LI","country_id":156,"country_code":"NL","latitude":"50.87981000","longitude":"6.07411000"},{"id":"78084","name":"Haelen","state_id":2615,"state_code":"LI","country_id":156,"country_code":"NL","latitude":"51.23583000","longitude":"5.95694000"},{"id":"78108","name":"Heel","state_id":2615,"state_code":"LI","country_id":156,"country_code":"NL","latitude":"51.17917000","longitude":"5.89444000"},{"id":"78112","name":"Heer","state_id":2615,"state_code":"LI","country_id":156,"country_code":"NL","latitude":"50.83836000","longitude":"5.72989000"},{"id":"78119","name":"Heerlen","state_id":2615,"state_code":"LI","country_id":156,"country_code":"NL","latitude":"50.88365000","longitude":"5.98154000"},{"id":"78125","name":"Hegelsom","state_id":2615,"state_code":"LI","country_id":156,"country_code":"NL","latitude":"51.43917000","longitude":"6.03889000"},{"id":"78126","name":"Heide","state_id":2615,"state_code":"LI","country_id":156,"country_code":"NL","latitude":"51.06833000","longitude":"5.87222000"},{"id":"78127","name":"Heijen","state_id":2615,"state_code":"LI","country_id":156,"country_code":"NL","latitude":"51.67500000","longitude":"5.98056000"},{"id":"78132","name":"Heksenberg","state_id":2615,"state_code":"LI","country_id":156,"country_code":"NL","latitude":"50.92068000","longitude":"5.97373000"},{"id":"78133","name":"Helden","state_id":2615,"state_code":"LI","country_id":156,"country_code":"NL","latitude":"51.31917000","longitude":"6.00000000"},{"id":"78145","name":"Herkenbosch","state_id":2615,"state_code":"LI","country_id":156,"country_code":"NL","latitude":"51.15333000","longitude":"6.06389000"},{"id":"78147","name":"Herten","state_id":2615,"state_code":"LI","country_id":156,"country_code":"NL","latitude":"51.18083000","longitude":"5.96250000"},{"id":"78152","name":"Heugem","state_id":2615,"state_code":"LI","country_id":156,"country_code":"NL","latitude":"50.82791000","longitude":"5.70774000"},{"id":"78156","name":"Heythuysen","state_id":2615,"state_code":"LI","country_id":156,"country_code":"NL","latitude":"51.25000000","longitude":"5.89861000"},{"id":"78164","name":"Hoensbroek","state_id":2615,"state_code":"LI","country_id":156,"country_code":"NL","latitude":"50.92387000","longitude":"5.92528000"},{"id":"78171","name":"Holtum","state_id":2615,"state_code":"LI","country_id":156,"country_code":"NL","latitude":"51.04750000","longitude":"5.82222000"},{"id":"78173","name":"Holz","state_id":2615,"state_code":"LI","country_id":156,"country_code":"NL","latitude":"50.86415000","longitude":"6.07424000"},{"id":"78187","name":"Hopel","state_id":2615,"state_code":"LI","country_id":156,"country_code":"NL","latitude":"50.89245000","longitude":"6.05046000"},{"id":"78190","name":"Houthem","state_id":2615,"state_code":"LI","country_id":156,"country_code":"NL","latitude":"50.87250000","longitude":"5.79306000"},{"id":"78194","name":"Hulsberg","state_id":2615,"state_code":"LI","country_id":156,"country_code":"NL","latitude":"50.88917000","longitude":"5.85556000"},{"id":"78199","name":"Husken","state_id":2615,"state_code":"LI","country_id":156,"country_code":"NL","latitude":"50.89567000","longitude":"5.95648000"},{"id":"78209","name":"Kaalheide","state_id":2615,"state_code":"LI","country_id":156,"country_code":"NL","latitude":"50.86505000","longitude":"6.03643000"},{"id":"78211","name":"Kakert","state_id":2615,"state_code":"LI","country_id":156,"country_code":"NL","latitude":"50.90414000","longitude":"6.00463000"},{"id":"78220","name":"Keent","state_id":2615,"state_code":"LI","country_id":156,"country_code":"NL","latitude":"51.24218000","longitude":"5.70079000"},{"id":"78222","name":"Kelpen-Oler","state_id":2615,"state_code":"LI","country_id":156,"country_code":"NL","latitude":"51.21817000","longitude":"5.82602000"},{"id":"78224","name":"Kerensheide","state_id":2615,"state_code":"LI","country_id":156,"country_code":"NL","latitude":"50.97210000","longitude":"5.77666000"},{"id":"78228","name":"Kerkrade","state_id":2615,"state_code":"LI","country_id":156,"country_code":"NL","latitude":"50.86583000","longitude":"6.06250000"},{"id":"78230","name":"Kessel","state_id":2615,"state_code":"LI","country_id":156,"country_code":"NL","latitude":"51.29167000","longitude":"6.05417000"},{"id":"78238","name":"Klimmen","state_id":2615,"state_code":"LI","country_id":156,"country_code":"NL","latitude":"50.87583000","longitude":"5.88056000"},{"id":"78245","name":"Koningsbosch","state_id":2615,"state_code":"LI","country_id":156,"country_code":"NL","latitude":"51.05167000","longitude":"5.95833000"},{"id":"78246","name":"Koningslust","state_id":2615,"state_code":"LI","country_id":156,"country_code":"NL","latitude":"51.35750000","longitude":"5.99306000"},{"id":"78259","name":"Kruisberg","state_id":2615,"state_code":"LI","country_id":156,"country_code":"NL","latitude":"50.94234000","longitude":"5.96519000"},{"id":"78262","name":"Kunrade","state_id":2615,"state_code":"LI","country_id":156,"country_code":"NL","latitude":"50.87769000","longitude":"5.93107000"},{"id":"78267","name":"Landgraaf","state_id":2615,"state_code":"LI","country_id":156,"country_code":"NL","latitude":"50.91333000","longitude":"6.05722000"},{"id":"78275","name":"Lauradorp","state_id":2615,"state_code":"LI","country_id":156,"country_code":"NL","latitude":"50.91229000","longitude":"6.04591000"},{"id":"78284","name":"Leeuwen","state_id":2615,"state_code":"LI","country_id":156,"country_code":"NL","latitude":"51.21032000","longitude":"5.99862000"},{"id":"78292","name":"Leuken","state_id":2615,"state_code":"LI","country_id":156,"country_code":"NL","latitude":"51.25288000","longitude":"5.73460000"},{"id":"78293","name":"Leunen","state_id":2615,"state_code":"LI","country_id":156,"country_code":"NL","latitude":"51.51000000","longitude":"5.97917000"},{"id":"78296","name":"Lichtenberg","state_id":2615,"state_code":"LI","country_id":156,"country_code":"NL","latitude":"50.90220000","longitude":"6.02523000"},{"id":"78305","name":"Limbricht","state_id":2615,"state_code":"LI","country_id":156,"country_code":"NL","latitude":"51.01167000","longitude":"5.83750000"},{"id":"78306","name":"Limmel","state_id":2615,"state_code":"LI","country_id":156,"country_code":"NL","latitude":"50.86718000","longitude":"5.70719000"},{"id":"78308","name":"Lindenheuvel","state_id":2615,"state_code":"LI","country_id":156,"country_code":"NL","latitude":"50.98509000","longitude":"5.81667000"},{"id":"78310","name":"Linne","state_id":2615,"state_code":"LI","country_id":156,"country_code":"NL","latitude":"51.15500000","longitude":"5.93889000"},{"id":"78324","name":"Lottum","state_id":2615,"state_code":"LI","country_id":156,"country_code":"NL","latitude":"51.46167000","longitude":"6.16111000"},{"id":"78334","name":"Maasbracht","state_id":2615,"state_code":"LI","country_id":156,"country_code":"NL","latitude":"51.13929000","longitude":"5.88627000"},{"id":"78335","name":"Maasbree","state_id":2615,"state_code":"LI","country_id":156,"country_code":"NL","latitude":"51.35750000","longitude":"6.04861000"},{"id":"78340","name":"Maastricht","state_id":2615,"state_code":"LI","country_id":156,"country_code":"NL","latitude":"50.84833000","longitude":"5.68889000"},{"id":"78344","name":"Malberg","state_id":2615,"state_code":"LI","country_id":156,"country_code":"NL","latitude":"50.86244000","longitude":"5.65419000"},{"id":"78348","name":"Margraten","state_id":2615,"state_code":"LI","country_id":156,"country_code":"NL","latitude":"50.82083000","longitude":"5.82083000"},{"id":"78350","name":"Mariarade","state_id":2615,"state_code":"LI","country_id":156,"country_code":"NL","latitude":"50.92906000","longitude":"5.92738000"},{"id":"78364","name":"Mechelen","state_id":2615,"state_code":"LI","country_id":156,"country_code":"NL","latitude":"50.79583000","longitude":"5.92639000"},{"id":"78368","name":"Meerlo","state_id":2615,"state_code":"LI","country_id":156,"country_code":"NL","latitude":"51.51333000","longitude":"6.08472000"},{"id":"78369","name":"Meerssen","state_id":2615,"state_code":"LI","country_id":156,"country_code":"NL","latitude":"50.88750000","longitude":"5.75000000"},{"id":"78371","name":"Meezenbroek","state_id":2615,"state_code":"LI","country_id":156,"country_code":"NL","latitude":"50.89680000","longitude":"5.99051000"},{"id":"78374","name":"Meijel","state_id":2615,"state_code":"LI","country_id":156,"country_code":"NL","latitude":"51.34417000","longitude":"5.88472000"},{"id":"78376","name":"Melderslo","state_id":2615,"state_code":"LI","country_id":156,"country_code":"NL","latitude":"51.46167000","longitude":"6.08611000"},{"id":"78377","name":"Melick","state_id":2615,"state_code":"LI","country_id":156,"country_code":"NL","latitude":"51.15917000","longitude":"6.01667000"},{"id":"78383","name":"Merkelbeek","state_id":2615,"state_code":"LI","country_id":156,"country_code":"NL","latitude":"50.95389000","longitude":"5.94069000"},{"id":"78384","name":"Merselo","state_id":2615,"state_code":"LI","country_id":156,"country_code":"NL","latitude":"51.53000000","longitude":"5.92778000"},{"id":"78385","name":"Merum","state_id":2615,"state_code":"LI","country_id":156,"country_code":"NL","latitude":"51.17333000","longitude":"5.95972000"},{"id":"78402","name":"Milsbeek","state_id":2615,"state_code":"LI","country_id":156,"country_code":"NL","latitude":"51.72500000","longitude":"5.94861000"},{"id":"78405","name":"Moesel","state_id":2615,"state_code":"LI","country_id":156,"country_code":"NL","latitude":"51.23828000","longitude":"5.71778000"},{"id":"78410","name":"Montfort","state_id":2615,"state_code":"LI","country_id":156,"country_code":"NL","latitude":"51.12583000","longitude":"5.94861000"},{"id":"78411","name":"Mook","state_id":2615,"state_code":"LI","country_id":156,"country_code":"NL","latitude":"51.75250000","longitude":"5.88194000"},{"id":"78414","name":"Munstergeleen","state_id":2615,"state_code":"LI","country_id":156,"country_code":"NL","latitude":"50.97500000","longitude":"5.86389000"},{"id":"78422","name":"Nederweert","state_id":2615,"state_code":"LI","country_id":156,"country_code":"NL","latitude":"51.28583000","longitude":"5.74861000"},{"id":"78425","name":"Neerbeek","state_id":2615,"state_code":"LI","country_id":156,"country_code":"NL","latitude":"50.95000000","longitude":"5.81528000"},{"id":"78435","name":"Nieuw-Lotbroek","state_id":2615,"state_code":"LI","country_id":156,"country_code":"NL","latitude":"50.91283000","longitude":"5.92798000"},{"id":"78438","name":"Nieuwdorp","state_id":2615,"state_code":"LI","country_id":156,"country_code":"NL","latitude":"50.96216000","longitude":"5.77297000"},{"id":"78477","name":"Nuth","state_id":2615,"state_code":"LI","country_id":156,"country_code":"NL","latitude":"50.91750000","longitude":"5.88611000"},{"id":"78478","name":"Obbicht","state_id":2615,"state_code":"LI","country_id":156,"country_code":"NL","latitude":"51.02833000","longitude":"5.78056000"},{"id":"78488","name":"Offenbeek","state_id":2615,"state_code":"LI","country_id":156,"country_code":"NL","latitude":"51.28225000","longitude":"6.09500000"},{"id":"78489","name":"Oirlo","state_id":2615,"state_code":"LI","country_id":156,"country_code":"NL","latitude":"51.51167000","longitude":"6.03750000"},{"id":"78490","name":"Oirsbeek","state_id":2615,"state_code":"LI","country_id":156,"country_code":"NL","latitude":"50.95083000","longitude":"5.90833000"},{"id":"78528","name":"Oostrum","state_id":2615,"state_code":"LI","country_id":156,"country_code":"NL","latitude":"51.52917000","longitude":"6.01667000"},{"id":"78536","name":"Ophoven","state_id":2615,"state_code":"LI","country_id":156,"country_code":"NL","latitude":"50.99036000","longitude":"5.85868000"},{"id":"78545","name":"Ospel","state_id":2615,"state_code":"LI","country_id":156,"country_code":"NL","latitude":"51.29750000","longitude":"5.78472000"},{"id":"78550","name":"Ottersum","state_id":2615,"state_code":"LI","country_id":156,"country_code":"NL","latitude":"51.70333000","longitude":"5.98333000"},{"id":"78553","name":"Oud-Caberg","state_id":2615,"state_code":"LI","country_id":156,"country_code":"NL","latitude":"50.86539000","longitude":"5.66444000"},{"id":"78571","name":"Overhoven","state_id":2615,"state_code":"LI","country_id":156,"country_code":"NL","latitude":"51.00869000","longitude":"5.86628000"},{"id":"78577","name":"Panningen","state_id":2615,"state_code":"LI","country_id":156,"country_code":"NL","latitude":"51.32667000","longitude":"5.97917000"},{"id":"78580","name":"Passart","state_id":2615,"state_code":"LI","country_id":156,"country_code":"NL","latitude":"50.92389000","longitude":"5.94674000"},{"id":"78584","name":"Peij","state_id":2615,"state_code":"LI","country_id":156,"country_code":"NL","latitude":"51.09417000","longitude":"5.89583000"},{"id":"78594","name":"Posterholt","state_id":2615,"state_code":"LI","country_id":156,"country_code":"NL","latitude":"51.12333000","longitude":"6.03472000"},{"id":"78595","name":"Pottenberg","state_id":2615,"state_code":"LI","country_id":156,"country_code":"NL","latitude":"50.85135000","longitude":"5.65668000"},{"id":"78600","name":"Puth","state_id":2615,"state_code":"LI","country_id":156,"country_code":"NL","latitude":"50.95417000","longitude":"5.87361000"},{"id":"78617","name":"Reuver","state_id":2615,"state_code":"LI","country_id":156,"country_code":"NL","latitude":"51.28417000","longitude":"6.07778000"},{"id":"78635","name":"Roermond","state_id":2615,"state_code":"LI","country_id":156,"country_code":"NL","latitude":"51.19417000","longitude":"5.98750000"},{"id":"78638","name":"Roosteren","state_id":2615,"state_code":"LI","country_id":156,"country_code":"NL","latitude":"51.08333000","longitude":"5.81806000"},{"id":"78641","name":"Rothem","state_id":2615,"state_code":"LI","country_id":156,"country_code":"NL","latitude":"50.87667000","longitude":"5.73889000"},{"id":"78660","name":"Scharn","state_id":2615,"state_code":"LI","country_id":156,"country_code":"NL","latitude":"50.85000000","longitude":"5.73333000"},{"id":"78672","name":"Schilberg","state_id":2615,"state_code":"LI","country_id":156,"country_code":"NL","latitude":"51.09917000","longitude":"5.88611000"},{"id":"78674","name":"Schimmert","state_id":2615,"state_code":"LI","country_id":156,"country_code":"NL","latitude":"50.90667000","longitude":"5.82361000"},{"id":"78675","name":"Schinnen","state_id":2615,"state_code":"LI","country_id":156,"country_code":"NL","latitude":"50.94333000","longitude":"5.88889000"},{"id":"78676","name":"Schinveld","state_id":2615,"state_code":"LI","country_id":156,"country_code":"NL","latitude":"50.96917000","longitude":"5.97917000"},{"id":"78688","name":"Sevenum","state_id":2615,"state_code":"LI","country_id":156,"country_code":"NL","latitude":"51.41250000","longitude":"6.03750000"},{"id":"78690","name":"Sibbe","state_id":2615,"state_code":"LI","country_id":156,"country_code":"NL","latitude":"50.84417000","longitude":"5.82639000"},{"id":"78693","name":"Simpelveld","state_id":2615,"state_code":"LI","country_id":156,"country_code":"NL","latitude":"50.83417000","longitude":"5.98194000"},{"id":"78698","name":"Sint Joost","state_id":2615,"state_code":"LI","country_id":156,"country_code":"NL","latitude":"51.11750000","longitude":"5.89861000"},{"id":"78701","name":"Sint Odili\u00ebnberg","state_id":2615,"state_code":"LI","country_id":156,"country_code":"NL","latitude":"51.14333000","longitude":"6.00000000"},{"id":"78708","name":"Sittard","state_id":2615,"state_code":"LI","country_id":156,"country_code":"NL","latitude":"50.99833000","longitude":"5.86944000"},{"id":"78727","name":"Spaubeek","state_id":2615,"state_code":"LI","country_id":156,"country_code":"NL","latitude":"50.94000000","longitude":"5.84306000"},{"id":"78730","name":"Spekholzerheide","state_id":2615,"state_code":"LI","country_id":156,"country_code":"NL","latitude":"50.85559000","longitude":"6.02471000"},{"id":"78740","name":"Stadbroek","state_id":2615,"state_code":"LI","country_id":156,"country_code":"NL","latitude":"51.00187000","longitude":"5.87656000"},{"id":"78754","name":"Stein","state_id":2615,"state_code":"LI","country_id":156,"country_code":"NL","latitude":"50.96917000","longitude":"5.76667000"},{"id":"78762","name":"Stramproy","state_id":2615,"state_code":"LI","country_id":156,"country_code":"NL","latitude":"51.19417000","longitude":"5.71944000"},{"id":"78767","name":"Tegelen","state_id":2615,"state_code":"LI","country_id":156,"country_code":"NL","latitude":"51.34417000","longitude":"6.13611000"},{"id":"78776","name":"Terwinselen","state_id":2615,"state_code":"LI","country_id":156,"country_code":"NL","latitude":"50.86659000","longitude":"6.02471000"},{"id":"78782","name":"Thorn","state_id":2615,"state_code":"LI","country_id":156,"country_code":"NL","latitude":"51.16167000","longitude":"5.84167000"},{"id":"78784","name":"Tienray","state_id":2615,"state_code":"LI","country_id":156,"country_code":"NL","latitude":"51.49500000","longitude":"6.09306000"},{"id":"78805","name":"Ubachsberg","state_id":2615,"state_code":"LI","country_id":156,"country_code":"NL","latitude":"50.85333000","longitude":"5.94861000"},{"id":"78815","name":"Ulestraten","state_id":2615,"state_code":"LI","country_id":156,"country_code":"NL","latitude":"50.90583000","longitude":"5.78194000"},{"id":"78820","name":"Urmond","state_id":2615,"state_code":"LI","country_id":156,"country_code":"NL","latitude":"50.99083000","longitude":"5.77222000"},{"id":"78823","name":"Vaals","state_id":2615,"state_code":"LI","country_id":156,"country_code":"NL","latitude":"50.77083000","longitude":"6.01806000"},{"id":"78829","name":"Valkenburg","state_id":2615,"state_code":"LI","country_id":156,"country_code":"NL","latitude":"50.86523000","longitude":"5.83205000"},{"id":"78830","name":"Valkenburg aan de Geul","state_id":2615,"state_code":"LI","country_id":156,"country_code":"NL","latitude":"50.85711000","longitude":"5.83489000"},{"id":"78844","name":"Veltum","state_id":2615,"state_code":"LI","country_id":156,"country_code":"NL","latitude":"51.51954000","longitude":"5.96032000"},{"id":"78847","name":"Venlo","state_id":2615,"state_code":"LI","country_id":156,"country_code":"NL","latitude":"51.37000000","longitude":"6.16806000"},{"id":"78848","name":"Venray","state_id":2615,"state_code":"LI","country_id":156,"country_code":"NL","latitude":"51.52500000","longitude":"5.97500000"},{"id":"78852","name":"Vijlen","state_id":2615,"state_code":"LI","country_id":156,"country_code":"NL","latitude":"50.78833000","longitude":"5.96528000"},{"id":"78863","name":"Vlodrop","state_id":2615,"state_code":"LI","country_id":156,"country_code":"NL","latitude":"51.13333000","longitude":"6.07639000"},{"id":"78865","name":"Voerendaal","state_id":2615,"state_code":"LI","country_id":156,"country_code":"NL","latitude":"50.88327000","longitude":"5.92978000"},{"id":"78884","name":"Vrieheide","state_id":2615,"state_code":"LI","country_id":156,"country_code":"NL","latitude":"50.92192000","longitude":"5.96701000"},{"id":"78902","name":"Wanssum","state_id":2615,"state_code":"LI","country_id":156,"country_code":"NL","latitude":"51.53583000","longitude":"6.07639000"},{"id":"78912","name":"Waubach","state_id":2615,"state_code":"LI","country_id":156,"country_code":"NL","latitude":"50.91833000","longitude":"6.05000000"},{"id":"78914","name":"Weert","state_id":2615,"state_code":"LI","country_id":156,"country_code":"NL","latitude":"51.25167000","longitude":"5.70694000"},{"id":"78921","name":"Well","state_id":2615,"state_code":"LI","country_id":156,"country_code":"NL","latitude":"51.55000000","longitude":"6.08889000"},{"id":"78922","name":"Wellerlooi","state_id":2615,"state_code":"LI","country_id":156,"country_code":"NL","latitude":"51.53417000","longitude":"6.13611000"},{"id":"78927","name":"Wessem","state_id":2615,"state_code":"LI","country_id":156,"country_code":"NL","latitude":"51.15954000","longitude":"5.88146000"},{"id":"78955","name":"Wijlre","state_id":2615,"state_code":"LI","country_id":156,"country_code":"NL","latitude":"50.83333000","longitude":"5.89583000"},{"id":"78956","name":"Wijnandsrade","state_id":2615,"state_code":"LI","country_id":156,"country_code":"NL","latitude":"50.90583000","longitude":"5.88333000"},{"id":"78974","name":"Wolder","state_id":2615,"state_code":"LI","country_id":156,"country_code":"NL","latitude":"50.83752000","longitude":"5.65938000"},{"id":"78991","name":"Ysselsteyn","state_id":2615,"state_code":"LI","country_id":156,"country_code":"NL","latitude":"51.49000000","longitude":"5.89722000"}]