[{"id":"77297","name":"'s Gravenmoer","state_id":2623,"state_code":"NB","country_id":156,"country_code":"NL","latitude":"51.65594000","longitude":"4.94076000"},{"id":"77301","name":"'s-Hertogenbosch","state_id":2623,"state_code":"NB","country_id":156,"country_code":"NL","latitude":"51.69917000","longitude":"5.30417000"},{"id":"77302","name":"'t Hofke","state_id":2623,"state_code":"NB","country_id":156,"country_code":"NL","latitude":"51.44943000","longitude":"5.51926000"},{"id":"77305","name":"Aalburg","state_id":2623,"state_code":"NB","country_id":156,"country_code":"NL","latitude":"51.75482000","longitude":"5.13156000"},{"id":"77308","name":"Aalst","state_id":2623,"state_code":"NB","country_id":156,"country_code":"NL","latitude":"51.39667000","longitude":"5.47778000"},{"id":"77312","name":"Aarle-Rixtel","state_id":2623,"state_code":"NB","country_id":156,"country_code":"NL","latitude":"51.50976000","longitude":"5.63839000"},{"id":"77315","name":"Abcoven","state_id":2623,"state_code":"NB","country_id":156,"country_code":"NL","latitude":"51.52750000","longitude":"5.08333000"},{"id":"77320","name":"Akert","state_id":2623,"state_code":"NB","country_id":156,"country_code":"NL","latitude":"51.41407000","longitude":"5.55960000"},{"id":"77328","name":"Almkerk","state_id":2623,"state_code":"NB","country_id":156,"country_code":"NL","latitude":"51.77083000","longitude":"4.95972000"},{"id":"77329","name":"Alphen","state_id":2623,"state_code":"NB","country_id":156,"country_code":"NL","latitude":"51.48167000","longitude":"4.95833000"},{"id":"77342","name":"Andel","state_id":2623,"state_code":"NB","country_id":156,"country_code":"NL","latitude":"51.78333000","longitude":"5.05833000"},{"id":"77358","name":"Asten","state_id":2623,"state_code":"NB","country_id":156,"country_code":"NL","latitude":"51.40417000","longitude":"5.74861000"},{"id":"77365","name":"Baardwijk","state_id":2623,"state_code":"NB","country_id":156,"country_code":"NL","latitude":"51.69246000","longitude":"5.09628000"},{"id":"77366","name":"Baarle-Nassau","state_id":2623,"state_code":"NB","country_id":156,"country_code":"NL","latitude":"51.44750000","longitude":"4.92917000"},{"id":"77371","name":"Bakel","state_id":2623,"state_code":"NB","country_id":156,"country_code":"NL","latitude":"51.50333000","longitude":"5.74028000"},{"id":"77383","name":"Bavel","state_id":2623,"state_code":"NB","country_id":156,"country_code":"NL","latitude":"51.56583000","longitude":"4.83056000"},{"id":"77386","name":"Beek","state_id":2623,"state_code":"NB","country_id":156,"country_code":"NL","latitude":"51.52890000","longitude":"5.63382000"},{"id":"77390","name":"Beers","state_id":2623,"state_code":"NB","country_id":156,"country_code":"NL","latitude":"51.72583000","longitude":"5.82778000"},{"id":"77396","name":"Belcrum","state_id":2623,"state_code":"NB","country_id":156,"country_code":"NL","latitude":"51.59911000","longitude":"4.76994000"},{"id":"77407","name":"Bergeijk","state_id":2623,"state_code":"NB","country_id":156,"country_code":"NL","latitude":"51.30182000","longitude":"5.33946000"},{"id":"77408","name":"Bergen op Zoom","state_id":2623,"state_code":"NB","country_id":156,"country_code":"NL","latitude":"51.49500000","longitude":"4.29167000"},{"id":"77410","name":"Berghem","state_id":2623,"state_code":"NB","country_id":156,"country_code":"NL","latitude":"51.76991000","longitude":"5.56827000"},{"id":"77419","name":"Berlicum","state_id":2623,"state_code":"NB","country_id":156,"country_code":"NL","latitude":"51.67750000","longitude":"5.40000000"},{"id":"77421","name":"Besoijen","state_id":2623,"state_code":"NB","country_id":156,"country_code":"NL","latitude":"51.68333000","longitude":"5.05000000"},{"id":"77422","name":"Best","state_id":2623,"state_code":"NB","country_id":156,"country_code":"NL","latitude":"51.50750000","longitude":"5.39028000"},{"id":"77423","name":"Besterd","state_id":2623,"state_code":"NB","country_id":156,"country_code":"NL","latitude":"51.56380000","longitude":"5.08658000"},{"id":"77428","name":"Biesdonk","state_id":2623,"state_code":"NB","country_id":156,"country_code":"NL","latitude":"51.60613000","longitude":"4.78515000"},{"id":"77434","name":"Bitswijk","state_id":2623,"state_code":"NB","country_id":156,"country_code":"NL","latitude":"51.66870000","longitude":"5.60921000"},{"id":"77435","name":"Blaarthem","state_id":2623,"state_code":"NB","country_id":156,"country_code":"NL","latitude":"51.42501000","longitude":"5.45784000"},{"id":"77436","name":"Bladel","state_id":2623,"state_code":"NB","country_id":156,"country_code":"NL","latitude":"51.36833000","longitude":"5.22083000"},{"id":"77450","name":"Boekel","state_id":2623,"state_code":"NB","country_id":156,"country_code":"NL","latitude":"51.60333000","longitude":"5.67500000"},{"id":"77464","name":"Bosschenhoofd","state_id":2623,"state_code":"NB","country_id":156,"country_code":"NL","latitude":"51.56083000","longitude":"4.54028000"},{"id":"77466","name":"Boxmeer","state_id":2623,"state_code":"NB","country_id":156,"country_code":"NL","latitude":"51.64667000","longitude":"5.94722000"},{"id":"77467","name":"Boxtel","state_id":2623,"state_code":"NB","country_id":156,"country_code":"NL","latitude":"51.59083000","longitude":"5.32917000"},{"id":"77472","name":"Brand","state_id":2623,"state_code":"NB","country_id":156,"country_code":"NL","latitude":"51.45839000","longitude":"5.62427000"},{"id":"77473","name":"Breda","state_id":2623,"state_code":"NB","country_id":156,"country_code":"NL","latitude":"51.58656000","longitude":"4.77596000"},{"id":"77478","name":"Breugel","state_id":2623,"state_code":"NB","country_id":156,"country_code":"NL","latitude":"51.51750000","longitude":"5.51111000"},{"id":"77485","name":"Broekhoven","state_id":2623,"state_code":"NB","country_id":156,"country_code":"NL","latitude":"51.54801000","longitude":"5.09175000"},{"id":"77497","name":"Budel","state_id":2623,"state_code":"NB","country_id":156,"country_code":"NL","latitude":"51.27167000","longitude":"5.57500000"},{"id":"77498","name":"Budel-Dorplein","state_id":2623,"state_code":"NB","country_id":156,"country_code":"NL","latitude":"51.23667000","longitude":"5.58750000"},{"id":"77499","name":"Budel-Schoot","state_id":2623,"state_code":"NB","country_id":156,"country_code":"NL","latitude":"51.24750000","longitude":"5.56528000"},{"id":"77515","name":"Chaam","state_id":2623,"state_code":"NB","country_id":156,"country_code":"NL","latitude":"51.50583000","longitude":"4.86111000"},{"id":"77518","name":"Coevering","state_id":2623,"state_code":"NB","country_id":156,"country_code":"NL","latitude":"51.41742000","longitude":"5.57463000"},{"id":"77525","name":"Cranendonck","state_id":2623,"state_code":"NB","country_id":156,"country_code":"NL","latitude":"51.30417000","longitude":"5.58889000"},{"id":"77526","name":"Cuijk","state_id":2623,"state_code":"NB","country_id":156,"country_code":"NL","latitude":"51.73083000","longitude":"5.87917000"},{"id":"77533","name":"De Blaak","state_id":2623,"state_code":"NB","country_id":156,"country_code":"NL","latitude":"51.54626000","longitude":"5.04465000"},{"id":"77536","name":"De Doornakkers","state_id":2623,"state_code":"NB","country_id":156,"country_code":"NL","latitude":"51.43844000","longitude":"5.50887000"},{"id":"77550","name":"De Kruiskamp","state_id":2623,"state_code":"NB","country_id":156,"country_code":"NL","latitude":"51.69978000","longitude":"5.26032000"},{"id":"77557","name":"De Reit","state_id":2623,"state_code":"NB","country_id":156,"country_code":"NL","latitude":"51.56038000","longitude":"5.04932000"},{"id":"77559","name":"De Rompert","state_id":2623,"state_code":"NB","country_id":156,"country_code":"NL","latitude":"51.71667000","longitude":"5.31667000"},{"id":"77571","name":"Den Dungen","state_id":2623,"state_code":"NB","country_id":156,"country_code":"NL","latitude":"51.66500000","longitude":"5.37222000"},{"id":"77575","name":"Deuteren","state_id":2623,"state_code":"NB","country_id":156,"country_code":"NL","latitude":"51.68667000","longitude":"5.26667000"},{"id":"77580","name":"Diessen","state_id":2623,"state_code":"NB","country_id":156,"country_code":"NL","latitude":"51.47583000","longitude":"5.17500000"},{"id":"77582","name":"Dinteloord","state_id":2623,"state_code":"NB","country_id":156,"country_code":"NL","latitude":"51.63500000","longitude":"4.36944000"},{"id":"77590","name":"Dommelen","state_id":2623,"state_code":"NB","country_id":156,"country_code":"NL","latitude":"51.34624000","longitude":"5.43394000"},{"id":"77591","name":"Dongen","state_id":2623,"state_code":"NB","country_id":156,"country_code":"NL","latitude":"51.62667000","longitude":"4.93889000"},{"id":"77592","name":"Donk","state_id":2623,"state_code":"NB","country_id":156,"country_code":"NL","latitude":"51.53843000","longitude":"5.62914000"},{"id":"77594","name":"Doonheide","state_id":2623,"state_code":"NB","country_id":156,"country_code":"NL","latitude":"51.56667000","longitude":"5.69444000"},{"id":"77601","name":"Dorst","state_id":2623,"state_code":"NB","country_id":156,"country_code":"NL","latitude":"51.59000000","longitude":"4.85694000"},{"id":"77619","name":"Duizel","state_id":2623,"state_code":"NB","country_id":156,"country_code":"NL","latitude":"51.36833000","longitude":"5.29722000"},{"id":"77623","name":"Eckart","state_id":2623,"state_code":"NB","country_id":156,"country_code":"NL","latitude":"51.47320000","longitude":"5.49449000"},{"id":"77631","name":"Eerde","state_id":2623,"state_code":"NB","country_id":156,"country_code":"NL","latitude":"51.60417000","longitude":"5.49861000"},{"id":"77632","name":"Eerschot","state_id":2623,"state_code":"NB","country_id":156,"country_code":"NL","latitude":"51.56833000","longitude":"5.47361000"},{"id":"77633","name":"Eersel","state_id":2623,"state_code":"NB","country_id":156,"country_code":"NL","latitude":"51.35750000","longitude":"5.31806000"},{"id":"77642","name":"Eindhoven","state_id":2623,"state_code":"NB","country_id":156,"country_code":"NL","latitude":"51.44083000","longitude":"5.47778000"},{"id":"77644","name":"Ekenrooi","state_id":2623,"state_code":"NB","country_id":156,"country_code":"NL","latitude":"51.39656000","longitude":"5.48624000"},{"id":"77648","name":"Elshout","state_id":2623,"state_code":"NB","country_id":156,"country_code":"NL","latitude":"51.70083000","longitude":"5.14167000"},{"id":"77663","name":"Enschot","state_id":2623,"state_code":"NB","country_id":156,"country_code":"NL","latitude":"51.57846000","longitude":"5.13885000"},{"id":"77667","name":"Erp","state_id":2623,"state_code":"NB","country_id":156,"country_code":"NL","latitude":"51.60000000","longitude":"5.60694000"},{"id":"77668","name":"Esch","state_id":2623,"state_code":"NB","country_id":156,"country_code":"NL","latitude":"51.61083000","longitude":"5.29028000"},{"id":"77676","name":"Fijnaart","state_id":2623,"state_code":"NB","country_id":156,"country_code":"NL","latitude":"51.63750000","longitude":"4.46944000"},{"id":"77680","name":"Gageldonk","state_id":2623,"state_code":"NB","country_id":156,"country_code":"NL","latitude":"51.60167000","longitude":"4.73889000"},{"id":"77686","name":"Geenhoven","state_id":2623,"state_code":"NB","country_id":156,"country_code":"NL","latitude":"51.35935000","longitude":"5.46021000"},{"id":"77687","name":"Geertruidenberg","state_id":2623,"state_code":"NB","country_id":156,"country_code":"NL","latitude":"51.70167000","longitude":"4.85694000"},{"id":"77688","name":"Geffen","state_id":2623,"state_code":"NB","country_id":156,"country_code":"NL","latitude":"51.74000000","longitude":"5.46389000"},{"id":"77692","name":"Geldrop","state_id":2623,"state_code":"NB","country_id":156,"country_code":"NL","latitude":"51.42167000","longitude":"5.55972000"},{"id":"77695","name":"Gemeente 's-Hertogenbosch","state_id":2623,"state_code":"NB","country_id":156,"country_code":"NL","latitude":"51.68267000","longitude":"5.30056000"},{"id":"77706","name":"Gemeente Alphen-Chaam","state_id":2623,"state_code":"NB","country_id":156,"country_code":"NL","latitude":"51.50341000","longitude":"4.88013000"},{"id":"77715","name":"Gemeente Asten","state_id":2623,"state_code":"NB","country_id":156,"country_code":"NL","latitude":"51.39231000","longitude":"5.77910000"},{"id":"77716","name":"Gemeente Baarle-Nassau","state_id":2623,"state_code":"NB","country_id":156,"country_code":"NL","latitude":"51.43544000","longitude":"4.91180000"},{"id":"77726","name":"Gemeente Bergen op Zoom","state_id":2623,"state_code":"NB","country_id":156,"country_code":"NL","latitude":"51.50451000","longitude":"4.29108000"},{"id":"77727","name":"Gemeente Bernheze","state_id":2623,"state_code":"NB","country_id":156,"country_code":"NL","latitude":"51.68556000","longitude":"5.52378000"},{"id":"77728","name":"Gemeente Best","state_id":2623,"state_code":"NB","country_id":156,"country_code":"NL","latitude":"51.50000000","longitude":"5.38333000"},{"id":"77731","name":"Gemeente Bladel","state_id":2623,"state_code":"NB","country_id":156,"country_code":"NL","latitude":"51.35000000","longitude":"5.21667000"},{"id":"77734","name":"Gemeente Boekel","state_id":2623,"state_code":"NB","country_id":156,"country_code":"NL","latitude":"51.60489000","longitude":"5.69357000"},{"id":"77738","name":"Gemeente Boxmeer","state_id":2623,"state_code":"NB","country_id":156,"country_code":"NL","latitude":"51.63333000","longitude":"5.95000000"},{"id":"77739","name":"Gemeente Boxtel","state_id":2623,"state_code":"NB","country_id":156,"country_code":"NL","latitude":"51.58472000","longitude":"5.32654000"},{"id":"77740","name":"Gemeente Breda","state_id":2623,"state_code":"NB","country_id":156,"country_code":"NL","latitude":"51.57790000","longitude":"4.76039000"},{"id":"77751","name":"Gemeente Cranendonck","state_id":2623,"state_code":"NB","country_id":156,"country_code":"NL","latitude":"51.27746000","longitude":"5.58373000"},{"id":"77752","name":"Gemeente Cuijk","state_id":2623,"state_code":"NB","country_id":156,"country_code":"NL","latitude":"51.71739000","longitude":"5.85773000"},{"id":"77763","name":"Gemeente Deurne","state_id":2623,"state_code":"NB","country_id":156,"country_code":"NL","latitude":"51.43701000","longitude":"5.82245000"},{"id":"77769","name":"Gemeente Dongen","state_id":2623,"state_code":"NB","country_id":156,"country_code":"NL","latitude":"51.63754000","longitude":"4.95361000"},{"id":"77772","name":"Gemeente Drimmelen","state_id":2623,"state_code":"NB","country_id":156,"country_code":"NL","latitude":"51.66667000","longitude":"4.78333000"},{"id":"77780","name":"Gemeente Eersel","state_id":2623,"state_code":"NB","country_id":156,"country_code":"NL","latitude":"51.39579000","longitude":"5.31956000"},{"id":"77781","name":"Gemeente Eindhoven","state_id":2623,"state_code":"NB","country_id":156,"country_code":"NL","latitude":"51.45037000","longitude":"5.45279000"},{"id":"77788","name":"Gemeente Etten-Leur","state_id":2623,"state_code":"NB","country_id":156,"country_code":"NL","latitude":"51.57711000","longitude":"4.64253000"},{"id":"77789","name":"Gemeente Geertruidenberg","state_id":2623,"state_code":"NB","country_id":156,"country_code":"NL","latitude":"51.69634000","longitude":"4.87836000"},{"id":"77790","name":"Gemeente Geldrop-Mierlo","state_id":2623,"state_code":"NB","country_id":156,"country_code":"NL","latitude":"51.43372000","longitude":"5.59926000"},{"id":"77791","name":"Gemeente Gemert-Bakel","state_id":2623,"state_code":"NB","country_id":156,"country_code":"NL","latitude":"51.52554000","longitude":"5.72802000"},{"id":"77793","name":"Gemeente Gilze en Rijen","state_id":2623,"state_code":"NB","country_id":156,"country_code":"NL","latitude":"51.55656000","longitude":"4.91253000"},{"id":"77796","name":"Gemeente Goirle","state_id":2623,"state_code":"NB","country_id":156,"country_code":"NL","latitude":"51.50875000","longitude":"5.03381000"},{"id":"77799","name":"Gemeente Grave","state_id":2623,"state_code":"NB","country_id":156,"country_code":"NL","latitude":"51.73970000","longitude":"5.74366000"},{"id":"77802","name":"Gemeente Haaren","state_id":2623,"state_code":"NB","country_id":156,"country_code":"NL","latitude":"51.61831000","longitude":"5.22779000"},{"id":"77805","name":"Gemeente Halderberge","state_id":2623,"state_code":"NB","country_id":156,"country_code":"NL","latitude":"51.58925000","longitude":"4.50597000"},{"id":"77817","name":"Gemeente Heeze-Leende","state_id":2623,"state_code":"NB","country_id":156,"country_code":"NL","latitude":"51.36404000","longitude":"5.55870000"},{"id":"77821","name":"Gemeente Helmond","state_id":2623,"state_code":"NB","country_id":156,"country_code":"NL","latitude":"51.47968000","longitude":"5.65559000"},{"id":"77825","name":"Gemeente Heusden","state_id":2623,"state_code":"NB","country_id":156,"country_code":"NL","latitude":"51.69975000","longitude":"5.16598000"},{"id":"77827","name":"Gemeente Hilvarenbeek","state_id":2623,"state_code":"NB","country_id":156,"country_code":"NL","latitude":"51.47772000","longitude":"5.14778000"},{"id":"77845","name":"Gemeente Laarbeek","state_id":2623,"state_code":"NB","country_id":156,"country_code":"NL","latitude":"51.52643000","longitude":"5.61283000"},{"id":"77846","name":"Gemeente Landerd","state_id":2623,"state_code":"NB","country_id":156,"country_code":"NL","latitude":"51.71151000","longitude":"5.66580000"},{"id":"77861","name":"Gemeente Loon op Zand","state_id":2623,"state_code":"NB","country_id":156,"country_code":"NL","latitude":"51.63782000","longitude":"5.04860000"},{"id":"77875","name":"Gemeente Mill en Sint Hubert","state_id":2623,"state_code":"NB","country_id":156,"country_code":"NL","latitude":"51.68712000","longitude":"5.77077000"},{"id":"77876","name":"Gemeente Moerdijk","state_id":2623,"state_code":"NB","country_id":156,"country_code":"NL","latitude":"51.63933000","longitude":"4.56379000"},{"id":"77890","name":"Gemeente Nuenen, Gerwen en Nederwetten","state_id":2623,"state_code":"NB","country_id":156,"country_code":"NL","latitude":"51.46667000","longitude":"5.53333000"},{"id":"77893","name":"Gemeente Oirschot","state_id":2623,"state_code":"NB","country_id":156,"country_code":"NL","latitude":"51.49062000","longitude":"5.28959000"},{"id":"77894","name":"Gemeente Oisterwijk","state_id":2623,"state_code":"NB","country_id":156,"country_code":"NL","latitude":"51.55289000","longitude":"5.20188000"},{"id":"77899","name":"Gemeente Oosterhout","state_id":2623,"state_code":"NB","country_id":156,"country_code":"NL","latitude":"51.63435000","longitude":"4.86399000"},{"id":"77904","name":"Gemeente Oss","state_id":2623,"state_code":"NB","country_id":156,"country_code":"NL","latitude":"51.78103000","longitude":"5.58111000"},{"id":"77918","name":"Gemeente Reusel-De Mierden","state_id":2623,"state_code":"NB","country_id":156,"country_code":"NL","latitude":"51.38047000","longitude":"5.15790000"},{"id":"77928","name":"Gemeente Rucphen","state_id":2623,"state_code":"NB","country_id":156,"country_code":"NL","latitude":"51.52357000","longitude":"4.56586000"},{"id":"77934","name":"Gemeente Sint Anthonis","state_id":2623,"state_code":"NB","country_id":156,"country_code":"NL","latitude":"51.61826000","longitude":"5.84354000"},{"id":"77935","name":"Gemeente Sint-Michielsgestel","state_id":2623,"state_code":"NB","country_id":156,"country_code":"NL","latitude":"51.66076000","longitude":"5.37851000"},{"id":"77941","name":"Gemeente Someren","state_id":2623,"state_code":"NB","country_id":156,"country_code":"NL","latitude":"51.38233000","longitude":"5.71049000"},{"id":"77942","name":"Gemeente Son en Breugel","state_id":2623,"state_code":"NB","country_id":156,"country_code":"NL","latitude":"51.50970000","longitude":"5.49934000"},{"id":"77946","name":"Gemeente Steenbergen","state_id":2623,"state_code":"NB","country_id":156,"country_code":"NL","latitude":"51.60081000","longitude":"4.32077000"},{"id":"77955","name":"Gemeente Tilburg","state_id":2623,"state_code":"NB","country_id":156,"country_code":"NL","latitude":"51.57787000","longitude":"5.06555000"},{"id":"77960","name":"Gemeente Uden","state_id":2623,"state_code":"NB","country_id":156,"country_code":"NL","latitude":"51.65682000","longitude":"5.61258000"},{"id":"77967","name":"Gemeente Valkenswaard","state_id":2623,"state_code":"NB","country_id":156,"country_code":"NL","latitude":"51.32575000","longitude":"5.45323000"},{"id":"77971","name":"Gemeente Veldhoven","state_id":2623,"state_code":"NB","country_id":156,"country_code":"NL","latitude":"51.41253000","longitude":"5.38052000"},{"id":"77981","name":"Gemeente Vught","state_id":2623,"state_code":"NB","country_id":156,"country_code":"NL","latitude":"51.65822000","longitude":"5.26746000"},{"id":"77982","name":"Gemeente Waalre","state_id":2623,"state_code":"NB","country_id":156,"country_code":"NL","latitude":"51.38757000","longitude":"5.46380000"},{"id":"77983","name":"Gemeente Waalwijk","state_id":2623,"state_code":"NB","country_id":156,"country_code":"NL","latitude":"51.68970000","longitude":"5.01721000"},{"id":"78001","name":"Gemeente Woensdrecht","state_id":2623,"state_code":"NB","country_id":156,"country_code":"NL","latitude":"51.40948000","longitude":"4.33512000"},{"id":"78014","name":"Gemeente Zundert","state_id":2623,"state_code":"NB","country_id":156,"country_code":"NL","latitude":"51.47352000","longitude":"4.64180000"},{"id":"78019","name":"Gemert","state_id":2623,"state_code":"NB","country_id":156,"country_code":"NL","latitude":"51.55583000","longitude":"5.69028000"},{"id":"78020","name":"Gemonde","state_id":2623,"state_code":"NB","country_id":156,"country_code":"NL","latitude":"51.61833000","longitude":"5.35694000"},{"id":"78021","name":"Genderen","state_id":2623,"state_code":"NB","country_id":156,"country_code":"NL","latitude":"51.73583000","longitude":"5.08750000"},{"id":"78025","name":"Genoenhuis","state_id":2623,"state_code":"NB","country_id":156,"country_code":"NL","latitude":"51.40917000","longitude":"5.53889000"},{"id":"78026","name":"Gerwen","state_id":2623,"state_code":"NB","country_id":156,"country_code":"NL","latitude":"51.49000000","longitude":"5.56250000"},{"id":"78028","name":"Giessen","state_id":2623,"state_code":"NB","country_id":156,"country_code":"NL","latitude":"51.79000000","longitude":"5.03056000"},{"id":"78033","name":"Gilze","state_id":2623,"state_code":"NB","country_id":156,"country_code":"NL","latitude":"51.54417000","longitude":"4.94028000"},{"id":"78034","name":"Ginneken","state_id":2623,"state_code":"NB","country_id":156,"country_code":"NL","latitude":"51.56593000","longitude":"4.79310000"},{"id":"78038","name":"Goirle","state_id":2623,"state_code":"NB","country_id":156,"country_code":"NL","latitude":"51.52083000","longitude":"5.06667000"},{"id":"78052","name":"Grasrijk","state_id":2623,"state_code":"NB","country_id":156,"country_code":"NL","latitude":"51.43916000","longitude":"5.41544000"},{"id":"78053","name":"Grave","state_id":2623,"state_code":"NB","country_id":156,"country_code":"NL","latitude":"51.75902000","longitude":"5.73882000"},{"id":"78059","name":"Groenewoud","state_id":2623,"state_code":"NB","country_id":156,"country_code":"NL","latitude":"51.53860000","longitude":"5.09028000"},{"id":"78079","name":"Haaren","state_id":2623,"state_code":"NB","country_id":156,"country_code":"NL","latitude":"51.60250000","longitude":"5.22222000"},{"id":"78082","name":"Haarsteeg","state_id":2623,"state_code":"NB","country_id":156,"country_code":"NL","latitude":"51.71167000","longitude":"5.19861000"},{"id":"78087","name":"Halsteren","state_id":2623,"state_code":"NB","country_id":156,"country_code":"NL","latitude":"51.52834000","longitude":"4.26785000"},{"id":"78088","name":"Handel","state_id":2623,"state_code":"NB","country_id":156,"country_code":"NL","latitude":"51.58000000","longitude":"5.70972000"},{"id":"78089","name":"Hapert","state_id":2623,"state_code":"NB","country_id":156,"country_code":"NL","latitude":"51.36833000","longitude":"5.25694000"},{"id":"78090","name":"Haps","state_id":2623,"state_code":"NB","country_id":156,"country_code":"NL","latitude":"51.68917000","longitude":"5.86111000"},{"id":"78118","name":"Heerle","state_id":2623,"state_code":"NB","country_id":156,"country_code":"NL","latitude":"51.51917000","longitude":"4.35972000"},{"id":"78121","name":"Heesch","state_id":2623,"state_code":"NB","country_id":156,"country_code":"NL","latitude":"51.73362000","longitude":"5.52672000"},{"id":"78122","name":"Heesterakker","state_id":2623,"state_code":"NB","country_id":156,"country_code":"NL","latitude":"51.48610000","longitude":"5.49681000"},{"id":"78123","name":"Heeswijk-Dinther","state_id":2623,"state_code":"NB","country_id":156,"country_code":"NL","latitude":"51.65083000","longitude":"5.47500000"},{"id":"78124","name":"Heeze","state_id":2623,"state_code":"NB","country_id":156,"country_code":"NL","latitude":"51.38280000","longitude":"5.57145000"},{"id":"78135","name":"Helmond","state_id":2623,"state_code":"NB","country_id":156,"country_code":"NL","latitude":"51.48167000","longitude":"5.66111000"},{"id":"78137","name":"Helvoirt","state_id":2623,"state_code":"NB","country_id":156,"country_code":"NL","latitude":"51.63167000","longitude":"5.23056000"},{"id":"78146","name":"Herpen","state_id":2623,"state_code":"NB","country_id":156,"country_code":"NL","latitude":"51.77167000","longitude":"5.64167000"},{"id":"78154","name":"Heusden","state_id":2623,"state_code":"NB","country_id":156,"country_code":"NL","latitude":"51.38417000","longitude":"5.76389000"},{"id":"78155","name":"Heusdenhout","state_id":2623,"state_code":"NB","country_id":156,"country_code":"NL","latitude":"51.58811000","longitude":"4.81930000"},{"id":"78158","name":"Hilvarenbeek","state_id":2623,"state_code":"NB","country_id":156,"country_code":"NL","latitude":"51.48583000","longitude":"5.13750000"},{"id":"78165","name":"Hoeven","state_id":2623,"state_code":"NB","country_id":156,"country_code":"NL","latitude":"51.57917000","longitude":"4.58333000"},{"id":"78168","name":"Hoge Vucht","state_id":2623,"state_code":"NB","country_id":156,"country_code":"NL","latitude":"51.60794000","longitude":"4.79150000"},{"id":"78177","name":"Hooge Mierde","state_id":2623,"state_code":"NB","country_id":156,"country_code":"NL","latitude":"51.38750000","longitude":"5.12917000"},{"id":"78178","name":"Hooge Zwaluwe","state_id":2623,"state_code":"NB","country_id":156,"country_code":"NL","latitude":"51.68750000","longitude":"4.74444000"},{"id":"78179","name":"Hoogeloon","state_id":2623,"state_code":"NB","country_id":156,"country_code":"NL","latitude":"51.39750000","longitude":"5.26806000"},{"id":"78180","name":"Hoogerheide","state_id":2623,"state_code":"NB","country_id":156,"country_code":"NL","latitude":"51.42417000","longitude":"4.32500000"},{"id":"78191","name":"Huijbergen","state_id":2623,"state_code":"NB","country_id":156,"country_code":"NL","latitude":"51.43250000","longitude":"4.37639000"},{"id":"78205","name":"Jagershoef","state_id":2623,"state_code":"NB","country_id":156,"country_code":"NL","latitude":"51.47330000","longitude":"5.46720000"},{"id":"78212","name":"Kalsdonk","state_id":2623,"state_code":"NB","country_id":156,"country_code":"NL","latitude":"51.53973000","longitude":"4.47111000"},{"id":"78237","name":"Klein-Zundert","state_id":2623,"state_code":"NB","country_id":156,"country_code":"NL","latitude":"51.48083000","longitude":"4.65417000"},{"id":"78240","name":"Klundert","state_id":2623,"state_code":"NB","country_id":156,"country_code":"NL","latitude":"51.66500000","longitude":"4.53472000"},{"id":"78252","name":"Korvel","state_id":2623,"state_code":"NB","country_id":156,"country_code":"NL","latitude":"51.54954000","longitude":"5.07079000"},{"id":"78258","name":"Krooswijk","state_id":2623,"state_code":"NB","country_id":156,"country_code":"NL","latitude":"51.64665000","longitude":"4.59203000"},{"id":"78260","name":"Kruisland","state_id":2623,"state_code":"NB","country_id":156,"country_code":"NL","latitude":"51.56917000","longitude":"4.40972000"},{"id":"78264","name":"Lage Mierde","state_id":2623,"state_code":"NB","country_id":156,"country_code":"NL","latitude":"51.40583000","longitude":"5.14722000"},{"id":"78265","name":"Lakerlopen","state_id":2623,"state_code":"NB","country_id":156,"country_code":"NL","latitude":"51.43791000","longitude":"5.50106000"},{"id":"78270","name":"Langenboom","state_id":2623,"state_code":"NB","country_id":156,"country_code":"NL","latitude":"51.70417000","longitude":"5.73056000"},{"id":"78277","name":"Leende","state_id":2623,"state_code":"NB","country_id":156,"country_code":"NL","latitude":"51.35083000","longitude":"5.55417000"},{"id":"78281","name":"Leest","state_id":2623,"state_code":"NB","country_id":156,"country_code":"NL","latitude":"51.60983000","longitude":"5.54312000"},{"id":"78291","name":"Lepelstraat","state_id":2623,"state_code":"NB","country_id":156,"country_code":"NL","latitude":"51.54833000","longitude":"4.27639000"},{"id":"78298","name":"Liempde","state_id":2623,"state_code":"NB","country_id":156,"country_code":"NL","latitude":"51.56917000","longitude":"5.37222000"},{"id":"78300","name":"Lierop","state_id":2623,"state_code":"NB","country_id":156,"country_code":"NL","latitude":"51.41917000","longitude":"5.67917000"},{"id":"78301","name":"Lieshout","state_id":2623,"state_code":"NB","country_id":156,"country_code":"NL","latitude":"51.52036000","longitude":"5.59479000"},{"id":"78302","name":"Liessel","state_id":2623,"state_code":"NB","country_id":156,"country_code":"NL","latitude":"51.41333000","longitude":"5.82083000"},{"id":"78304","name":"Lievendaal","state_id":2623,"state_code":"NB","country_id":156,"country_code":"NL","latitude":"51.44219000","longitude":"5.43405000"},{"id":"78314","name":"Lith","state_id":2623,"state_code":"NB","country_id":156,"country_code":"NL","latitude":"51.80583000","longitude":"5.43889000"},{"id":"78319","name":"Loon op Zand","state_id":2623,"state_code":"NB","country_id":156,"country_code":"NL","latitude":"51.62750000","longitude":"5.07500000"},{"id":"78320","name":"Loosbroek","state_id":2623,"state_code":"NB","country_id":156,"country_code":"NL","latitude":"51.67833000","longitude":"5.50694000"},{"id":"78325","name":"Loven","state_id":2623,"state_code":"NB","country_id":156,"country_code":"NL","latitude":"51.56480000","longitude":"5.09748000"},{"id":"78329","name":"Luyksgestel","state_id":2623,"state_code":"NB","country_id":156,"country_code":"NL","latitude":"51.28917000","longitude":"5.32361000"},{"id":"78330","name":"Maarheeze","state_id":2623,"state_code":"NB","country_id":156,"country_code":"NL","latitude":"51.31167000","longitude":"5.61667000"},{"id":"78337","name":"Maaskantje","state_id":2623,"state_code":"NB","country_id":156,"country_code":"NL","latitude":"51.65833000","longitude":"5.37083000"},{"id":"78341","name":"Made","state_id":2623,"state_code":"NB","country_id":156,"country_code":"NL","latitude":"51.67667000","longitude":"4.79306000"},{"id":"78349","name":"Mariahout","state_id":2623,"state_code":"NB","country_id":156,"country_code":"NL","latitude":"51.54083000","longitude":"5.57222000"},{"id":"78367","name":"Meerhoven","state_id":2623,"state_code":"NB","country_id":156,"country_code":"NL","latitude":"51.44267000","longitude":"5.41102000"},{"id":"78370","name":"Meerveldhoven","state_id":2623,"state_code":"NB","country_id":156,"country_code":"NL","latitude":"51.41705000","longitude":"5.41618000"},{"id":"78372","name":"Megen","state_id":2623,"state_code":"NB","country_id":156,"country_code":"NL","latitude":"51.82167000","longitude":"5.56250000"},{"id":"78373","name":"Meierijstad","state_id":2623,"state_code":"NB","country_id":156,"country_code":"NL","latitude":"51.59968000","longitude":"5.50278000"},{"id":"78379","name":"Melle","state_id":2623,"state_code":"NB","country_id":156,"country_code":"NL","latitude":"51.66244000","longitude":"5.63367000"},{"id":"78387","name":"Middelbeers","state_id":2623,"state_code":"NB","country_id":156,"country_code":"NL","latitude":"51.46667000","longitude":"5.25000000"},{"id":"78390","name":"Middelrode","state_id":2623,"state_code":"NB","country_id":156,"country_code":"NL","latitude":"51.66417000","longitude":"5.41944000"},{"id":"78398","name":"Mierlo","state_id":2623,"state_code":"NB","country_id":156,"country_code":"NL","latitude":"51.44000000","longitude":"5.61944000"},{"id":"78401","name":"Milheeze","state_id":2623,"state_code":"NB","country_id":156,"country_code":"NL","latitude":"51.50167000","longitude":"5.77917000"},{"id":"78404","name":"Moerdijk","state_id":2623,"state_code":"NB","country_id":156,"country_code":"NL","latitude":"51.70167000","longitude":"4.62639000"},{"id":"78406","name":"Molenhoek","state_id":2623,"state_code":"NB","country_id":156,"country_code":"NL","latitude":"51.71113000","longitude":"5.36809000"},{"id":"78415","name":"Muschberg en Geestenberg","state_id":2623,"state_code":"NB","country_id":156,"country_code":"NL","latitude":"51.44384000","longitude":"5.52329000"},{"id":"78418","name":"Naastenbest","state_id":2623,"state_code":"NB","country_id":156,"country_code":"NL","latitude":"51.50484000","longitude":"5.38579000"},{"id":"78426","name":"Neerkant","state_id":2623,"state_code":"NB","country_id":156,"country_code":"NL","latitude":"51.36833000","longitude":"5.86667000"},{"id":"78437","name":"Nieuw-Vossemeer","state_id":2623,"state_code":"NB","country_id":156,"country_code":"NL","latitude":"51.59000000","longitude":"4.21806000"},{"id":"78446","name":"Nieuwkuijk","state_id":2623,"state_code":"NB","country_id":156,"country_code":"NL","latitude":"51.69000000","longitude":"5.18194000"},{"id":"78455","name":"Nijnsel","state_id":2623,"state_code":"NB","country_id":156,"country_code":"NL","latitude":"51.55083000","longitude":"5.48333000"},{"id":"78457","name":"Nispen","state_id":2623,"state_code":"NB","country_id":156,"country_code":"NL","latitude":"51.48331000","longitude":"4.46131000"},{"id":"78459","name":"Nistelrode","state_id":2623,"state_code":"NB","country_id":156,"country_code":"NL","latitude":"51.70417000","longitude":"5.56250000"},{"id":"78467","name":"Noordgeest","state_id":2623,"state_code":"NB","country_id":156,"country_code":"NL","latitude":"51.50917000","longitude":"4.27917000"},{"id":"78468","name":"Noordhoek","state_id":2623,"state_code":"NB","country_id":156,"country_code":"NL","latitude":"51.64250000","longitude":"4.53194000"},{"id":"78474","name":"Nuenen","state_id":2623,"state_code":"NB","country_id":156,"country_code":"NL","latitude":"51.47000000","longitude":"5.55278000"},{"id":"78483","name":"Odiliapeel","state_id":2623,"state_code":"NB","country_id":156,"country_code":"NL","latitude":"51.64333000","longitude":"5.70556000"},{"id":"78487","name":"Oerle","state_id":2623,"state_code":"NB","country_id":156,"country_code":"NL","latitude":"51.42255000","longitude":"5.37163000"},{"id":"78491","name":"Oirschot","state_id":2623,"state_code":"NB","country_id":156,"country_code":"NL","latitude":"51.50500000","longitude":"5.31389000"},{"id":"78492","name":"Oisterwijk","state_id":2623,"state_code":"NB","country_id":156,"country_code":"NL","latitude":"51.57917000","longitude":"5.18889000"},{"id":"78510","name":"Oosteind","state_id":2623,"state_code":"NB","country_id":156,"country_code":"NL","latitude":"51.64418000","longitude":"4.89784000"},{"id":"78512","name":"Oostelbeers","state_id":2623,"state_code":"NB","country_id":156,"country_code":"NL","latitude":"51.47171000","longitude":"5.26897000"},{"id":"78519","name":"Oosterhout","state_id":2623,"state_code":"NB","country_id":156,"country_code":"NL","latitude":"51.64500000","longitude":"4.85972000"},{"id":"78544","name":"Orthen","state_id":2623,"state_code":"NB","country_id":156,"country_code":"NL","latitude":"51.70613000","longitude":"5.30468000"},{"id":"78546","name":"Oss","state_id":2623,"state_code":"NB","country_id":156,"country_code":"NL","latitude":"51.76500000","longitude":"5.51806000"},{"id":"78547","name":"Ossendrecht","state_id":2623,"state_code":"NB","country_id":156,"country_code":"NL","latitude":"51.39417000","longitude":"4.32639000"},{"id":"78551","name":"Oud Gastel","state_id":2623,"state_code":"NB","country_id":156,"country_code":"NL","latitude":"51.58667000","longitude":"4.45972000"},{"id":"78572","name":"Overloon","state_id":2623,"state_code":"NB","country_id":156,"country_code":"NL","latitude":"51.57167000","longitude":"5.94722000"},{"id":"78596","name":"Princenhage","state_id":2623,"state_code":"NB","country_id":156,"country_code":"NL","latitude":"51.57632000","longitude":"4.73906000"},{"id":"78597","name":"Prinsenbeek","state_id":2623,"state_code":"NB","country_id":156,"country_code":"NL","latitude":"51.59833000","longitude":"4.71250000"},{"id":"78601","name":"Putte","state_id":2623,"state_code":"NB","country_id":156,"country_code":"NL","latitude":"51.36000000","longitude":"4.39583000"},{"id":"78603","name":"Quirijnstok","state_id":2623,"state_code":"NB","country_id":156,"country_code":"NL","latitude":"51.58430000","longitude":"5.09810000"},{"id":"78605","name":"Raam","state_id":2623,"state_code":"NB","country_id":156,"country_code":"NL","latitude":"51.65967000","longitude":"5.63637000"},{"id":"78606","name":"Raamsdonk","state_id":2623,"state_code":"NB","country_id":156,"country_code":"NL","latitude":"51.68750000","longitude":"4.90833000"},{"id":"78607","name":"Raamsdonksveer","state_id":2623,"state_code":"NB","country_id":156,"country_code":"NL","latitude":"51.69667000","longitude":"4.87361000"},{"id":"78609","name":"Ravenstein","state_id":2623,"state_code":"NB","country_id":156,"country_code":"NL","latitude":"51.79667000","longitude":"5.65000000"},{"id":"78610","name":"Reek","state_id":2623,"state_code":"NB","country_id":156,"country_code":"NL","latitude":"51.74583000","longitude":"5.68194000"},{"id":"78616","name":"Reusel","state_id":2623,"state_code":"NB","country_id":156,"country_code":"NL","latitude":"51.36250000","longitude":"5.16528000"},{"id":"78622","name":"Riethoven","state_id":2623,"state_code":"NB","country_id":156,"country_code":"NL","latitude":"51.35417000","longitude":"5.38750000"},{"id":"78623","name":"Rijen","state_id":2623,"state_code":"NB","country_id":156,"country_code":"NL","latitude":"51.59083000","longitude":"4.91944000"},{"id":"78627","name":"Rijsbergen","state_id":2623,"state_code":"NB","country_id":156,"country_code":"NL","latitude":"51.51750000","longitude":"4.69722000"},{"id":"78629","name":"Rijswijk","state_id":2623,"state_code":"NB","country_id":156,"country_code":"NL","latitude":"51.79750000","longitude":"5.02500000"},{"id":"78637","name":"Roosendaal","state_id":2623,"state_code":"NB","country_id":156,"country_code":"NL","latitude":"51.53083000","longitude":"4.46528000"},{"id":"78646","name":"Rucphen","state_id":2623,"state_code":"NB","country_id":156,"country_code":"NL","latitude":"51.53167000","longitude":"4.55833000"},{"id":"78651","name":"Salderes","state_id":2623,"state_code":"NB","country_id":156,"country_code":"NL","latitude":"51.51505000","longitude":"5.38991000"},{"id":"78657","name":"Schaijk","state_id":2623,"state_code":"NB","country_id":156,"country_code":"NL","latitude":"51.74583000","longitude":"5.63194000"},{"id":"78671","name":"Schijndel","state_id":2623,"state_code":"NB","country_id":156,"country_code":"NL","latitude":"51.62250000","longitude":"5.43194000"},{"id":"78684","name":"Schutsboom","state_id":2623,"state_code":"NB","country_id":156,"country_code":"NL","latitude":"51.46152000","longitude":"5.62260000"},{"id":"78695","name":"Sint Anthonis","state_id":2623,"state_code":"NB","country_id":156,"country_code":"NL","latitude":"51.62667000","longitude":"5.88194000"},{"id":"78704","name":"Sint Willebrord","state_id":2623,"state_code":"NB","country_id":156,"country_code":"NL","latitude":"51.54833000","longitude":"4.58889000"},{"id":"78705","name":"Sint-Michielsgestel","state_id":2623,"state_code":"NB","country_id":156,"country_code":"NL","latitude":"51.64167000","longitude":"5.35278000"},{"id":"78706","name":"Sint-Oedenrode","state_id":2623,"state_code":"NB","country_id":156,"country_code":"NL","latitude":"51.56750000","longitude":"5.45972000"},{"id":"78718","name":"Soerendonk","state_id":2623,"state_code":"NB","country_id":156,"country_code":"NL","latitude":"51.30083000","longitude":"5.57500000"},{"id":"78721","name":"Someren","state_id":2623,"state_code":"NB","country_id":156,"country_code":"NL","latitude":"51.38500000","longitude":"5.71111000"},{"id":"78722","name":"Someren-Eind","state_id":2623,"state_code":"NB","country_id":156,"country_code":"NL","latitude":"51.35750000","longitude":"5.73333000"},{"id":"78723","name":"Son","state_id":2623,"state_code":"NB","country_id":156,"country_code":"NL","latitude":"51.51136000","longitude":"5.49282000"},{"id":"78729","name":"Speelheide","state_id":2623,"state_code":"NB","country_id":156,"country_code":"NL","latitude":"51.50607000","longitude":"5.40519000"},{"id":"78738","name":"Sprundel","state_id":2623,"state_code":"NB","country_id":156,"country_code":"NL","latitude":"51.53750000","longitude":"4.59722000"},{"id":"78743","name":"Stampersgat","state_id":2623,"state_code":"NB","country_id":156,"country_code":"NL","latitude":"51.61333000","longitude":"4.44444000"},{"id":"78744","name":"Standdaarbuiten","state_id":2623,"state_code":"NB","country_id":156,"country_code":"NL","latitude":"51.61333000","longitude":"4.51389000"},{"id":"78748","name":"Steenbergen","state_id":2623,"state_code":"NB","country_id":156,"country_code":"NL","latitude":"51.58417000","longitude":"4.31944000"},{"id":"78750","name":"Steensel","state_id":2623,"state_code":"NB","country_id":156,"country_code":"NL","latitude":"51.37667000","longitude":"5.35278000"},{"id":"78756","name":"Stepekolk","state_id":2623,"state_code":"NB","country_id":156,"country_code":"NL","latitude":"51.45500000","longitude":"5.61251000"},{"id":"78772","name":"Terheijden","state_id":2623,"state_code":"NB","country_id":156,"country_code":"NL","latitude":"51.64333000","longitude":"4.75417000"},{"id":"78778","name":"Teteringen","state_id":2623,"state_code":"NB","country_id":156,"country_code":"NL","latitude":"51.60917000","longitude":"4.82083000"},{"id":"78780","name":"Theereheide","state_id":2623,"state_code":"NB","country_id":156,"country_code":"NL","latitude":"51.63843000","longitude":"5.33729000"},{"id":"78786","name":"Tilburg","state_id":2623,"state_code":"NB","country_id":156,"country_code":"NL","latitude":"51.55551000","longitude":"5.09130000"},{"id":"78788","name":"Tivoli","state_id":2623,"state_code":"NB","country_id":156,"country_code":"NL","latitude":"51.42069000","longitude":"5.50818000"},{"id":"78790","name":"Tongelre","state_id":2623,"state_code":"NB","country_id":156,"country_code":"NL","latitude":"51.44889000","longitude":"5.51978000"},{"id":"78807","name":"Uden","state_id":2623,"state_code":"NB","country_id":156,"country_code":"NL","latitude":"51.66083000","longitude":"5.61944000"},{"id":"78808","name":"Udenhout","state_id":2623,"state_code":"NB","country_id":156,"country_code":"NL","latitude":"51.60917000","longitude":"5.14306000"},{"id":"78817","name":"Ulvenhout","state_id":2623,"state_code":"NB","country_id":156,"country_code":"NL","latitude":"51.54907000","longitude":"4.79931000"},{"id":"78824","name":"Vaartbroek","state_id":2623,"state_code":"NB","country_id":156,"country_code":"NL","latitude":"51.47954000","longitude":"5.49806000"},{"id":"78831","name":"Valkenswaard","state_id":2623,"state_code":"NB","country_id":156,"country_code":"NL","latitude":"51.35083000","longitude":"5.45972000"},{"id":"78835","name":"Veen","state_id":2623,"state_code":"NB","country_id":156,"country_code":"NL","latitude":"51.77750000","longitude":"5.10833000"},{"id":"78839","name":"Veghel","state_id":2623,"state_code":"NB","country_id":156,"country_code":"NL","latitude":"51.61667000","longitude":"5.54861000"},{"id":"78840","name":"Veldhoven","state_id":2623,"state_code":"NB","country_id":156,"country_code":"NL","latitude":"51.41833000","longitude":"5.40278000"},{"id":"78845","name":"Ven","state_id":2623,"state_code":"NB","country_id":156,"country_code":"NL","latitude":"51.64000000","longitude":"5.55000000"},{"id":"78846","name":"Venhorst","state_id":2623,"state_code":"NB","country_id":156,"country_code":"NL","latitude":"51.60833000","longitude":"5.73750000"},{"id":"78853","name":"Villapark","state_id":2623,"state_code":"NB","country_id":156,"country_code":"NL","latitude":"51.44144000","longitude":"5.49385000"},{"id":"78859","name":"Vliedberg","state_id":2623,"state_code":"NB","country_id":156,"country_code":"NL","latitude":"51.68961000","longitude":"5.19031000"},{"id":"78860","name":"Vlierden","state_id":2623,"state_code":"NB","country_id":156,"country_code":"NL","latitude":"51.44500000","longitude":"5.75833000"},{"id":"78864","name":"Vlokhoven","state_id":2623,"state_code":"NB","country_id":156,"country_code":"NL","latitude":"51.46667000","longitude":"5.48333000"},{"id":"78869","name":"Voldijn","state_id":2623,"state_code":"NB","country_id":156,"country_code":"NL","latitude":"51.40052000","longitude":"5.47196000"},{"id":"78871","name":"Volkel","state_id":2623,"state_code":"NB","country_id":156,"country_code":"NL","latitude":"51.64250000","longitude":"5.65417000"},{"id":"78880","name":"Vorstenbosch","state_id":2623,"state_code":"NB","country_id":156,"country_code":"NL","latitude":"51.65250000","longitude":"5.55000000"},{"id":"78888","name":"Vught","state_id":2623,"state_code":"NB","country_id":156,"country_code":"NL","latitude":"51.65333000","longitude":"5.28750000"},{"id":"78891","name":"Waalre","state_id":2623,"state_code":"NB","country_id":156,"country_code":"NL","latitude":"51.38667000","longitude":"5.44444000"},{"id":"78892","name":"Waalwijk","state_id":2623,"state_code":"NB","country_id":156,"country_code":"NL","latitude":"51.68250000","longitude":"5.07083000"},{"id":"78898","name":"Wagenberg","state_id":2623,"state_code":"NB","country_id":156,"country_code":"NL","latitude":"51.66500000","longitude":"4.74861000"},{"id":"78901","name":"Wanroij","state_id":2623,"state_code":"NB","country_id":156,"country_code":"NL","latitude":"51.65750000","longitude":"5.81806000"},{"id":"78908","name":"Waspik","state_id":2623,"state_code":"NB","country_id":156,"country_code":"NL","latitude":"51.68667000","longitude":"4.94444000"},{"id":"78911","name":"Waterdonken","state_id":2623,"state_code":"NB","country_id":156,"country_code":"NL","latitude":"51.60959000","longitude":"4.80452000"},{"id":"78919","name":"Welberg","state_id":2623,"state_code":"NB","country_id":156,"country_code":"NL","latitude":"51.57667000","longitude":"4.33056000"},{"id":"78924","name":"Werkendam","state_id":2623,"state_code":"NB","country_id":156,"country_code":"NL","latitude":"51.81000000","longitude":"4.89444000"},{"id":"78926","name":"Wernhout","state_id":2623,"state_code":"NB","country_id":156,"country_code":"NL","latitude":"51.45500000","longitude":"4.64167000"},{"id":"78937","name":"Westerhoven","state_id":2623,"state_code":"NB","country_id":156,"country_code":"NL","latitude":"51.33250000","longitude":"5.39583000"},{"id":"78949","name":"Wijbosch","state_id":2623,"state_code":"NB","country_id":156,"country_code":"NL","latitude":"51.61667000","longitude":"5.46806000"},{"id":"78959","name":"Wilhelminadorp","state_id":2623,"state_code":"NB","country_id":156,"country_code":"NL","latitude":"51.49742000","longitude":"5.39223000"},{"id":"78968","name":"Wisselaar","state_id":2623,"state_code":"NB","country_id":156,"country_code":"NL","latitude":"51.61285000","longitude":"4.78444000"},{"id":"78971","name":"Woensdrecht","state_id":2623,"state_code":"NB","country_id":156,"country_code":"NL","latitude":"51.42897000","longitude":"4.30355000"},{"id":"78972","name":"Woenselse Heide","state_id":2623,"state_code":"NB","country_id":156,"country_code":"NL","latitude":"51.48333000","longitude":"5.46667000"},{"id":"78986","name":"Woudrichem","state_id":2623,"state_code":"NB","country_id":156,"country_code":"NL","latitude":"51.81500000","longitude":"5.00139000"},{"id":"78988","name":"Wouw","state_id":2623,"state_code":"NB","country_id":156,"country_code":"NL","latitude":"51.52167000","longitude":"4.39028000"},{"id":"78997","name":"Zandberg","state_id":2623,"state_code":"NB","country_id":156,"country_code":"NL","latitude":"51.57333000","longitude":"4.78472000"},{"id":"79000","name":"Zeeland","state_id":2623,"state_code":"NB","country_id":156,"country_code":"NL","latitude":"51.69750000","longitude":"5.67639000"},{"id":"79001","name":"Zeelst","state_id":2623,"state_code":"NB","country_id":156,"country_code":"NL","latitude":"51.42421000","longitude":"5.41566000"},{"id":"79003","name":"Zegge","state_id":2623,"state_code":"NB","country_id":156,"country_code":"NL","latitude":"51.55667000","longitude":"4.51806000"},{"id":"79004","name":"Zeilberg","state_id":2623,"state_code":"NB","country_id":156,"country_code":"NL","latitude":"51.45469000","longitude":"5.81878000"},{"id":"79007","name":"Zesgehuchten","state_id":2623,"state_code":"NB","country_id":156,"country_code":"NL","latitude":"51.41667000","longitude":"5.55000000"},{"id":"79010","name":"Zevenbergschen Hoek","state_id":2623,"state_code":"NB","country_id":156,"country_code":"NL","latitude":"51.67250000","longitude":"4.67917000"},{"id":"79014","name":"Zijtaart","state_id":2623,"state_code":"NB","country_id":156,"country_code":"NL","latitude":"51.59250000","longitude":"5.54167000"},{"id":"79018","name":"Zonderwijk","state_id":2623,"state_code":"NB","country_id":156,"country_code":"NL","latitude":"51.41141000","longitude":"5.39361000"},{"id":"79031","name":"Zundert","state_id":2623,"state_code":"NB","country_id":156,"country_code":"NL","latitude":"51.47167000","longitude":"4.65556000"}]