[{"id":"8207","name":"\u00c7atax","state_id":533,"state_code":"TOV","country_id":16,"country_code":"AZ","latitude":"40.72622000","longitude":"45.55919000"},{"id":"8209","name":"\u00c7obansignaq","state_id":533,"state_code":"TOV","country_id":16,"country_code":"AZ","latitude":"40.75244000","longitude":"45.70645000"},{"id":"8076","name":"Dondar Qus\u00e7u","state_id":533,"state_code":"TOV","country_id":16,"country_code":"AZ","latitude":"40.95390000","longitude":"45.61942000"},{"id":"8139","name":"Qaraxanli","state_id":533,"state_code":"TOV","country_id":16,"country_code":"AZ","latitude":"41.04358000","longitude":"45.65527000"},{"id":"8183","name":"Tovuz","state_id":533,"state_code":"TOV","country_id":16,"country_code":"AZ","latitude":"40.99249000","longitude":"45.62838000"},{"id":"8193","name":"Yaniqli","state_id":533,"state_code":"TOV","country_id":16,"country_code":"AZ","latitude":"40.84320000","longitude":"45.68030000"}]