[{"id":"8059","name":"Beylagan","state_id":554,"state_code":"BEY","country_id":16,"country_code":"AZ","latitude":"39.77556000","longitude":"47.61861000"},{"id":"8064","name":"Birinci Asiqli","state_id":554,"state_code":"BEY","country_id":16,"country_code":"AZ","latitude":"39.81917000","longitude":"47.67944000"},{"id":"8078","name":"D\u00fcnyamalilar","state_id":554,"state_code":"BEY","country_id":16,"country_code":"AZ","latitude":"39.77278000","longitude":"47.75889000"},{"id":"8128","name":"Orjonikidze","state_id":554,"state_code":"BEY","country_id":16,"country_code":"AZ","latitude":"39.63571000","longitude":"47.71199000"},{"id":"8200","name":"Yuxari Aran","state_id":554,"state_code":"BEY","country_id":16,"country_code":"AZ","latitude":"39.73361000","longitude":"47.65500000"}]