[{"id":"20524","name":"Anserma","state_id":2879,"state_code":"RIS","country_id":48,"country_code":"CO","latitude":"5.33278000","longitude":"-75.79111000"},{"id":"20531","name":"Ap\u00eda","state_id":2879,"state_code":"RIS","country_id":48,"country_code":"CO","latitude":"5.10658000","longitude":"-75.94244000"},{"id":"20563","name":"Balboa","state_id":2879,"state_code":"RIS","country_id":48,"country_code":"CO","latitude":"4.92284000","longitude":"-75.94030000"},{"id":"20585","name":"Bel\u00e9n de Umbr\u00eda","state_id":2879,"state_code":"RIS","country_id":48,"country_code":"CO","latitude":"5.20087000","longitude":"-75.86865000"},{"id":"20782","name":"Dosquebradas","state_id":2879,"state_code":"RIS","country_id":48,"country_code":"CO","latitude":"4.83916000","longitude":"-75.66727000"},{"id":"20926","name":"Gu\u00e1tica","state_id":2879,"state_code":"RIS","country_id":48,"country_code":"CO","latitude":"5.31569000","longitude":"-75.79826000"},{"id":"20975","name":"La Celia","state_id":2879,"state_code":"RIS","country_id":48,"country_code":"CO","latitude":"5.00332000","longitude":"-76.00355000"},{"id":"20991","name":"La Merced","state_id":2879,"state_code":"RIS","country_id":48,"country_code":"CO","latitude":"5.40194000","longitude":"-75.88472000"},{"id":"21016","name":"La Virginia","state_id":2879,"state_code":"RIS","country_id":48,"country_code":"CO","latitude":"4.89972000","longitude":"-75.88250000"},{"id":"21070","name":"Marsella","state_id":2879,"state_code":"RIS","country_id":48,"country_code":"CO","latitude":"4.95238000","longitude":"-75.75265000"},{"id":"21087","name":"Mistrat\u00f3","state_id":2879,"state_code":"RIS","country_id":48,"country_code":"CO","latitude":"5.29622000","longitude":"-75.88390000"},{"id":"21195","name":"Pereira","state_id":2879,"state_code":"RIS","country_id":48,"country_code":"CO","latitude":"4.76896000","longitude":"-75.72222000"},{"id":"21226","name":"Pueblo Rico","state_id":2879,"state_code":"RIS","country_id":48,"country_code":"CO","latitude":"5.29453000","longitude":"-76.06702000"},{"id":"21274","name":"Quinch\u00eda","state_id":2879,"state_code":"RIS","country_id":48,"country_code":"CO","latitude":"5.33957000","longitude":"-75.73018000"},{"id":"21424","name":"Santa Rosa de Cabal","state_id":2879,"state_code":"RIS","country_id":48,"country_code":"CO","latitude":"4.86806000","longitude":"-75.62139000"},{"id":"21442","name":"Santuario","state_id":2879,"state_code":"RIS","country_id":48,"country_code":"CO","latitude":"5.05321000","longitude":"-75.99060000"}]