[{"id":"20564","name":"Baranoa","state_id":2880,"state_code":"ATL","country_id":48,"country_code":"CO","latitude":"10.79497000","longitude":"-74.92073000"},{"id":"20574","name":"Barranquilla","state_id":2880,"state_code":"ATL","country_id":48,"country_code":"CO","latitude":"10.96854000","longitude":"-74.78132000"},{"id":"20640","name":"Campo de la Cruz","state_id":2880,"state_code":"ATL","country_id":48,"country_code":"CO","latitude":"10.37844000","longitude":"-74.90258000"},{"id":"20643","name":"Candelaria","state_id":2880,"state_code":"ATL","country_id":48,"country_code":"CO","latitude":"10.47387000","longitude":"-74.88581000"},{"id":"20876","name":"Galapa","state_id":2880,"state_code":"ATL","country_id":48,"country_code":"CO","latitude":"10.89790000","longitude":"-74.88700000"},{"id":"20966","name":"Juan de Acosta","state_id":2880,"state_code":"ATL","country_id":48,"country_code":"CO","latitude":"10.82930000","longitude":"-75.03346000"},{"id":"21038","name":"Luruaco","state_id":2880,"state_code":"ATL","country_id":48,"country_code":"CO","latitude":"10.61712000","longitude":"-75.15146000"},{"id":"21053","name":"Malambo","state_id":2880,"state_code":"ATL","country_id":48,"country_code":"CO","latitude":"10.85953000","longitude":"-74.77386000"},{"id":"21055","name":"Manat\u00ed","state_id":2880,"state_code":"ATL","country_id":48,"country_code":"CO","latitude":"10.46402000","longitude":"-74.98220000"},{"id":"21171","name":"Palmar de Varela","state_id":2880,"state_code":"ATL","country_id":48,"country_code":"CO","latitude":"10.74055000","longitude":"-74.75443000"},{"id":"21208","name":"Pioj\u00f3","state_id":2880,"state_code":"ATL","country_id":48,"country_code":"CO","latitude":"10.74846000","longitude":"-75.10776000"},{"id":"21217","name":"Polonuevo","state_id":2880,"state_code":"ATL","country_id":48,"country_code":"CO","latitude":"10.77697000","longitude":"-74.85344000"},{"id":"21218","name":"Ponedera","state_id":2880,"state_code":"ATL","country_id":48,"country_code":"CO","latitude":"10.64297000","longitude":"-74.75393000"},{"id":"21238","name":"Puerto Colombia","state_id":2880,"state_code":"ATL","country_id":48,"country_code":"CO","latitude":"11.00854000","longitude":"-74.90887000"},{"id":"21283","name":"Repel\u00f3n","state_id":2880,"state_code":"ATL","country_id":48,"country_code":"CO","latitude":"10.50937000","longitude":"-75.12830000"},{"id":"21309","name":"Sabanagrande","state_id":2880,"state_code":"ATL","country_id":48,"country_code":"CO","latitude":"10.80077000","longitude":"-74.77051000"},{"id":"21312","name":"Sabanalarga","state_id":2880,"state_code":"ATL","country_id":48,"country_code":"CO","latitude":"10.61636000","longitude":"-74.95717000"},{"id":"21420","name":"Santa Luc\u00eda","state_id":2880,"state_code":"ATL","country_id":48,"country_code":"CO","latitude":"10.32420000","longitude":"-74.96017000"},{"id":"21440","name":"Santo Tom\u00e1s","state_id":2880,"state_code":"ATL","country_id":48,"country_code":"CO","latitude":"10.75773000","longitude":"-74.75451000"},{"id":"21472","name":"Soledad","state_id":2880,"state_code":"ATL","country_id":48,"country_code":"CO","latitude":"10.89986000","longitude":"-74.78787000"},{"id":"21485","name":"Suan","state_id":2880,"state_code":"ATL","country_id":48,"country_code":"CO","latitude":"10.30214000","longitude":"-74.91934000"},{"id":"21550","name":"Tubar\u00e1","state_id":2880,"state_code":"ATL","country_id":48,"country_code":"CO","latitude":"10.87562000","longitude":"-74.97873000"},{"id":"21576","name":"Usiacur\u00ed","state_id":2880,"state_code":"ATL","country_id":48,"country_code":"CO","latitude":"10.74313000","longitude":"-74.97604000"}]