[{"id":"20506","name":"Almaguer","state_id":2884,"state_code":"CAU","country_id":48,"country_code":"CO","latitude":"1.91472000","longitude":"-76.85482000"},{"id":"20545","name":"Argelia","state_id":2884,"state_code":"CAU","country_id":48,"country_code":"CO","latitude":"2.31728000","longitude":"-77.25700000"},{"id":"20562","name":"Balboa","state_id":2884,"state_code":"CAU","country_id":48,"country_code":"CO","latitude":"2.08436000","longitude":"-77.20781000"},{"id":"20577","name":"Belalc\u00e1zar","state_id":2884,"state_code":"CAU","country_id":48,"country_code":"CO","latitude":"2.64644000","longitude":"-75.97269000"},{"id":"20599","name":"Bol\u00edvar","state_id":2884,"state_code":"CAU","country_id":48,"country_code":"CO","latitude":"1.84670000","longitude":"-76.98292000"},{"id":"20610","name":"Buenos Aires","state_id":2884,"state_code":"CAU","country_id":48,"country_code":"CO","latitude":"3.04825000","longitude":"-76.63066000"},{"id":"20625","name":"Cajib\u00edo","state_id":2884,"state_code":"CAU","country_id":48,"country_code":"CO","latitude":"2.62271000","longitude":"-76.57039000"},{"id":"20633","name":"Caldono","state_id":2884,"state_code":"CAU","country_id":48,"country_code":"CO","latitude":"2.79739000","longitude":"-76.48316000"},{"id":"20637","name":"Caloto","state_id":2884,"state_code":"CAU","country_id":48,"country_code":"CO","latitude":"3.03586000","longitude":"-76.40788000"},{"id":"20737","name":"Corinto","state_id":2884,"state_code":"CAU","country_id":48,"country_code":"CO","latitude":"3.13598000","longitude":"-76.20646000"},{"id":"20788","name":"El Bordo","state_id":2884,"state_code":"CAU","country_id":48,"country_code":"CO","latitude":"2.11696000","longitude":"-76.98214000"},{"id":"20831","name":"El Tambo","state_id":2884,"state_code":"CAU","country_id":48,"country_code":"CO","latitude":"2.45199000","longitude":"-76.81029000"},{"id":"20848","name":"Florencia","state_id":2884,"state_code":"CAU","country_id":48,"country_code":"CO","latitude":"1.68318000","longitude":"-77.07331000"},{"id":"20911","name":"Guap\u00ed","state_id":2884,"state_code":"CAU","country_id":48,"country_code":"CO","latitude":"2.57082000","longitude":"-77.88542000"},{"id":"20909","name":"Guapi","state_id":2884,"state_code":"CAU","country_id":48,"country_code":"CO","latitude":"2.55210000","longitude":"-77.87865000"},{"id":"20948","name":"Inz\u00e1","state_id":2884,"state_code":"CAU","country_id":48,"country_code":"CO","latitude":"2.55452000","longitude":"-76.06722000"},{"id":"20957","name":"Jambal\u00f3","state_id":2884,"state_code":"CAU","country_id":48,"country_code":"CO","latitude":"2.85065000","longitude":"-76.32506000"},{"id":"21003","name":"La Sierra","state_id":2884,"state_code":"CAU","country_id":48,"country_code":"CO","latitude":"2.19665000","longitude":"-76.78590000"},{"id":"21011","name":"La Vega","state_id":2884,"state_code":"CAU","country_id":48,"country_code":"CO","latitude":"2.06201000","longitude":"-76.76808000"},{"id":"21041","name":"L\u00f3pez","state_id":2884,"state_code":"CAU","country_id":48,"country_code":"CO","latitude":"2.43333000","longitude":"-76.80000000"},{"id":"21080","name":"Mercaderes","state_id":2884,"state_code":"CAU","country_id":48,"country_code":"CO","latitude":"1.80175000","longitude":"-77.17032000"},{"id":"21085","name":"Miranda","state_id":2884,"state_code":"CAU","country_id":48,"country_code":"CO","latitude":"3.23773000","longitude":"-76.22093000"},{"id":"21103","name":"Morales","state_id":2884,"state_code":"CAU","country_id":48,"country_code":"CO","latitude":"2.75446000","longitude":"-76.62791000"},{"id":"21115","name":"Municipio de L\u00f3pez de Micay","state_id":2884,"state_code":"CAU","country_id":48,"country_code":"CO","latitude":"3.00000000","longitude":"-77.25000000"},{"id":"21161","name":"Padilla","state_id":2884,"state_code":"CAU","country_id":48,"country_code":"CO","latitude":"3.22038000","longitude":"-76.31385000"},{"id":"21163","name":"Paez","state_id":2884,"state_code":"CAU","country_id":48,"country_code":"CO","latitude":"2.75000000","longitude":"-76.00000000"},{"id":"21167","name":"Paispamba","state_id":2884,"state_code":"CAU","country_id":48,"country_code":"CO","latitude":"2.25462000","longitude":"-76.61086000"},{"id":"21185","name":"Pat\u00eda","state_id":2884,"state_code":"CAU","country_id":48,"country_code":"CO","latitude":"2.14018000","longitude":"-77.01744000"},{"id":"21203","name":"Piendam\u00f3","state_id":2884,"state_code":"CAU","country_id":48,"country_code":"CO","latitude":"2.70214000","longitude":"-76.59736000"},{"id":"21202","name":"Piendamo","state_id":2884,"state_code":"CAU","country_id":48,"country_code":"CO","latitude":"2.63918000","longitude":"-76.53055000"},{"id":"21219","name":"Popay\u00e1n","state_id":2884,"state_code":"CAU","country_id":48,"country_code":"CO","latitude":"2.43823000","longitude":"-76.61316000"},{"id":"21257","name":"Puerto Tejada","state_id":2884,"state_code":"CAU","country_id":48,"country_code":"CO","latitude":"3.23393000","longitude":"-76.41935000"},{"id":"21263","name":"Purac\u00e9","state_id":2884,"state_code":"CAU","country_id":48,"country_code":"CO","latitude":"2.33851000","longitude":"-76.38759000"},{"id":"21301","name":"Rosas","state_id":2884,"state_code":"CAU","country_id":48,"country_code":"CO","latitude":"2.26093000","longitude":"-76.73986000"},{"id":"21404","name":"San Sebasti\u00e1n","state_id":2884,"state_code":"CAU","country_id":48,"country_code":"CO","latitude":"1.91667000","longitude":"-76.66667000"},{"id":"21434","name":"Santander de Quilichao","state_id":2884,"state_code":"CAU","country_id":48,"country_code":"CO","latitude":"3.00945000","longitude":"-76.48494000"},{"id":"21457","name":"Silvia","state_id":2884,"state_code":"CAU","country_id":48,"country_code":"CO","latitude":"2.61557000","longitude":"-76.38261000"},{"id":"21482","name":"Sotara","state_id":2884,"state_code":"CAU","country_id":48,"country_code":"CO","latitude":"2.25000000","longitude":"-76.58333000"},{"id":"21499","name":"Su\u00e1rez","state_id":2884,"state_code":"CAU","country_id":48,"country_code":"CO","latitude":"2.95395000","longitude":"-76.69644000"},{"id":"21489","name":"Sucre","state_id":2884,"state_code":"CAU","country_id":48,"country_code":"CO","latitude":"2.06182000","longitude":"-76.91438000"},{"id":"21528","name":"Timbiqu\u00ed","state_id":2884,"state_code":"CAU","country_id":48,"country_code":"CO","latitude":"2.77170000","longitude":"-77.66536000"},{"id":"21543","name":"Torib\u00edo","state_id":2884,"state_code":"CAU","country_id":48,"country_code":"CO","latitude":"2.95481000","longitude":"-76.26839000"},{"id":"21542","name":"Toribio","state_id":2884,"state_code":"CAU","country_id":48,"country_code":"CO","latitude":"3.00000000","longitude":"-76.16667000"},{"id":"21546","name":"Totor\u00f3","state_id":2884,"state_code":"CAU","country_id":48,"country_code":"CO","latitude":"2.50518000","longitude":"-76.39254000"},{"id":"21597","name":"Villa Rica","state_id":2884,"state_code":"CAU","country_id":48,"country_code":"CO","latitude":"2.51420000","longitude":"-76.84939000"}]