[{"id":"20494","name":"Aguadas","state_id":2887,"state_code":"CAL","country_id":48,"country_code":"CO","latitude":"5.61161000","longitude":"-75.45624000"},{"id":"20525","name":"Anserma","state_id":2887,"state_code":"CAL","country_id":48,"country_code":"CO","latitude":"5.20427000","longitude":"-75.79167000"},{"id":"20534","name":"Aranzazu","state_id":2887,"state_code":"CAL","country_id":48,"country_code":"CO","latitude":"5.25519000","longitude":"-75.50984000"},{"id":"20576","name":"Belalc\u00e1zar","state_id":2887,"state_code":"CAL","country_id":48,"country_code":"CO","latitude":"4.99528000","longitude":"-75.81278000"},{"id":"20688","name":"Chinchin\u00e1","state_id":2887,"state_code":"CAL","country_id":48,"country_code":"CO","latitude":"4.97522000","longitude":"-75.70416000"},{"id":"20844","name":"Filadelfia","state_id":2887,"state_code":"CAL","country_id":48,"country_code":"CO","latitude":"5.29606000","longitude":"-75.56120000"},{"id":"20981","name":"La Dorada","state_id":2887,"state_code":"CAL","country_id":48,"country_code":"CO","latitude":"5.53333000","longitude":"-74.70000000"},{"id":"20992","name":"La Merced","state_id":2887,"state_code":"CAL","country_id":48,"country_code":"CO","latitude":"5.38060000","longitude":"-75.58842000"},{"id":"21059","name":"Manizales","state_id":2887,"state_code":"CAL","country_id":48,"country_code":"CO","latitude":"5.06889000","longitude":"-75.51738000"},{"id":"21061","name":"Manzanares","state_id":2887,"state_code":"CAL","country_id":48,"country_code":"CO","latitude":"5.23305000","longitude":"-75.15168000"},{"id":"21068","name":"Marmato","state_id":2887,"state_code":"CAL","country_id":48,"country_code":"CO","latitude":"5.47554000","longitude":"-75.59710000"},{"id":"21069","name":"Marquetalia","state_id":2887,"state_code":"CAL","country_id":48,"country_code":"CO","latitude":"5.29069000","longitude":"-75.08028000"},{"id":"21071","name":"Marulanda","state_id":2887,"state_code":"CAL","country_id":48,"country_code":"CO","latitude":"5.28393000","longitude":"-75.26016000"},{"id":"21131","name":"Neira","state_id":2887,"state_code":"CAL","country_id":48,"country_code":"CO","latitude":"5.17534000","longitude":"-75.52405000"},{"id":"21137","name":"Norcasia","state_id":2887,"state_code":"CAL","country_id":48,"country_code":"CO","latitude":"5.57535000","longitude":"-74.88831000"},{"id":"21169","name":"Palestina","state_id":2887,"state_code":"CAL","country_id":48,"country_code":"CO","latitude":"5.04571000","longitude":"-75.69552000"},{"id":"21267","name":"P\u00e1cora","state_id":2887,"state_code":"CAL","country_id":48,"country_code":"CO","latitude":"5.50631000","longitude":"-75.49054000"},{"id":"21193","name":"Pensilvania","state_id":2887,"state_code":"CAL","country_id":48,"country_code":"CO","latitude":"5.38840000","longitude":"-75.20420000"},{"id":"21294","name":"Riosucio","state_id":2887,"state_code":"CAL","country_id":48,"country_code":"CO","latitude":"5.42164000","longitude":"-75.70318000"},{"id":"21296","name":"Risaralda","state_id":2887,"state_code":"CAL","country_id":48,"country_code":"CO","latitude":"5.11237000","longitude":"-75.75861000"},{"id":"21319","name":"Salamina","state_id":2887,"state_code":"CAL","country_id":48,"country_code":"CO","latitude":"5.37014000","longitude":"-75.41548000"},{"id":"21326","name":"Saman\u00e1","state_id":2887,"state_code":"CAL","country_id":48,"country_code":"CO","latitude":"5.54061000","longitude":"-74.99346000"},{"id":"21364","name":"San Jos\u00e9","state_id":2887,"state_code":"CAL","country_id":48,"country_code":"CO","latitude":"5.08221000","longitude":"-75.79107000"},{"id":"21492","name":"Sup\u00eda","state_id":2887,"state_code":"CAL","country_id":48,"country_code":"CO","latitude":"5.45303000","longitude":"-75.65072000"},{"id":"21594","name":"Victoria","state_id":2887,"state_code":"CAL","country_id":48,"country_code":"CO","latitude":"5.45666000","longitude":"-74.84061000"},{"id":"21605","name":"Villamar\u00eda","state_id":2887,"state_code":"CAL","country_id":48,"country_code":"CO","latitude":"4.95078000","longitude":"-75.43680000"},{"id":"21617","name":"Viterbo","state_id":2887,"state_code":"CAL","country_id":48,"country_code":"CO","latitude":"5.06242000","longitude":"-75.87159000"}]