[{"id":"20493","name":"Aguada","state_id":2901,"state_code":"SAN","country_id":48,"country_code":"CO","latitude":"6.16019000","longitude":"-73.52747000"},{"id":"20497","name":"Albania","state_id":2901,"state_code":"SAN","country_id":48,"country_code":"CO","latitude":"5.75894000","longitude":"-73.91376000"},{"id":"20535","name":"Aratoca","state_id":2901,"state_code":"SAN","country_id":48,"country_code":"CO","latitude":"6.69432000","longitude":"-73.01868000"},{"id":"20567","name":"Barbosa","state_id":2901,"state_code":"SAN","country_id":48,"country_code":"CO","latitude":"5.93168000","longitude":"-73.61507000"},{"id":"20568","name":"Barichara","state_id":2901,"state_code":"SAN","country_id":48,"country_code":"CO","latitude":"6.63572000","longitude":"-73.22282000"},{"id":"20570","name":"Barrancabermeja","state_id":2901,"state_code":"SAN","country_id":48,"country_code":"CO","latitude":"7.06528000","longitude":"-73.85472000"},{"id":"20590","name":"Betulia","state_id":2901,"state_code":"SAN","country_id":48,"country_code":"CO","latitude":"6.90069000","longitude":"-73.28347000"},{"id":"20597","name":"Bol\u00edvar","state_id":2901,"state_code":"SAN","country_id":48,"country_code":"CO","latitude":"5.98930000","longitude":"-73.77058000"},{"id":"20603","name":"Bucaramanga","state_id":2901,"state_code":"SAN","country_id":48,"country_code":"CO","latitude":"7.12539000","longitude":"-73.11980000"},{"id":"20616","name":"Cabrera","state_id":2901,"state_code":"SAN","country_id":48,"country_code":"CO","latitude":"6.56443000","longitude":"-73.26768000"},{"id":"20635","name":"California","state_id":2901,"state_code":"SAN","country_id":48,"country_code":"CO","latitude":"7.34340000","longitude":"-72.95815000"},{"id":"20647","name":"Capitanejo","state_id":2901,"state_code":"SAN","country_id":48,"country_code":"CO","latitude":"6.52881000","longitude":"-72.69595000"},{"id":"20651","name":"Carcas\u00ed","state_id":2901,"state_code":"SAN","country_id":48,"country_code":"CO","latitude":"6.62711000","longitude":"-72.62625000"},{"id":"20668","name":"Cepit\u00e1","state_id":2901,"state_code":"SAN","country_id":48,"country_code":"CO","latitude":"6.75427000","longitude":"-72.97440000"},{"id":"20671","name":"Cerrito","state_id":2901,"state_code":"SAN","country_id":48,"country_code":"CO","latitude":"6.84315000","longitude":"-72.69404000"},{"id":"20679","name":"Charal\u00e1","state_id":2901,"state_code":"SAN","country_id":48,"country_code":"CO","latitude":"6.17513000","longitude":"-73.17587000"},{"id":"20680","name":"Charta","state_id":2901,"state_code":"SAN","country_id":48,"country_code":"CO","latitude":"7.28025000","longitude":"-72.96782000"},{"id":"20684","name":"Chima","state_id":2901,"state_code":"SAN","country_id":48,"country_code":"CO","latitude":"6.36289000","longitude":"-73.42534000"},{"id":"20692","name":"Chipat\u00e1","state_id":2901,"state_code":"SAN","country_id":48,"country_code":"CO","latitude":"6.06196000","longitude":"-73.63718000"},{"id":"20708","name":"Cimitarra","state_id":2901,"state_code":"SAN","country_id":48,"country_code":"CO","latitude":"6.31419000","longitude":"-73.94968000"},{"id":"20725","name":"Concepci\u00f3n","state_id":2901,"state_code":"SAN","country_id":48,"country_code":"CO","latitude":"6.76619000","longitude":"-72.69400000"},{"id":"20729","name":"Confines","state_id":2901,"state_code":"SAN","country_id":48,"country_code":"CO","latitude":"6.34875000","longitude":"-73.20990000"},{"id":"20733","name":"Contrataci\u00f3n","state_id":2901,"state_code":"SAN","country_id":48,"country_code":"CO","latitude":"6.29005000","longitude":"-73.47354000"},{"id":"20738","name":"Coromoro","state_id":2901,"state_code":"SAN","country_id":48,"country_code":"CO","latitude":"6.29461000","longitude":"-73.04022000"},{"id":"20760","name":"Curit\u00ed","state_id":2901,"state_code":"SAN","country_id":48,"country_code":"CO","latitude":"6.60519000","longitude":"-73.06809000"},{"id":"20797","name":"El Carmen de Chucur\u00ed","state_id":2901,"state_code":"SAN","country_id":48,"country_code":"CO","latitude":"6.69736000","longitude":"-73.51117000"},{"id":"20809","name":"El Guacamayo","state_id":2901,"state_code":"SAN","country_id":48,"country_code":"CO","latitude":"6.24856000","longitude":"-73.52957000"},{"id":"20819","name":"El Pe\u00f1\u00f3n","state_id":2901,"state_code":"SAN","country_id":48,"country_code":"CO","latitude":"6.09900000","longitude":"-73.92835000"},{"id":"20822","name":"El Play\u00f3n","state_id":2901,"state_code":"SAN","country_id":48,"country_code":"CO","latitude":"7.47131000","longitude":"-73.20310000"},{"id":"20836","name":"Encino","state_id":2901,"state_code":"SAN","country_id":48,"country_code":"CO","latitude":"6.13735000","longitude":"-73.09847000"},{"id":"20837","name":"Enciso","state_id":2901,"state_code":"SAN","country_id":48,"country_code":"CO","latitude":"6.64651000","longitude":"-72.70709000"},{"id":"20853","name":"Flori\u00e1n","state_id":2901,"state_code":"SAN","country_id":48,"country_code":"CO","latitude":"5.80487000","longitude":"-73.97029000"},{"id":"20852","name":"Floridablanca","state_id":2901,"state_code":"SAN","country_id":48,"country_code":"CO","latitude":"7.06315000","longitude":"-73.08586000"},{"id":"20878","name":"Gal\u00e1n","state_id":2901,"state_code":"SAN","country_id":48,"country_code":"CO","latitude":"6.66271000","longitude":"-73.34233000"},{"id":"20881","name":"Gambita","state_id":2901,"state_code":"SAN","country_id":48,"country_code":"CO","latitude":"5.90273000","longitude":"-73.36788000"},{"id":"20927","name":"G\u00e1mbita","state_id":2901,"state_code":"SAN","country_id":48,"country_code":"CO","latitude":"5.94597000","longitude":"-73.34435000"},{"id":"20932","name":"G\u00fcepsa","state_id":2901,"state_code":"SAN","country_id":48,"country_code":"CO","latitude":"6.02505000","longitude":"-73.57313000"},{"id":"20889","name":"Gir\u00f3n","state_id":2901,"state_code":"SAN","country_id":48,"country_code":"CO","latitude":"7.06820000","longitude":"-73.16981000"},{"id":"20895","name":"Guaca","state_id":2901,"state_code":"SAN","country_id":48,"country_code":"CO","latitude":"6.87621000","longitude":"-72.85594000"},{"id":"20902","name":"Guadalupe","state_id":2901,"state_code":"SAN","country_id":48,"country_code":"CO","latitude":"6.24640000","longitude":"-73.41833000"},{"id":"20910","name":"Guapot\u00e1","state_id":2901,"state_code":"SAN","country_id":48,"country_code":"CO","latitude":"6.30697000","longitude":"-73.32848000"},{"id":"20919","name":"Guavat\u00e1","state_id":2901,"state_code":"SAN","country_id":48,"country_code":"CO","latitude":"5.95502000","longitude":"-73.70018000"},{"id":"20936","name":"Hato","state_id":2901,"state_code":"SAN","country_id":48,"country_code":"CO","latitude":"6.56113000","longitude":"-73.35895000"},{"id":"20964","name":"Jes\u00fas Mar\u00eda","state_id":2901,"state_code":"SAN","country_id":48,"country_code":"CO","latitude":"5.87715000","longitude":"-73.78097000"},{"id":"20965","name":"Jord\u00e1n","state_id":2901,"state_code":"SAN","country_id":48,"country_code":"CO","latitude":"6.69857000","longitude":"-73.10966000"},{"id":"20971","name":"La Belleza","state_id":2901,"state_code":"SAN","country_id":48,"country_code":"CO","latitude":"5.86371000","longitude":"-73.96167000"},{"id":"20996","name":"La Paz","state_id":2901,"state_code":"SAN","country_id":48,"country_code":"CO","latitude":"6.17848000","longitude":"-73.58948000"},{"id":"21019","name":"Land\u00e1zuri","state_id":2901,"state_code":"SAN","country_id":48,"country_code":"CO","latitude":"6.21826000","longitude":"-73.81121000"},{"id":"21022","name":"Lebr\u00edja","state_id":2901,"state_code":"SAN","country_id":48,"country_code":"CO","latitude":"7.19714000","longitude":"-73.31566000"},{"id":"21021","name":"Lebrija","state_id":2901,"state_code":"SAN","country_id":48,"country_code":"CO","latitude":"7.11317000","longitude":"-73.21780000"},{"id":"21036","name":"Los Santos","state_id":2901,"state_code":"SAN","country_id":48,"country_code":"CO","latitude":"6.79734000","longitude":"-73.12490000"},{"id":"21043","name":"Macaravita","state_id":2901,"state_code":"SAN","country_id":48,"country_code":"CO","latitude":"6.50567000","longitude":"-72.59299000"},{"id":"21073","name":"Matanza","state_id":2901,"state_code":"SAN","country_id":48,"country_code":"CO","latitude":"7.35605000","longitude":"-73.05303000"},{"id":"21124","name":"M\u00e1laga","state_id":2901,"state_code":"SAN","country_id":48,"country_code":"CO","latitude":"6.69903000","longitude":"-72.73233000"},{"id":"21090","name":"Mogotes","state_id":2901,"state_code":"SAN","country_id":48,"country_code":"CO","latitude":"6.47559000","longitude":"-72.97046000"},{"id":"21091","name":"Molagavita","state_id":2901,"state_code":"SAN","country_id":48,"country_code":"CO","latitude":"6.67315000","longitude":"-72.80875000"},{"id":"21145","name":"Ocamonte","state_id":2901,"state_code":"SAN","country_id":48,"country_code":"CO","latitude":"6.34001000","longitude":"-73.12205000"},{"id":"21147","name":"Oiba","state_id":2901,"state_code":"SAN","country_id":48,"country_code":"CO","latitude":"6.26387000","longitude":"-73.29876000"},{"id":"21151","name":"Onzaga","state_id":2901,"state_code":"SAN","country_id":48,"country_code":"CO","latitude":"6.34434000","longitude":"-72.81726000"},{"id":"21170","name":"Palmar","state_id":2901,"state_code":"SAN","country_id":48,"country_code":"CO","latitude":"6.49740000","longitude":"-73.30740000"},{"id":"21172","name":"Palmas del Socorro","state_id":2901,"state_code":"SAN","country_id":48,"country_code":"CO","latitude":"6.40756000","longitude":"-73.28824000"},{"id":"21269","name":"P\u00e1ramo","state_id":2901,"state_code":"SAN","country_id":48,"country_code":"CO","latitude":"6.43750000","longitude":"-73.18027000"},{"id":"21199","name":"Piedecuesta","state_id":2901,"state_code":"SAN","country_id":48,"country_code":"CO","latitude":"6.97443000","longitude":"-73.02284000"},{"id":"21206","name":"Pinchote","state_id":2901,"state_code":"SAN","country_id":48,"country_code":"CO","latitude":"6.53226000","longitude":"-73.17309000"},{"id":"21229","name":"Puente Nacional","state_id":2901,"state_code":"SAN","country_id":48,"country_code":"CO","latitude":"5.87739000","longitude":"-73.67810000"},{"id":"21250","name":"Puerto Parra","state_id":2901,"state_code":"SAN","country_id":48,"country_code":"CO","latitude":"6.65149000","longitude":"-74.05734000"},{"id":"21259","name":"Puerto Wilches","state_id":2901,"state_code":"SAN","country_id":48,"country_code":"CO","latitude":"7.34828000","longitude":"-73.89601000"},{"id":"21292","name":"Rionegro","state_id":2901,"state_code":"SAN","country_id":48,"country_code":"CO","latitude":"7.50000000","longitude":"-73.33333000"},{"id":"21308","name":"Sabana de Torres","state_id":2901,"state_code":"SAN","country_id":48,"country_code":"CO","latitude":"7.39150000","longitude":"-73.49574000"},{"id":"21332","name":"San Andr\u00e9s","state_id":2901,"state_code":"SAN","country_id":48,"country_code":"CO","latitude":"6.81148000","longitude":"-72.84929000"},{"id":"21339","name":"San Benito","state_id":2901,"state_code":"SAN","country_id":48,"country_code":"CO","latitude":"6.10206000","longitude":"-73.53753000"},{"id":"21359","name":"San Gil","state_id":2901,"state_code":"SAN","country_id":48,"country_code":"CO","latitude":"6.55952000","longitude":"-73.13637000"},{"id":"21363","name":"San Joaqu\u00edn","state_id":2901,"state_code":"SAN","country_id":48,"country_code":"CO","latitude":"6.46554000","longitude":"-72.84852000"},{"id":"21367","name":"San Jos\u00e9 de Miranda","state_id":2901,"state_code":"SAN","country_id":48,"country_code":"CO","latitude":"6.63051000","longitude":"-72.73155000"},{"id":"21388","name":"San Miguel","state_id":2901,"state_code":"SAN","country_id":48,"country_code":"CO","latitude":"6.57583000","longitude":"-72.64591000"},{"id":"21408","name":"San Vicente de Chucur\u00ed","state_id":2901,"state_code":"SAN","country_id":48,"country_code":"CO","latitude":"6.88100000","longitude":"-73.40977000"},{"id":"21412","name":"Santa B\u00e1rbara","state_id":2901,"state_code":"SAN","country_id":48,"country_code":"CO","latitude":"6.99022000","longitude":"-72.90700000"},{"id":"21458","name":"Simacota","state_id":2901,"state_code":"SAN","country_id":48,"country_code":"CO","latitude":"6.44290000","longitude":"-73.33688000"},{"id":"21468","name":"Socorro","state_id":2901,"state_code":"SAN","country_id":48,"country_code":"CO","latitude":"6.45647000","longitude":"-73.25502000"},{"id":"21484","name":"Suaita","state_id":2901,"state_code":"SAN","country_id":48,"country_code":"CO","latitude":"6.08221000","longitude":"-73.37008000"},{"id":"21488","name":"Sucre","state_id":2901,"state_code":"SAN","country_id":48,"country_code":"CO","latitude":"5.96995000","longitude":"-73.96629000"},{"id":"21493","name":"Surat\u00e1","state_id":2901,"state_code":"SAN","country_id":48,"country_code":"CO","latitude":"7.36633000","longitude":"-72.98361000"},{"id":"21540","name":"Tona","state_id":2901,"state_code":"SAN","country_id":48,"country_code":"CO","latitude":"7.15727000","longitude":"-72.96559000"},{"id":"21579","name":"Valle de San Jos\u00e9","state_id":2901,"state_code":"SAN","country_id":48,"country_code":"CO","latitude":"6.41984000","longitude":"-73.12946000"},{"id":"21618","name":"V\u00e9lez","state_id":2901,"state_code":"SAN","country_id":48,"country_code":"CO","latitude":"6.23274000","longitude":"-73.72582000"},{"id":"21592","name":"Vetas","state_id":2901,"state_code":"SAN","country_id":48,"country_code":"CO","latitude":"7.30911000","longitude":"-72.87122000"},{"id":"21606","name":"Villanueva","state_id":2901,"state_code":"SAN","country_id":48,"country_code":"CO","latitude":"6.67169000","longitude":"-73.17421000"},{"id":"21630","name":"Zapatoca","state_id":2901,"state_code":"SAN","country_id":48,"country_code":"CO","latitude":"6.81532000","longitude":"-73.26768000"}]