[{"id":"20550","name":"Armenia","state_id":2874,"state_code":"QUI","country_id":48,"country_code":"CO","latitude":"4.53307000","longitude":"-75.70438000"},{"id":"20607","name":"Buenavista","state_id":2874,"state_code":"QUI","country_id":48,"country_code":"CO","latitude":"4.35969000","longitude":"-75.73888000"},{"id":"20629","name":"Calarca","state_id":2874,"state_code":"QUI","country_id":48,"country_code":"CO","latitude":"4.50000000","longitude":"-75.63333000"},{"id":"20630","name":"Calarc\u00e1","state_id":2874,"state_code":"QUI","country_id":48,"country_code":"CO","latitude":"4.52949000","longitude":"-75.64091000"},{"id":"20771","name":"C\u00f3rdoba","state_id":2874,"state_code":"QUI","country_id":48,"country_code":"CO","latitude":"4.38055000","longitude":"-75.66685000"},{"id":"20709","name":"Circasia","state_id":2874,"state_code":"QUI","country_id":48,"country_code":"CO","latitude":"4.59940000","longitude":"-75.68536000"},{"id":"20845","name":"Filandia","state_id":2874,"state_code":"QUI","country_id":48,"country_code":"CO","latitude":"4.67525000","longitude":"-75.67142000"},{"id":"20930","name":"G\u00e9nova","state_id":2874,"state_code":"QUI","country_id":48,"country_code":"CO","latitude":"4.22743000","longitude":"-75.75480000"},{"id":"21004","name":"La Tebaida","state_id":2874,"state_code":"QUI","country_id":48,"country_code":"CO","latitude":"4.43353000","longitude":"-75.81476000"},{"id":"21100","name":"Montenegro","state_id":2874,"state_code":"QUI","country_id":48,"country_code":"CO","latitude":"4.52676000","longitude":"-75.82265000"},{"id":"21204","name":"Pijao","state_id":2874,"state_code":"QUI","country_id":48,"country_code":"CO","latitude":"4.33350000","longitude":"-75.70463000"},{"id":"21273","name":"Quimbaya","state_id":2874,"state_code":"QUI","country_id":48,"country_code":"CO","latitude":"4.59342000","longitude":"-75.83758000"},{"id":"21322","name":"Salento","state_id":2874,"state_code":"QUI","country_id":48,"country_code":"CO","latitude":"4.63643000","longitude":"-75.56740000"},{"id":"20491","name":"Agua de Dios","state_id":2875,"state_code":"CUN","country_id":48,"country_code":"CO","latitude":"4.37648000","longitude":"-74.66995000"},{"id":"20501","name":"Alb\u00e1n","state_id":2875,"state_code":"CUN","country_id":48,"country_code":"CO","latitude":"4.89432000","longitude":"-74.44388000"},{"id":"20516","name":"Anapoima","state_id":2875,"state_code":"CUN","country_id":48,"country_code":"CO","latitude":"4.55099000","longitude":"-74.53517000"},{"id":"20523","name":"Anolaima","state_id":2875,"state_code":"CUN","country_id":48,"country_code":"CO","latitude":"4.83362000","longitude":"-74.49950000"},{"id":"20530","name":"Apulo","state_id":2875,"state_code":"CUN","country_id":48,"country_code":"CO","latitude":"4.51952000","longitude":"-74.59293000"},{"id":"20538","name":"Arbel\u00e1ez","state_id":2875,"state_code":"CUN","country_id":48,"country_code":"CO","latitude":"4.21251000","longitude":"-74.41464000"},{"id":"21640","name":"\u00datica","state_id":2875,"state_code":"CUN","country_id":48,"country_code":"CO","latitude":"5.16977000","longitude":"-74.50134000"},{"id":"20581","name":"Beltr\u00e1n","state_id":2875,"state_code":"CUN","country_id":48,"country_code":"CO","latitude":"4.71947000","longitude":"-74.75660000"},{"id":"20592","name":"Bituima","state_id":2875,"state_code":"CUN","country_id":48,"country_code":"CO","latitude":"4.87252000","longitude":"-74.53925000"},{"id":"20595","name":"Bojac\u00e1","state_id":2875,"state_code":"CUN","country_id":48,"country_code":"CO","latitude":"4.73176000","longitude":"-74.34129000"},{"id":"20615","name":"Cabrera","state_id":2875,"state_code":"CUN","country_id":48,"country_code":"CO","latitude":"3.98598000","longitude":"-74.48283000"},{"id":"20619","name":"Cachipay","state_id":2875,"state_code":"CUN","country_id":48,"country_code":"CO","latitude":"5.26667000","longitude":"-74.56667000"},{"id":"20626","name":"Cajic\u00e1","state_id":2875,"state_code":"CUN","country_id":48,"country_code":"CO","latitude":"4.91857000","longitude":"-74.02799000"},{"id":"20646","name":"Caparrap\u00ed","state_id":2875,"state_code":"CUN","country_id":48,"country_code":"CO","latitude":"5.34644000","longitude":"-74.49147000"},{"id":"20648","name":"Caqueza","state_id":2875,"state_code":"CUN","country_id":48,"country_code":"CO","latitude":"4.38708000","longitude":"-73.95722000"},{"id":"20655","name":"Carmen de Carupa","state_id":2875,"state_code":"CUN","country_id":48,"country_code":"CO","latitude":"5.34862000","longitude":"-73.90168000"},{"id":"20766","name":"C\u00e1queza","state_id":2875,"state_code":"CUN","country_id":48,"country_code":"CO","latitude":"4.40569000","longitude":"-73.94683000"},{"id":"20675","name":"Chaguan\u00ed","state_id":2875,"state_code":"CUN","country_id":48,"country_code":"CO","latitude":"4.94829000","longitude":"-74.59392000"},{"id":"20705","name":"Ch\u00eda","state_id":2875,"state_code":"CUN","country_id":48,"country_code":"CO","latitude":"4.84452000","longitude":"-74.05848000"},{"id":"20691","name":"Chipaque","state_id":2875,"state_code":"CUN","country_id":48,"country_code":"CO","latitude":"4.44250000","longitude":"-74.04417000"},{"id":"20702","name":"Choach\u00ed","state_id":2875,"state_code":"CUN","country_id":48,"country_code":"CO","latitude":"4.52897000","longitude":"-73.92273000"},{"id":"20703","name":"Chocont\u00e1","state_id":2875,"state_code":"CUN","country_id":48,"country_code":"CO","latitude":"5.14468000","longitude":"-73.68578000"},{"id":"20718","name":"Cogua","state_id":2875,"state_code":"CUN","country_id":48,"country_code":"CO","latitude":"5.06051000","longitude":"-73.97925000"},{"id":"20741","name":"Cota","state_id":2875,"state_code":"CUN","country_id":48,"country_code":"CO","latitude":"4.80938000","longitude":"-74.09800000"},{"id":"20752","name":"Cucunub\u00e1","state_id":2875,"state_code":"CUN","country_id":48,"country_code":"CO","latitude":"5.24958000","longitude":"-73.76610000"},{"id":"20803","name":"El Colegio","state_id":2875,"state_code":"CUN","country_id":48,"country_code":"CO","latitude":"4.56047000","longitude":"-74.42614000"},{"id":"20817","name":"El Pe\u00f1\u00f3n","state_id":2875,"state_code":"CUN","country_id":48,"country_code":"CO","latitude":"5.25264000","longitude":"-74.29069000"},{"id":"20826","name":"El Rosal","state_id":2875,"state_code":"CUN","country_id":48,"country_code":"CO","latitude":"4.85314000","longitude":"-74.25996000"},{"id":"20842","name":"Facatativ\u00e1","state_id":2875,"state_code":"CUN","country_id":48,"country_code":"CO","latitude":"4.81367000","longitude":"-74.35453000"},{"id":"20868","name":"F\u00f3meque","state_id":2875,"state_code":"CUN","country_id":48,"country_code":"CO","latitude":"4.48797000","longitude":"-73.89749000"},{"id":"20869","name":"F\u00faquene","state_id":2875,"state_code":"CUN","country_id":48,"country_code":"CO","latitude":"5.41988000","longitude":"-73.76997000"},{"id":"20854","name":"Fomeque","state_id":2875,"state_code":"CUN","country_id":48,"country_code":"CO","latitude":"4.52806000","longitude":"-73.78879000"},{"id":"20857","name":"Fosca","state_id":2875,"state_code":"CUN","country_id":48,"country_code":"CO","latitude":"4.33916000","longitude":"-73.93852000"},{"id":"20866","name":"Funza","state_id":2875,"state_code":"CUN","country_id":48,"country_code":"CO","latitude":"4.71638000","longitude":"-74.21195000"},{"id":"20867","name":"Fusagasug\u00e1","state_id":2875,"state_code":"CUN","country_id":48,"country_code":"CO","latitude":"4.33646000","longitude":"-74.36378000"},{"id":"20870","name":"Gachala","state_id":2875,"state_code":"CUN","country_id":48,"country_code":"CO","latitude":"4.66667000","longitude":"-73.50000000"},{"id":"20871","name":"Gachal\u00e1","state_id":2875,"state_code":"CUN","country_id":48,"country_code":"CO","latitude":"4.69244000","longitude":"-73.52042000"},{"id":"20872","name":"Gachancip\u00e1","state_id":2875,"state_code":"CUN","country_id":48,"country_code":"CO","latitude":"4.99111000","longitude":"-73.87154000"},{"id":"20874","name":"Gachet\u00e1","state_id":2875,"state_code":"CUN","country_id":48,"country_code":"CO","latitude":"4.87104000","longitude":"-73.61730000"},{"id":"20879","name":"Gama","state_id":2875,"state_code":"CUN","country_id":48,"country_code":"CO","latitude":"4.76288000","longitude":"-73.61091000"},{"id":"20886","name":"Girardot","state_id":2875,"state_code":"CUN","country_id":48,"country_code":"CO","latitude":"4.31802000","longitude":"-74.83504000"},{"id":"20887","name":"Girardot City","state_id":2875,"state_code":"CUN","country_id":48,"country_code":"CO","latitude":"4.30079000","longitude":"-74.80754000"},{"id":"20892","name":"Granada","state_id":2875,"state_code":"CUN","country_id":48,"country_code":"CO","latitude":"5.06667000","longitude":"-74.56667000"},{"id":"20898","name":"Guachet\u00e1","state_id":2875,"state_code":"CUN","country_id":48,"country_code":"CO","latitude":"5.38425000","longitude":"-73.68617000"},{"id":"20903","name":"Guaduas","state_id":2875,"state_code":"CUN","country_id":48,"country_code":"CO","latitude":"5.07430000","longitude":"-74.59854000"},{"id":"20914","name":"Guasca","state_id":2875,"state_code":"CUN","country_id":48,"country_code":"CO","latitude":"4.86601000","longitude":"-73.87748000"},{"id":"20916","name":"Guataqu\u00ed","state_id":2875,"state_code":"CUN","country_id":48,"country_code":"CO","latitude":"4.51573000","longitude":"-74.78935000"},{"id":"20917","name":"Guatavita","state_id":2875,"state_code":"CUN","country_id":48,"country_code":"CO","latitude":"4.93658000","longitude":"-73.83314000"},{"id":"20922","name":"Guayabal de S\u00edquima","state_id":2875,"state_code":"CUN","country_id":48,"country_code":"CO","latitude":"4.87739000","longitude":"-74.46744000"},{"id":"20921","name":"Guayabal de Siquima","state_id":2875,"state_code":"CUN","country_id":48,"country_code":"CO","latitude":"4.87881000","longitude":"-74.48306000"},{"id":"20923","name":"Guayabetal","state_id":2875,"state_code":"CUN","country_id":48,"country_code":"CO","latitude":"4.21472000","longitude":"-73.81719000"},{"id":"20925","name":"Guti\u00e9rrez","state_id":2875,"state_code":"CUN","country_id":48,"country_code":"CO","latitude":"4.18486000","longitude":"-74.01168000"},{"id":"20963","name":"Jerusal\u00e9n","state_id":2875,"state_code":"CUN","country_id":48,"country_code":"CO","latitude":"4.56309000","longitude":"-74.69519000"},{"id":"20968","name":"Jun\u00edn","state_id":2875,"state_code":"CUN","country_id":48,"country_code":"CO","latitude":"4.70725000","longitude":"-73.69549000"},{"id":"20972","name":"La Calera","state_id":2875,"state_code":"CUN","country_id":48,"country_code":"CO","latitude":"4.68678000","longitude":"-73.93590000"},{"id":"20993","name":"La Mesa","state_id":2875,"state_code":"CUN","country_id":48,"country_code":"CO","latitude":"4.65374000","longitude":"-74.47316000"},{"id":"20995","name":"La Palma","state_id":2875,"state_code":"CUN","country_id":48,"country_code":"CO","latitude":"5.31732000","longitude":"-74.43003000"},{"id":"20999","name":"La Pe\u00f1a","state_id":2875,"state_code":"CUN","country_id":48,"country_code":"CO","latitude":"5.19847000","longitude":"-74.39368000"},{"id":"21012","name":"La Vega","state_id":2875,"state_code":"CUN","country_id":48,"country_code":"CO","latitude":"4.97382000","longitude":"-74.34476000"},{"id":"21026","name":"Lenguazaque","state_id":2875,"state_code":"CUN","country_id":48,"country_code":"CO","latitude":"5.30711000","longitude":"-73.71152000"},{"id":"21045","name":"Macheta","state_id":2875,"state_code":"CUN","country_id":48,"country_code":"CO","latitude":"5.08333000","longitude":"-73.61667000"},{"id":"21046","name":"Machet\u00e1","state_id":2875,"state_code":"CUN","country_id":48,"country_code":"CO","latitude":"5.08154000","longitude":"-73.60761000"},{"id":"21047","name":"Madrid","state_id":2875,"state_code":"CUN","country_id":48,"country_code":"CO","latitude":"4.75564000","longitude":"-74.27708000"},{"id":"21060","name":"Manta","state_id":2875,"state_code":"CUN","country_id":48,"country_code":"CO","latitude":"4.95720000","longitude":"-73.58583000"},{"id":"21075","name":"Medina","state_id":2875,"state_code":"CUN","country_id":48,"country_code":"CO","latitude":"4.51005000","longitude":"-73.34982000"},{"id":"21109","name":"Mosquera","state_id":2875,"state_code":"CUN","country_id":48,"country_code":"CO","latitude":"4.68935000","longitude":"-74.23599000"},{"id":"21127","name":"Nari\u00f1o","state_id":2875,"state_code":"CUN","country_id":48,"country_code":"CO","latitude":"4.39913000","longitude":"-74.82239000"},{"id":"21132","name":"Nemoc\u00f3n","state_id":2875,"state_code":"CUN","country_id":48,"country_code":"CO","latitude":"5.06767000","longitude":"-73.87769000"},{"id":"21133","name":"Nilo","state_id":2875,"state_code":"CUN","country_id":48,"country_code":"CO","latitude":"4.30604000","longitude":"-74.62083000"},{"id":"21134","name":"Nimaima","state_id":2875,"state_code":"CUN","country_id":48,"country_code":"CO","latitude":"5.12614000","longitude":"-74.38495000"},{"id":"21136","name":"Nocaima","state_id":2875,"state_code":"CUN","country_id":48,"country_code":"CO","latitude":"5.06696000","longitude":"-74.38439000"},{"id":"21159","name":"Pacho","state_id":2875,"state_code":"CUN","country_id":48,"country_code":"CO","latitude":"5.13278000","longitude":"-74.15977000"},{"id":"21165","name":"Paime","state_id":2875,"state_code":"CUN","country_id":48,"country_code":"CO","latitude":"5.37054000","longitude":"-74.15219000"},{"id":"21179","name":"Pandi","state_id":2875,"state_code":"CUN","country_id":48,"country_code":"CO","latitude":"4.18032000","longitude":"-74.47099000"},{"id":"21182","name":"Paratebueno","state_id":2875,"state_code":"CUN","country_id":48,"country_code":"CO","latitude":"4.37575000","longitude":"-73.21547000"},{"id":"21183","name":"Pasca","state_id":2875,"state_code":"CUN","country_id":48,"country_code":"CO","latitude":"4.30722000","longitude":"-74.30056000"},{"id":"21235","name":"Puerto Bogot\u00e1","state_id":2875,"state_code":"CUN","country_id":48,"country_code":"CO","latitude":"5.19994000","longitude":"-74.72733000"},{"id":"21254","name":"Puerto Salgar","state_id":2875,"state_code":"CUN","country_id":48,"country_code":"CO","latitude":"5.61892000","longitude":"-74.58483000"},{"id":"21261","name":"Pul\u00ed","state_id":2875,"state_code":"CUN","country_id":48,"country_code":"CO","latitude":"4.68116000","longitude":"-74.71406000"},{"id":"21270","name":"Quebradanegra","state_id":2875,"state_code":"CUN","country_id":48,"country_code":"CO","latitude":"5.08262000","longitude":"-74.52117000"},{"id":"21271","name":"Quetame","state_id":2875,"state_code":"CUN","country_id":48,"country_code":"CO","latitude":"4.33234000","longitude":"-73.86141000"},{"id":"21275","name":"Quipile","state_id":2875,"state_code":"CUN","country_id":48,"country_code":"CO","latitude":"4.74517000","longitude":"-74.53378000"},{"id":"21287","name":"Ricaurte","state_id":2875,"state_code":"CUN","country_id":48,"country_code":"CO","latitude":"4.28075000","longitude":"-74.76469000"},{"id":"21338","name":"San Antonio del Tequendama","state_id":2875,"state_code":"CUN","country_id":48,"country_code":"CO","latitude":"4.61667000","longitude":"-74.35000000"},{"id":"21342","name":"San Bernardo","state_id":2875,"state_code":"CUN","country_id":48,"country_code":"CO","latitude":"4.12956000","longitude":"-74.35903000"},{"id":"21348","name":"San Cayetano","state_id":2875,"state_code":"CUN","country_id":48,"country_code":"CO","latitude":"5.31693000","longitude":"-74.07141000"},{"id":"21358","name":"San Francisco","state_id":2875,"state_code":"CUN","country_id":48,"country_code":"CO","latitude":"4.96335000","longitude":"-74.26613000"},{"id":"21375","name":"San Juan de R\u00edo Seco","state_id":2875,"state_code":"CUN","country_id":48,"country_code":"CO","latitude":"4.83077000","longitude":"-74.68248000"},{"id":"21446","name":"Sasaima","state_id":2875,"state_code":"CUN","country_id":48,"country_code":"CO","latitude":"4.96705000","longitude":"-74.43512000"},{"id":"21450","name":"Sesquil\u00e9","state_id":2875,"state_code":"CUN","country_id":48,"country_code":"CO","latitude":"5.04463000","longitude":"-73.79724000"},{"id":"21453","name":"Sibat\u00e9","state_id":2875,"state_code":"CUN","country_id":48,"country_code":"CO","latitude":"4.49154000","longitude":"-74.25957000"},{"id":"21456","name":"Silvania","state_id":2875,"state_code":"CUN","country_id":48,"country_code":"CO","latitude":"4.40367000","longitude":"-74.38670000"},{"id":"21459","name":"Simijaca","state_id":2875,"state_code":"CUN","country_id":48,"country_code":"CO","latitude":"5.50415000","longitude":"-73.86944000"},{"id":"21464","name":"Soacha","state_id":2875,"state_code":"CUN","country_id":48,"country_code":"CO","latitude":"4.57937000","longitude":"-74.21682000"},{"id":"21478","name":"Sop\u00f3","state_id":2875,"state_code":"CUN","country_id":48,"country_code":"CO","latitude":"4.90750000","longitude":"-73.93840000"},{"id":"21486","name":"Subachoque","state_id":2875,"state_code":"CUN","country_id":48,"country_code":"CO","latitude":"4.92614000","longitude":"-74.17299000"},{"id":"21490","name":"Suesca","state_id":2875,"state_code":"CUN","country_id":48,"country_code":"CO","latitude":"5.10289000","longitude":"-73.79845000"},{"id":"21491","name":"Supat\u00e1","state_id":2875,"state_code":"CUN","country_id":48,"country_code":"CO","latitude":"5.06097000","longitude":"-74.23721000"},{"id":"21494","name":"Susa","state_id":2875,"state_code":"CUN","country_id":48,"country_code":"CO","latitude":"5.42700000","longitude":"-73.84786000"},{"id":"21497","name":"Sutatausa","state_id":2875,"state_code":"CUN","country_id":48,"country_code":"CO","latitude":"5.24779000","longitude":"-73.85238000"},{"id":"21503","name":"Tabio","state_id":2875,"state_code":"CUN","country_id":48,"country_code":"CO","latitude":"4.91726000","longitude":"-74.09364000"},{"id":"21517","name":"Tausa","state_id":2875,"state_code":"CUN","country_id":48,"country_code":"CO","latitude":"5.19903000","longitude":"-73.89128000"},{"id":"21518","name":"Tena","state_id":2875,"state_code":"CUN","country_id":48,"country_code":"CO","latitude":"4.66001000","longitude":"-74.39258000"},{"id":"21520","name":"Tenjo","state_id":2875,"state_code":"CUN","country_id":48,"country_code":"CO","latitude":"4.87270000","longitude":"-74.14435000"},{"id":"21522","name":"Tibacuy","state_id":2875,"state_code":"CUN","country_id":48,"country_code":"CO","latitude":"4.30606000","longitude":"-74.51639000"},{"id":"21525","name":"Tibirita","state_id":2875,"state_code":"CUN","country_id":48,"country_code":"CO","latitude":"5.05227000","longitude":"-73.50459000"},{"id":"21534","name":"Tocaima","state_id":2875,"state_code":"CUN","country_id":48,"country_code":"CO","latitude":"4.46073000","longitude":"-74.65722000"},{"id":"21535","name":"Tocancip\u00e1","state_id":2875,"state_code":"CUN","country_id":48,"country_code":"CO","latitude":"4.96531000","longitude":"-73.91301000"},{"id":"21541","name":"Topaip\u00ed","state_id":2875,"state_code":"CUN","country_id":48,"country_code":"CO","latitude":"5.33457000","longitude":"-74.30292000"},{"id":"21565","name":"Ubal\u00e1","state_id":2875,"state_code":"CUN","country_id":48,"country_code":"CO","latitude":"4.74778000","longitude":"-72.53694000"},{"id":"21566","name":"Ubaque","state_id":2875,"state_code":"CUN","country_id":48,"country_code":"CO","latitude":"4.48667000","longitude":"-73.93748000"},{"id":"21569","name":"Une","state_id":2875,"state_code":"CUN","country_id":48,"country_code":"CO","latitude":"4.30691000","longitude":"-74.07104000"},{"id":"21587","name":"Venecia","state_id":2875,"state_code":"CUN","country_id":48,"country_code":"CO","latitude":"4.08808000","longitude":"-74.47746000"},{"id":"21590","name":"Vergara","state_id":2875,"state_code":"CUN","country_id":48,"country_code":"CO","latitude":"5.13600000","longitude":"-74.31539000"},{"id":"21593","name":"Vian\u00ed","state_id":2875,"state_code":"CUN","country_id":48,"country_code":"CO","latitude":"4.89579000","longitude":"-74.55398000"},{"id":"21600","name":"Villa de San Diego de Ubat\u00e9","state_id":2875,"state_code":"CUN","country_id":48,"country_code":"CO","latitude":"5.30933000","longitude":"-73.81575000"},{"id":"21599","name":"Villa de San Diego de Ubate","state_id":2875,"state_code":"CUN","country_id":48,"country_code":"CO","latitude":"5.31544000","longitude":"-73.82045000"},{"id":"21603","name":"Villag\u00f3mez","state_id":2875,"state_code":"CUN","country_id":48,"country_code":"CO","latitude":"5.27372000","longitude":"-74.19614000"},{"id":"21610","name":"Villapinz\u00f3n","state_id":2875,"state_code":"CUN","country_id":48,"country_code":"CO","latitude":"5.21617000","longitude":"-73.59490000"},{"id":"21613","name":"Villeta","state_id":2875,"state_code":"CUN","country_id":48,"country_code":"CO","latitude":"5.00008000","longitude":"-74.50498000"},{"id":"21614","name":"Viot\u00e1","state_id":2875,"state_code":"CUN","country_id":48,"country_code":"CO","latitude":"4.43713000","longitude":"-74.52157000"},{"id":"21619","name":"Yacop\u00ed","state_id":2875,"state_code":"CUN","country_id":48,"country_code":"CO","latitude":"5.45948000","longitude":"-74.33823000"},{"id":"21635","name":"Zipac\u00f3n","state_id":2875,"state_code":"CUN","country_id":48,"country_code":"CO","latitude":"4.75881000","longitude":"-74.38017000"},{"id":"21636","name":"Zipaquir\u00e1","state_id":2875,"state_code":"CUN","country_id":48,"country_code":"CO","latitude":"5.02208000","longitude":"-74.00481000"},{"id":"20489","name":"Acand\u00ed","state_id":2876,"state_code":"CHO","country_id":48,"country_code":"CO","latitude":"8.51158000","longitude":"-77.27719000"},{"id":"20509","name":"Alto Baudo","state_id":2876,"state_code":"CHO","country_id":48,"country_code":"CO","latitude":"5.60464000","longitude":"-77.06975000"},{"id":"20557","name":"Atrato","state_id":2876,"state_code":"CHO","country_id":48,"country_code":"CO","latitude":"5.57362000","longitude":"-76.64063000"},{"id":"20559","name":"Bagad\u00f3","state_id":2876,"state_code":"CHO","country_id":48,"country_code":"CO","latitude":"5.41164000","longitude":"-76.41520000"},{"id":"20560","name":"Bah\u00eda Solano","state_id":2876,"state_code":"CHO","country_id":48,"country_code":"CO","latitude":"6.22520000","longitude":"-77.39147000"},{"id":"20561","name":"Bajo Baud\u00f3","state_id":2876,"state_code":"CHO","country_id":48,"country_code":"CO","latitude":"4.90181000","longitude":"-77.22771000"},{"id":"20578","name":"Bellavista","state_id":2876,"state_code":"CHO","country_id":48,"country_code":"CO","latitude":"6.55645000","longitude":"-76.88389000"},{"id":"20596","name":"Bojaya","state_id":2876,"state_code":"CHO","country_id":48,"country_code":"CO","latitude":"6.50000000","longitude":"-77.10000000"},{"id":"20657","name":"Carmen del Darien","state_id":2876,"state_code":"CHO","country_id":48,"country_code":"CO","latitude":"7.03639000","longitude":"-76.95222000"},{"id":"20767","name":"C\u00e9rtegui","state_id":2876,"state_code":"CHO","country_id":48,"country_code":"CO","latitude":"5.37073000","longitude":"-76.60440000"},{"id":"20728","name":"Condoto","state_id":2876,"state_code":"CHO","country_id":48,"country_code":"CO","latitude":"5.09351000","longitude":"-76.64973000"},{"id":"20791","name":"El Cant\u00f3n de San Pablo","state_id":2876,"state_code":"CHO","country_id":48,"country_code":"CO","latitude":"5.33889000","longitude":"-76.73139000"},{"id":"20792","name":"El Cant\u00f3n del San Pablo","state_id":2876,"state_code":"CHO","country_id":48,"country_code":"CO","latitude":"5.35989000","longitude":"-76.77280000"},{"id":"20794","name":"El Carmen","state_id":2876,"state_code":"CHO","country_id":48,"country_code":"CO","latitude":"5.88778000","longitude":"-75.16417000"},{"id":"20795","name":"El Carmen de Atrato","state_id":2876,"state_code":"CHO","country_id":48,"country_code":"CO","latitude":"5.83333000","longitude":"-76.25000000"},{"id":"20811","name":"El Litoral del San Juan","state_id":2876,"state_code":"CHO","country_id":48,"country_code":"CO","latitude":"4.25070000","longitude":"-76.96926000"},{"id":"20952","name":"Istmina","state_id":2876,"state_code":"CHO","country_id":48,"country_code":"CO","latitude":"5.16054000","longitude":"-76.68397000"},{"id":"20969","name":"Jurad\u00f3","state_id":2876,"state_code":"CHO","country_id":48,"country_code":"CO","latitude":"7.10421000","longitude":"-77.76200000"},{"id":"21030","name":"Llor\u00f3","state_id":2876,"state_code":"CHO","country_id":48,"country_code":"CO","latitude":"5.49605000","longitude":"-76.54945000"},{"id":"21076","name":"Medio Atrato","state_id":2876,"state_code":"CHO","country_id":48,"country_code":"CO","latitude":"5.99500000","longitude":"-76.78250000"},{"id":"21077","name":"Medio Baud\u00f3","state_id":2876,"state_code":"CHO","country_id":48,"country_code":"CO","latitude":"5.05000000","longitude":"-77.05000000"},{"id":"21078","name":"Medio San Juan","state_id":2876,"state_code":"CHO","country_id":48,"country_code":"CO","latitude":"5.09278000","longitude":"-76.69528000"},{"id":"21143","name":"N\u00f3vita","state_id":2876,"state_code":"CHO","country_id":48,"country_code":"CO","latitude":"4.95511000","longitude":"-76.60526000"},{"id":"21142","name":"Nuqu\u00ed","state_id":2876,"state_code":"CHO","country_id":48,"country_code":"CO","latitude":"5.71250000","longitude":"-77.27083000"},{"id":"21198","name":"Pie de Pat\u00f3","state_id":2876,"state_code":"CHO","country_id":48,"country_code":"CO","latitude":"5.51604000","longitude":"-76.97449000"},{"id":"21211","name":"Pizarro","state_id":2876,"state_code":"CHO","country_id":48,"country_code":"CO","latitude":"4.95334000","longitude":"-77.36598000"},{"id":"21272","name":"Quibd\u00f3","state_id":2876,"state_code":"CHO","country_id":48,"country_code":"CO","latitude":"5.76075000","longitude":"-76.83701000"},{"id":"21304","name":"R\u00edo Iro","state_id":2876,"state_code":"CHO","country_id":48,"country_code":"CO","latitude":"5.18333000","longitude":"-76.48330000"},{"id":"21305","name":"R\u00edo Quito","state_id":2876,"state_code":"CHO","country_id":48,"country_code":"CO","latitude":"5.51667000","longitude":"-76.75000000"},{"id":"21295","name":"Riosucio","state_id":2876,"state_code":"CHO","country_id":48,"country_code":"CO","latitude":"7.41667000","longitude":"-77.16667000"},{"id":"21371","name":"San Jos\u00e9 del Palmar","state_id":2876,"state_code":"CHO","country_id":48,"country_code":"CO","latitude":"4.89616000","longitude":"-76.23422000"},{"id":"21418","name":"Santa Genoveva de Docord\u00f3","state_id":2876,"state_code":"CHO","country_id":48,"country_code":"CO","latitude":"4.25875000","longitude":"-77.36516000"},{"id":"21462","name":"Sip\u00ed","state_id":2876,"state_code":"CHO","country_id":48,"country_code":"CO","latitude":"4.65374000","longitude":"-76.64442000"},{"id":"21504","name":"Tad\u00f3","state_id":2876,"state_code":"CHO","country_id":48,"country_code":"CO","latitude":"5.26598000","longitude":"-76.56487000"},{"id":"21570","name":"Ungu\u00eda","state_id":2876,"state_code":"CHO","country_id":48,"country_code":"CO","latitude":"8.04364000","longitude":"-77.09137000"},{"id":"21571","name":"Uni\u00f3n Panamericana","state_id":2876,"state_code":"CHO","country_id":48,"country_code":"CO","latitude":"5.28139000","longitude":"-76.63000000"},{"id":"20486","name":"Abrego","state_id":2877,"state_code":"NSA","country_id":48,"country_code":"CO","latitude":"8.00000000","longitude":"-73.20000000"},{"id":"20540","name":"Arboledas","state_id":2877,"state_code":"NSA","country_id":48,"country_code":"CO","latitude":"7.63494000","longitude":"-72.86050000"},{"id":"21638","name":"\u00c1brego","state_id":2877,"state_code":"NSA","country_id":48,"country_code":"CO","latitude":"8.08065000","longitude":"-73.22054000"},{"id":"20594","name":"Bochalema","state_id":2877,"state_code":"NSA","country_id":48,"country_code":"CO","latitude":"7.60217000","longitude":"-72.68839000"},{"id":"20604","name":"Bucarasica","state_id":2877,"state_code":"NSA","country_id":48,"country_code":"CO","latitude":"8.04096000","longitude":"-72.86538000"},{"id":"20620","name":"Cachir\u00e1","state_id":2877,"state_code":"NSA","country_id":48,"country_code":"CO","latitude":"7.75000000","longitude":"-73.16667000"},{"id":"20764","name":"C\u00e1chira","state_id":2877,"state_code":"NSA","country_id":48,"country_code":"CO","latitude":"7.74104000","longitude":"-73.04830000"},{"id":"20765","name":"C\u00e1cota","state_id":2877,"state_code":"NSA","country_id":48,"country_code":"CO","latitude":"7.26787000","longitude":"-72.64197000"},{"id":"20772","name":"C\u00facuta","state_id":2877,"state_code":"NSA","country_id":48,"country_code":"CO","latitude":"7.89391000","longitude":"-72.50782000"},{"id":"20689","name":"Chin\u00e1cota","state_id":2877,"state_code":"NSA","country_id":48,"country_code":"CO","latitude":"7.60731000","longitude":"-72.60108000"},{"id":"20697","name":"Chitag\u00e1","state_id":2877,"state_code":"NSA","country_id":48,"country_code":"CO","latitude":"7.13781000","longitude":"-72.66456000"},{"id":"20734","name":"Convenci\u00f3n","state_id":2877,"state_code":"NSA","country_id":48,"country_code":"CO","latitude":"8.82242000","longitude":"-73.22850000"},{"id":"20753","name":"Cucutilla","state_id":2877,"state_code":"NSA","country_id":48,"country_code":"CO","latitude":"7.53941000","longitude":"-72.77238000"},{"id":"20784","name":"Durania","state_id":2877,"state_code":"NSA","country_id":48,"country_code":"CO","latitude":"7.71307000","longitude":"-72.65759000"},{"id":"20793","name":"El Carmen","state_id":2877,"state_code":"NSA","country_id":48,"country_code":"CO","latitude":"8.51064000","longitude":"-73.44776000"},{"id":"20833","name":"El Tarra","state_id":2877,"state_code":"NSA","country_id":48,"country_code":"CO","latitude":"8.57562000","longitude":"-73.09489000"},{"id":"20834","name":"El Zulia","state_id":2877,"state_code":"NSA","country_id":48,"country_code":"CO","latitude":"7.93248000","longitude":"-72.60125000"},{"id":"20891","name":"Gramalote","state_id":2877,"state_code":"NSA","country_id":48,"country_code":"CO","latitude":"7.88752000","longitude":"-72.79749000"},{"id":"20934","name":"Hacar\u00ed","state_id":2877,"state_code":"NSA","country_id":48,"country_code":"CO","latitude":"8.32333000","longitude":"-73.14889000"},{"id":"20940","name":"Herr\u00e1n","state_id":2877,"state_code":"NSA","country_id":48,"country_code":"CO","latitude":"7.50611000","longitude":"-72.48332000"},{"id":"20982","name":"La Esperanza","state_id":2877,"state_code":"NSA","country_id":48,"country_code":"CO","latitude":"8.21043000","longitude":"-72.46399000"},{"id":"21001","name":"La Playa","state_id":2877,"state_code":"NSA","country_id":48,"country_code":"CO","latitude":"8.25833000","longitude":"-73.19222000"},{"id":"21017","name":"Labateca","state_id":2877,"state_code":"NSA","country_id":48,"country_code":"CO","latitude":"7.24558000","longitude":"-72.55286000"},{"id":"21035","name":"Los Patios","state_id":2877,"state_code":"NSA","country_id":48,"country_code":"CO","latitude":"7.83793000","longitude":"-72.50370000"},{"id":"21037","name":"Lourdes","state_id":2877,"state_code":"NSA","country_id":48,"country_code":"CO","latitude":"7.96774000","longitude":"-72.84519000"},{"id":"21122","name":"Mutiscua","state_id":2877,"state_code":"NSA","country_id":48,"country_code":"CO","latitude":"7.29810000","longitude":"-72.79879000"},{"id":"21146","name":"Oca\u00f1a","state_id":2877,"state_code":"NSA","country_id":48,"country_code":"CO","latitude":"8.23773000","longitude":"-73.35604000"},{"id":"21176","name":"Pamplona","state_id":2877,"state_code":"NSA","country_id":48,"country_code":"CO","latitude":"7.37565000","longitude":"-72.64795000"},{"id":"21177","name":"Pamplonita","state_id":2877,"state_code":"NSA","country_id":48,"country_code":"CO","latitude":"7.45814000","longitude":"-72.65965000"},{"id":"21255","name":"Puerto Santander","state_id":2877,"state_code":"NSA","country_id":48,"country_code":"CO","latitude":"8.36361000","longitude":"-72.40630000"},{"id":"21277","name":"Ragonvalia","state_id":2877,"state_code":"NSA","country_id":48,"country_code":"CO","latitude":"7.57749000","longitude":"-72.47574000"},{"id":"21320","name":"Salazar","state_id":2877,"state_code":"NSA","country_id":48,"country_code":"CO","latitude":"7.78249000","longitude":"-72.85741000"},{"id":"21344","name":"San Calixto","state_id":2877,"state_code":"NSA","country_id":48,"country_code":"CO","latitude":"8.40210000","longitude":"-73.20737000"},{"id":"21349","name":"San Cayetano","state_id":2877,"state_code":"NSA","country_id":48,"country_code":"CO","latitude":"7.84771000","longitude":"-72.61014000"},{"id":"21436","name":"Santiago","state_id":2877,"state_code":"NSA","country_id":48,"country_code":"CO","latitude":"7.86930000","longitude":"-72.73753000"},{"id":"21445","name":"Sardinata","state_id":2877,"state_code":"NSA","country_id":48,"country_code":"CO","latitude":"8.08289000","longitude":"-72.80071000"},{"id":"21455","name":"Silos","state_id":2877,"state_code":"NSA","country_id":48,"country_code":"CO","latitude":"7.20524000","longitude":"-72.75639000"},{"id":"21526","name":"Tib\u00fa","state_id":2877,"state_code":"NSA","country_id":48,"country_code":"CO","latitude":"8.63895000","longitude":"-72.73583000"},{"id":"21538","name":"Toledo","state_id":2877,"state_code":"NSA","country_id":48,"country_code":"CO","latitude":"7.30984000","longitude":"-72.48295000"},{"id":"21601","name":"Villa del Rosario","state_id":2877,"state_code":"NSA","country_id":48,"country_code":"CO","latitude":"7.75816000","longitude":"-72.48182000"},{"id":"20488","name":"Acac\u00edas","state_id":2878,"state_code":"MET","country_id":48,"country_code":"CO","latitude":"3.98695000","longitude":"-73.75797000"},{"id":"20569","name":"Barranca de Up\u00eda","state_id":2878,"state_code":"MET","country_id":48,"country_code":"CO","latitude":"4.56963000","longitude":"-72.96676000"},{"id":"20617","name":"Cabuyaro","state_id":2878,"state_code":"MET","country_id":48,"country_code":"CO","latitude":"4.28170000","longitude":"-72.79399000"},{"id":"20665","name":"Castilla la Nueva","state_id":2878,"state_code":"MET","country_id":48,"country_code":"CO","latitude":"3.82722000","longitude":"-73.68831000"},{"id":"20749","name":"Cubarral","state_id":2878,"state_code":"MET","country_id":48,"country_code":"CO","latitude":"3.79536000","longitude":"-73.84063000"},{"id":"20754","name":"Cumaral","state_id":2878,"state_code":"MET","country_id":48,"country_code":"CO","latitude":"4.23814000","longitude":"-73.34101000"},{"id":"20790","name":"El Calvario","state_id":2878,"state_code":"MET","country_id":48,"country_code":"CO","latitude":"4.35426000","longitude":"-73.74431000"},{"id":"20799","name":"El Castillo","state_id":2878,"state_code":"MET","country_id":48,"country_code":"CO","latitude":"3.56363000","longitude":"-73.79488000"},{"id":"20863","name":"Fuente de Oro","state_id":2878,"state_code":"MET","country_id":48,"country_code":"CO","latitude":"3.46263000","longitude":"-73.62162000"},{"id":"20894","name":"Granada","state_id":2878,"state_code":"MET","country_id":48,"country_code":"CO","latitude":"3.54625000","longitude":"-73.70687000"},{"id":"20906","name":"Guamal","state_id":2878,"state_code":"MET","country_id":48,"country_code":"CO","latitude":"3.88043000","longitude":"-73.76566000"},{"id":"20990","name":"La Macarena","state_id":2878,"state_code":"MET","country_id":48,"country_code":"CO","latitude":"2.00702000","longitude":"-74.07320000"},{"id":"21025","name":"Lejan\u00edas","state_id":2878,"state_code":"MET","country_id":48,"country_code":"CO","latitude":"3.52762000","longitude":"-74.02335000"},{"id":"21064","name":"Mapirip\u00e1n","state_id":2878,"state_code":"MET","country_id":48,"country_code":"CO","latitude":"2.89115000","longitude":"-72.13328000"},{"id":"21081","name":"Mesetas","state_id":2878,"state_code":"MET","country_id":48,"country_code":"CO","latitude":"3.38463000","longitude":"-74.04424000"},{"id":"21240","name":"Puerto Concordia","state_id":2878,"state_code":"MET","country_id":48,"country_code":"CO","latitude":"2.62206000","longitude":"-72.75724000"},{"id":"21242","name":"Puerto Gait\u00e1n","state_id":2878,"state_code":"MET","country_id":48,"country_code":"CO","latitude":"4.31328000","longitude":"-72.08157000"},{"id":"21247","name":"Puerto L\u00f3pez","state_id":2878,"state_code":"MET","country_id":48,"country_code":"CO","latitude":"4.04426000","longitude":"-72.65731000"},{"id":"21246","name":"Puerto Lleras","state_id":2878,"state_code":"MET","country_id":48,"country_code":"CO","latitude":"3.21794000","longitude":"-73.23215000"},{"id":"21252","name":"Puerto Rico","state_id":2878,"state_code":"MET","country_id":48,"country_code":"CO","latitude":"2.78273000","longitude":"-73.13956000"},{"id":"21260","name":"Puerto Yuca","state_id":2878,"state_code":"MET","country_id":48,"country_code":"CO","latitude":"2.93833000","longitude":"-73.20833000"},{"id":"21284","name":"Restrepo","state_id":2878,"state_code":"MET","country_id":48,"country_code":"CO","latitude":"4.25833000","longitude":"-73.56142000"},{"id":"21347","name":"San Carlos de Guaroa","state_id":2878,"state_code":"MET","country_id":48,"country_code":"CO","latitude":"3.71161000","longitude":"-73.24344000"},{"id":"21373","name":"San Juan de Arama","state_id":2878,"state_code":"MET","country_id":48,"country_code":"CO","latitude":"3.29034000","longitude":"-73.82065000"},{"id":"21385","name":"San Mart\u00edn","state_id":2878,"state_code":"MET","country_id":48,"country_code":"CO","latitude":"3.50819000","longitude":"-73.03975000"},{"id":"21612","name":"Villavicencio","state_id":2878,"state_code":"MET","country_id":48,"country_code":"CO","latitude":"4.07424000","longitude":"-73.49150000"},{"id":"21616","name":"Vistahermosa","state_id":2878,"state_code":"MET","country_id":48,"country_code":"CO","latitude":"3.12428000","longitude":"-73.75156000"},{"id":"20524","name":"Anserma","state_id":2879,"state_code":"RIS","country_id":48,"country_code":"CO","latitude":"5.33278000","longitude":"-75.79111000"},{"id":"20531","name":"Ap\u00eda","state_id":2879,"state_code":"RIS","country_id":48,"country_code":"CO","latitude":"5.10658000","longitude":"-75.94244000"},{"id":"20563","name":"Balboa","state_id":2879,"state_code":"RIS","country_id":48,"country_code":"CO","latitude":"4.92284000","longitude":"-75.94030000"},{"id":"20585","name":"Bel\u00e9n de Umbr\u00eda","state_id":2879,"state_code":"RIS","country_id":48,"country_code":"CO","latitude":"5.20087000","longitude":"-75.86865000"},{"id":"20782","name":"Dosquebradas","state_id":2879,"state_code":"RIS","country_id":48,"country_code":"CO","latitude":"4.83916000","longitude":"-75.66727000"},{"id":"20926","name":"Gu\u00e1tica","state_id":2879,"state_code":"RIS","country_id":48,"country_code":"CO","latitude":"5.31569000","longitude":"-75.79826000"},{"id":"20975","name":"La Celia","state_id":2879,"state_code":"RIS","country_id":48,"country_code":"CO","latitude":"5.00332000","longitude":"-76.00355000"},{"id":"20991","name":"La Merced","state_id":2879,"state_code":"RIS","country_id":48,"country_code":"CO","latitude":"5.40194000","longitude":"-75.88472000"},{"id":"21016","name":"La Virginia","state_id":2879,"state_code":"RIS","country_id":48,"country_code":"CO","latitude":"4.89972000","longitude":"-75.88250000"},{"id":"21070","name":"Marsella","state_id":2879,"state_code":"RIS","country_id":48,"country_code":"CO","latitude":"4.95238000","longitude":"-75.75265000"},{"id":"21087","name":"Mistrat\u00f3","state_id":2879,"state_code":"RIS","country_id":48,"country_code":"CO","latitude":"5.29622000","longitude":"-75.88390000"},{"id":"21195","name":"Pereira","state_id":2879,"state_code":"RIS","country_id":48,"country_code":"CO","latitude":"4.76896000","longitude":"-75.72222000"},{"id":"21226","name":"Pueblo Rico","state_id":2879,"state_code":"RIS","country_id":48,"country_code":"CO","latitude":"5.29453000","longitude":"-76.06702000"},{"id":"21274","name":"Quinch\u00eda","state_id":2879,"state_code":"RIS","country_id":48,"country_code":"CO","latitude":"5.33957000","longitude":"-75.73018000"},{"id":"21424","name":"Santa Rosa de Cabal","state_id":2879,"state_code":"RIS","country_id":48,"country_code":"CO","latitude":"4.86806000","longitude":"-75.62139000"},{"id":"21442","name":"Santuario","state_id":2879,"state_code":"RIS","country_id":48,"country_code":"CO","latitude":"5.05321000","longitude":"-75.99060000"},{"id":"20564","name":"Baranoa","state_id":2880,"state_code":"ATL","country_id":48,"country_code":"CO","latitude":"10.79497000","longitude":"-74.92073000"},{"id":"20574","name":"Barranquilla","state_id":2880,"state_code":"ATL","country_id":48,"country_code":"CO","latitude":"10.96854000","longitude":"-74.78132000"},{"id":"20640","name":"Campo de la Cruz","state_id":2880,"state_code":"ATL","country_id":48,"country_code":"CO","latitude":"10.37844000","longitude":"-74.90258000"},{"id":"20643","name":"Candelaria","state_id":2880,"state_code":"ATL","country_id":48,"country_code":"CO","latitude":"10.47387000","longitude":"-74.88581000"},{"id":"20876","name":"Galapa","state_id":2880,"state_code":"ATL","country_id":48,"country_code":"CO","latitude":"10.89790000","longitude":"-74.88700000"},{"id":"20966","name":"Juan de Acosta","state_id":2880,"state_code":"ATL","country_id":48,"country_code":"CO","latitude":"10.82930000","longitude":"-75.03346000"},{"id":"21038","name":"Luruaco","state_id":2880,"state_code":"ATL","country_id":48,"country_code":"CO","latitude":"10.61712000","longitude":"-75.15146000"},{"id":"21053","name":"Malambo","state_id":2880,"state_code":"ATL","country_id":48,"country_code":"CO","latitude":"10.85953000","longitude":"-74.77386000"},{"id":"21055","name":"Manat\u00ed","state_id":2880,"state_code":"ATL","country_id":48,"country_code":"CO","latitude":"10.46402000","longitude":"-74.98220000"},{"id":"21171","name":"Palmar de Varela","state_id":2880,"state_code":"ATL","country_id":48,"country_code":"CO","latitude":"10.74055000","longitude":"-74.75443000"},{"id":"21208","name":"Pioj\u00f3","state_id":2880,"state_code":"ATL","country_id":48,"country_code":"CO","latitude":"10.74846000","longitude":"-75.10776000"},{"id":"21217","name":"Polonuevo","state_id":2880,"state_code":"ATL","country_id":48,"country_code":"CO","latitude":"10.77697000","longitude":"-74.85344000"},{"id":"21218","name":"Ponedera","state_id":2880,"state_code":"ATL","country_id":48,"country_code":"CO","latitude":"10.64297000","longitude":"-74.75393000"},{"id":"21238","name":"Puerto Colombia","state_id":2880,"state_code":"ATL","country_id":48,"country_code":"CO","latitude":"11.00854000","longitude":"-74.90887000"},{"id":"21283","name":"Repel\u00f3n","state_id":2880,"state_code":"ATL","country_id":48,"country_code":"CO","latitude":"10.50937000","longitude":"-75.12830000"},{"id":"21309","name":"Sabanagrande","state_id":2880,"state_code":"ATL","country_id":48,"country_code":"CO","latitude":"10.80077000","longitude":"-74.77051000"},{"id":"21312","name":"Sabanalarga","state_id":2880,"state_code":"ATL","country_id":48,"country_code":"CO","latitude":"10.61636000","longitude":"-74.95717000"},{"id":"21420","name":"Santa Luc\u00eda","state_id":2880,"state_code":"ATL","country_id":48,"country_code":"CO","latitude":"10.32420000","longitude":"-74.96017000"},{"id":"21440","name":"Santo Tom\u00e1s","state_id":2880,"state_code":"ATL","country_id":48,"country_code":"CO","latitude":"10.75773000","longitude":"-74.75451000"},{"id":"21472","name":"Soledad","state_id":2880,"state_code":"ATL","country_id":48,"country_code":"CO","latitude":"10.89986000","longitude":"-74.78787000"},{"id":"21485","name":"Suan","state_id":2880,"state_code":"ATL","country_id":48,"country_code":"CO","latitude":"10.30214000","longitude":"-74.91934000"},{"id":"21550","name":"Tubar\u00e1","state_id":2880,"state_code":"ATL","country_id":48,"country_code":"CO","latitude":"10.87562000","longitude":"-74.97873000"},{"id":"21576","name":"Usiacur\u00ed","state_id":2880,"state_code":"ATL","country_id":48,"country_code":"CO","latitude":"10.74313000","longitude":"-74.97604000"},{"id":"20536","name":"Arauca","state_id":2881,"state_code":"ARA","country_id":48,"country_code":"CO","latitude":"7.08471000","longitude":"-70.75908000"},{"id":"20537","name":"Arauquita","state_id":2881,"state_code":"ARA","country_id":48,"country_code":"CO","latitude":"7.02917000","longitude":"-71.42806000"},{"id":"20746","name":"Cravo Norte","state_id":2881,"state_code":"ARA","country_id":48,"country_code":"CO","latitude":"6.30173000","longitude":"-70.20415000"},{"id":"20856","name":"Fortul","state_id":2881,"state_code":"ARA","country_id":48,"country_code":"CO","latitude":"6.74611000","longitude":"-71.85667000"},{"id":"21253","name":"Puerto Rond\u00f3n","state_id":2881,"state_code":"ARA","country_id":48,"country_code":"CO","latitude":"6.28048000","longitude":"-71.10000000"},{"id":"21444","name":"Saravena","state_id":2881,"state_code":"ARA","country_id":48,"country_code":"CO","latitude":"6.96319000","longitude":"-71.88230000"},{"id":"21508","name":"Tame","state_id":2881,"state_code":"ARA","country_id":48,"country_code":"CO","latitude":"6.46065000","longitude":"-71.73618000"},{"id":"20572","name":"Barranco Minas","state_id":2882,"state_code":"GUA","country_id":48,"country_code":"CO","latitude":"3.09899000","longitude":"-69.58297000"},{"id":"20618","name":"Cacahual","state_id":2882,"state_code":"GUA","country_id":48,"country_code":"CO","latitude":"3.32533000","longitude":"-67.62397000"},{"id":"20949","name":"In\u00edrida","state_id":2882,"state_code":"GUA","country_id":48,"country_code":"CO","latitude":"3.86528000","longitude":"-67.92389000"},{"id":"20986","name":"La Guadalupe","state_id":2882,"state_code":"GUA","country_id":48,"country_code":"CO","latitude":"1.39579000","longitude":"-67.00150000"},{"id":"21063","name":"Mapiripana","state_id":2882,"state_code":"GUA","country_id":48,"country_code":"CO","latitude":"2.81003000","longitude":"-70.28568000"},{"id":"21106","name":"Morichal","state_id":2882,"state_code":"GUA","country_id":48,"country_code":"CO","latitude":"2.42980000","longitude":"-69.83284000"},{"id":"21178","name":"Pana Pana","state_id":2882,"state_code":"GUA","country_id":48,"country_code":"CO","latitude":"1.96249000","longitude":"-69.12600000"},{"id":"21239","name":"Puerto Colombia","state_id":2882,"state_code":"GUA","country_id":48,"country_code":"CO","latitude":"2.43903000","longitude":"-68.16419000"},{"id":"21354","name":"San Felipe","state_id":2882,"state_code":"GUA","country_id":48,"country_code":"CO","latitude":"2.14321000","longitude":"-67.34122000"},{"id":"20508","name":"Alpujarra","state_id":2883,"state_code":"TOL","country_id":48,"country_code":"CO","latitude":"3.39222000","longitude":"-74.93271000"},{"id":"20511","name":"Alvarado","state_id":2883,"state_code":"TOL","country_id":48,"country_code":"CO","latitude":"4.58826000","longitude":"-74.97810000"},{"id":"20514","name":"Ambalema","state_id":2883,"state_code":"TOL","country_id":48,"country_code":"CO","latitude":"4.78405000","longitude":"-74.76268000"},{"id":"20515","name":"Anaime","state_id":2883,"state_code":"TOL","country_id":48,"country_code":"CO","latitude":"4.39639000","longitude":"-75.44500000"},{"id":"20528","name":"Anzo\u00e1tegui","state_id":2883,"state_code":"TOL","country_id":48,"country_code":"CO","latitude":"4.62232000","longitude":"-75.18046000"},{"id":"20552","name":"Armero","state_id":2883,"state_code":"TOL","country_id":48,"country_code":"CO","latitude":"4.98873000","longitude":"-74.88130000"},{"id":"20553","name":"Armero-Guyabal","state_id":2883,"state_code":"TOL","country_id":48,"country_code":"CO","latitude":"4.96701000","longitude":"-74.90294000"},{"id":"20556","name":"Ataco","state_id":2883,"state_code":"TOL","country_id":48,"country_code":"CO","latitude":"3.59147000","longitude":"-75.38178000"},{"id":"20624","name":"Cajamarca","state_id":2883,"state_code":"TOL","country_id":48,"country_code":"CO","latitude":"4.41667000","longitude":"-75.50000000"},{"id":"20639","name":"Campo Alegre","state_id":2883,"state_code":"TOL","country_id":48,"country_code":"CO","latitude":"3.18917000","longitude":"-75.70361000"},{"id":"20654","name":"Carmen de Apical\u00e1","state_id":2883,"state_code":"TOL","country_id":48,"country_code":"CO","latitude":"4.14725000","longitude":"-74.72014000"},{"id":"20664","name":"Casabianca","state_id":2883,"state_code":"TOL","country_id":48,"country_code":"CO","latitude":"5.07959000","longitude":"-75.12059000"},{"id":"20678","name":"Chaparral","state_id":2883,"state_code":"TOL","country_id":48,"country_code":"CO","latitude":"3.75000000","longitude":"-75.58333000"},{"id":"20682","name":"Chicoral","state_id":2883,"state_code":"TOL","country_id":48,"country_code":"CO","latitude":"4.21536000","longitude":"-74.98189000"},{"id":"20717","name":"Coello","state_id":2883,"state_code":"TOL","country_id":48,"country_code":"CO","latitude":"4.37330000","longitude":"-74.88655000"},{"id":"20745","name":"Coyaima","state_id":2883,"state_code":"TOL","country_id":48,"country_code":"CO","latitude":"3.72781000","longitude":"-75.17397000"},{"id":"20758","name":"Cunday","state_id":2883,"state_code":"TOL","country_id":48,"country_code":"CO","latitude":"4.00284000","longitude":"-74.69295000"},{"id":"20778","name":"Doima","state_id":2883,"state_code":"TOL","country_id":48,"country_code":"CO","latitude":"4.42692000","longitude":"-74.97548000"},{"id":"20779","name":"Dolores","state_id":2883,"state_code":"TOL","country_id":48,"country_code":"CO","latitude":"3.60534000","longitude":"-74.80585000"},{"id":"20841","name":"Espinal","state_id":2883,"state_code":"TOL","country_id":48,"country_code":"CO","latitude":"4.14924000","longitude":"-74.88429000"},{"id":"20843","name":"Falan","state_id":2883,"state_code":"TOL","country_id":48,"country_code":"CO","latitude":"5.12383000","longitude":"-74.95181000"},{"id":"20847","name":"Flandes","state_id":2883,"state_code":"TOL","country_id":48,"country_code":"CO","latitude":"4.25000000","longitude":"-74.83333000"},{"id":"20862","name":"Fr\u00edas","state_id":2883,"state_code":"TOL","country_id":48,"country_code":"CO","latitude":"5.02973000","longitude":"-75.00860000"},{"id":"20860","name":"Fresno","state_id":2883,"state_code":"TOL","country_id":48,"country_code":"CO","latitude":"5.15264000","longitude":"-75.03624000"},{"id":"20875","name":"Gaitania","state_id":2883,"state_code":"TOL","country_id":48,"country_code":"CO","latitude":"3.15000000","longitude":"-75.81667000"},{"id":"20908","name":"Guamo","state_id":2883,"state_code":"TOL","country_id":48,"country_code":"CO","latitude":"4.07457000","longitude":"-74.97689000"},{"id":"20920","name":"Guayabal","state_id":2883,"state_code":"TOL","country_id":48,"country_code":"CO","latitude":"5.03103000","longitude":"-74.88683000"},{"id":"20941","name":"Herveo","state_id":2883,"state_code":"TOL","country_id":48,"country_code":"CO","latitude":"5.08004000","longitude":"-75.17556000"},{"id":"20943","name":"Honda","state_id":2883,"state_code":"TOL","country_id":48,"country_code":"CO","latitude":"5.20856000","longitude":"-74.73584000"},{"id":"20944","name":"Ibagu\u00e9","state_id":2883,"state_code":"TOL","country_id":48,"country_code":"CO","latitude":"4.43889000","longitude":"-75.23222000"},{"id":"20945","name":"Icononzo","state_id":2883,"state_code":"TOL","country_id":48,"country_code":"CO","latitude":"4.17698000","longitude":"-74.53254000"},{"id":"20967","name":"Jun\u00edn","state_id":2883,"state_code":"TOL","country_id":48,"country_code":"CO","latitude":"4.78333000","longitude":"-75.01667000"},{"id":"20976","name":"La Chamba","state_id":2883,"state_code":"TOL","country_id":48,"country_code":"CO","latitude":"4.02649000","longitude":"-74.86844000"},{"id":"21020","name":"Laureles","state_id":2883,"state_code":"TOL","country_id":48,"country_code":"CO","latitude":"4.25917000","longitude":"-75.32250000"},{"id":"21039","name":"L\u00e9rida","state_id":2883,"state_code":"TOL","country_id":48,"country_code":"CO","latitude":"4.86242000","longitude":"-74.90977000"},{"id":"21040","name":"L\u00edbano","state_id":2883,"state_code":"TOL","country_id":48,"country_code":"CO","latitude":"4.83560000","longitude":"-75.10834000"},{"id":"21079","name":"Melgar","state_id":2883,"state_code":"TOL","country_id":48,"country_code":"CO","latitude":"4.20475000","longitude":"-74.64075000"},{"id":"21118","name":"Municipio de San Sebasti\u00e1n de Mariquita","state_id":2883,"state_code":"TOL","country_id":48,"country_code":"CO","latitude":"5.24269000","longitude":"-74.90772000"},{"id":"21119","name":"Murillo","state_id":2883,"state_code":"TOL","country_id":48,"country_code":"CO","latitude":"4.87393000","longitude":"-75.17151000"},{"id":"21128","name":"Natagaima","state_id":2883,"state_code":"TOL","country_id":48,"country_code":"CO","latitude":"3.55212000","longitude":"-75.11345000"},{"id":"21154","name":"Ortega","state_id":2883,"state_code":"TOL","country_id":48,"country_code":"CO","latitude":"3.94514000","longitude":"-75.27245000"},{"id":"21162","name":"Padua","state_id":2883,"state_code":"TOL","country_id":48,"country_code":"CO","latitude":"5.13429000","longitude":"-75.14001000"},{"id":"21175","name":"Palocabildo","state_id":2883,"state_code":"TOL","country_id":48,"country_code":"CO","latitude":"5.11705000","longitude":"-75.01732000"},{"id":"21188","name":"Payand\u00e9","state_id":2883,"state_code":"TOL","country_id":48,"country_code":"CO","latitude":"4.29750000","longitude":"-75.09667000"},{"id":"21201","name":"Piedras","state_id":2883,"state_code":"TOL","country_id":48,"country_code":"CO","latitude":"4.50000000","longitude":"-74.91667000"},{"id":"21212","name":"Planadas","state_id":2883,"state_code":"TOL","country_id":48,"country_code":"CO","latitude":"3.10326000","longitude":"-75.81680000"},{"id":"21215","name":"Playarrica","state_id":2883,"state_code":"TOL","country_id":48,"country_code":"CO","latitude":"4.05694000","longitude":"-75.41028000"},{"id":"21223","name":"Prado","state_id":2883,"state_code":"TOL","country_id":48,"country_code":"CO","latitude":"3.73219000","longitude":"-74.86494000"},{"id":"21264","name":"Purificaci\u00f3n","state_id":2883,"state_code":"TOL","country_id":48,"country_code":"CO","latitude":"3.85871000","longitude":"-74.93129000"},{"id":"21289","name":"Rioblanco","state_id":2883,"state_code":"TOL","country_id":48,"country_code":"CO","latitude":"3.50000000","longitude":"-75.83333000"},{"id":"21299","name":"Roncesvalles","state_id":2883,"state_code":"TOL","country_id":48,"country_code":"CO","latitude":"4.01080000","longitude":"-75.60493000"},{"id":"21302","name":"Rovira","state_id":2883,"state_code":"TOL","country_id":48,"country_code":"CO","latitude":"4.21222000","longitude":"-75.34210000"},{"id":"21321","name":"Salda\u00f1a","state_id":2883,"state_code":"TOL","country_id":48,"country_code":"CO","latitude":"3.92923000","longitude":"-75.01517000"},{"id":"21337","name":"San Antonio","state_id":2883,"state_code":"TOL","country_id":48,"country_code":"CO","latitude":"3.95664000","longitude":"-75.50000000"},{"id":"21379","name":"San Luis","state_id":2883,"state_code":"TOL","country_id":48,"country_code":"CO","latitude":"4.16667000","longitude":"-75.08333000"},{"id":"21405","name":"San Sebasti\u00e1n de Mariquita","state_id":2883,"state_code":"TOL","country_id":48,"country_code":"CO","latitude":"5.19889000","longitude":"-74.89295000"},{"id":"21419","name":"Santa Isabel","state_id":2883,"state_code":"TOL","country_id":48,"country_code":"CO","latitude":"4.72626000","longitude":"-75.22391000"},{"id":"21437","name":"Santiago P\u00e9rez","state_id":2883,"state_code":"TOL","country_id":48,"country_code":"CO","latitude":"3.39806000","longitude":"-75.60500000"},{"id":"21500","name":"Su\u00e1rez","state_id":2883,"state_code":"TOL","country_id":48,"country_code":"CO","latitude":"4.04897000","longitude":"-74.81821000"},{"id":"21547","name":"Tres Esquinas","state_id":2883,"state_code":"TOL","country_id":48,"country_code":"CO","latitude":"3.86512000","longitude":"-74.70906000"},{"id":"21580","name":"Valle de San Juan","state_id":2883,"state_code":"TOL","country_id":48,"country_code":"CO","latitude":"4.19869000","longitude":"-75.11733000"},{"id":"21586","name":"Venadillo","state_id":2883,"state_code":"TOL","country_id":48,"country_code":"CO","latitude":"4.69177000","longitude":"-74.93669000"},{"id":"21604","name":"Villahermosa","state_id":2883,"state_code":"TOL","country_id":48,"country_code":"CO","latitude":"4.96503000","longitude":"-75.15650000"},{"id":"21611","name":"Villarrica","state_id":2883,"state_code":"TOL","country_id":48,"country_code":"CO","latitude":"3.83099000","longitude":"-74.65258000"},{"id":"20506","name":"Almaguer","state_id":2884,"state_code":"CAU","country_id":48,"country_code":"CO","latitude":"1.91472000","longitude":"-76.85482000"},{"id":"20545","name":"Argelia","state_id":2884,"state_code":"CAU","country_id":48,"country_code":"CO","latitude":"2.31728000","longitude":"-77.25700000"},{"id":"20562","name":"Balboa","state_id":2884,"state_code":"CAU","country_id":48,"country_code":"CO","latitude":"2.08436000","longitude":"-77.20781000"},{"id":"20577","name":"Belalc\u00e1zar","state_id":2884,"state_code":"CAU","country_id":48,"country_code":"CO","latitude":"2.64644000","longitude":"-75.97269000"},{"id":"20599","name":"Bol\u00edvar","state_id":2884,"state_code":"CAU","country_id":48,"country_code":"CO","latitude":"1.84670000","longitude":"-76.98292000"},{"id":"20610","name":"Buenos Aires","state_id":2884,"state_code":"CAU","country_id":48,"country_code":"CO","latitude":"3.04825000","longitude":"-76.63066000"},{"id":"20625","name":"Cajib\u00edo","state_id":2884,"state_code":"CAU","country_id":48,"country_code":"CO","latitude":"2.62271000","longitude":"-76.57039000"},{"id":"20633","name":"Caldono","state_id":2884,"state_code":"CAU","country_id":48,"country_code":"CO","latitude":"2.79739000","longitude":"-76.48316000"},{"id":"20637","name":"Caloto","state_id":2884,"state_code":"CAU","country_id":48,"country_code":"CO","latitude":"3.03586000","longitude":"-76.40788000"},{"id":"20737","name":"Corinto","state_id":2884,"state_code":"CAU","country_id":48,"country_code":"CO","latitude":"3.13598000","longitude":"-76.20646000"},{"id":"20788","name":"El Bordo","state_id":2884,"state_code":"CAU","country_id":48,"country_code":"CO","latitude":"2.11696000","longitude":"-76.98214000"},{"id":"20831","name":"El Tambo","state_id":2884,"state_code":"CAU","country_id":48,"country_code":"CO","latitude":"2.45199000","longitude":"-76.81029000"},{"id":"20848","name":"Florencia","state_id":2884,"state_code":"CAU","country_id":48,"country_code":"CO","latitude":"1.68318000","longitude":"-77.07331000"},{"id":"20911","name":"Guap\u00ed","state_id":2884,"state_code":"CAU","country_id":48,"country_code":"CO","latitude":"2.57082000","longitude":"-77.88542000"},{"id":"20909","name":"Guapi","state_id":2884,"state_code":"CAU","country_id":48,"country_code":"CO","latitude":"2.55210000","longitude":"-77.87865000"},{"id":"20948","name":"Inz\u00e1","state_id":2884,"state_code":"CAU","country_id":48,"country_code":"CO","latitude":"2.55452000","longitude":"-76.06722000"},{"id":"20957","name":"Jambal\u00f3","state_id":2884,"state_code":"CAU","country_id":48,"country_code":"CO","latitude":"2.85065000","longitude":"-76.32506000"},{"id":"21003","name":"La Sierra","state_id":2884,"state_code":"CAU","country_id":48,"country_code":"CO","latitude":"2.19665000","longitude":"-76.78590000"},{"id":"21011","name":"La Vega","state_id":2884,"state_code":"CAU","country_id":48,"country_code":"CO","latitude":"2.06201000","longitude":"-76.76808000"},{"id":"21041","name":"L\u00f3pez","state_id":2884,"state_code":"CAU","country_id":48,"country_code":"CO","latitude":"2.43333000","longitude":"-76.80000000"},{"id":"21080","name":"Mercaderes","state_id":2884,"state_code":"CAU","country_id":48,"country_code":"CO","latitude":"1.80175000","longitude":"-77.17032000"},{"id":"21085","name":"Miranda","state_id":2884,"state_code":"CAU","country_id":48,"country_code":"CO","latitude":"3.23773000","longitude":"-76.22093000"},{"id":"21103","name":"Morales","state_id":2884,"state_code":"CAU","country_id":48,"country_code":"CO","latitude":"2.75446000","longitude":"-76.62791000"},{"id":"21115","name":"Municipio de L\u00f3pez de Micay","state_id":2884,"state_code":"CAU","country_id":48,"country_code":"CO","latitude":"3.00000000","longitude":"-77.25000000"},{"id":"21161","name":"Padilla","state_id":2884,"state_code":"CAU","country_id":48,"country_code":"CO","latitude":"3.22038000","longitude":"-76.31385000"},{"id":"21163","name":"Paez","state_id":2884,"state_code":"CAU","country_id":48,"country_code":"CO","latitude":"2.75000000","longitude":"-76.00000000"},{"id":"21167","name":"Paispamba","state_id":2884,"state_code":"CAU","country_id":48,"country_code":"CO","latitude":"2.25462000","longitude":"-76.61086000"},{"id":"21185","name":"Pat\u00eda","state_id":2884,"state_code":"CAU","country_id":48,"country_code":"CO","latitude":"2.14018000","longitude":"-77.01744000"},{"id":"21203","name":"Piendam\u00f3","state_id":2884,"state_code":"CAU","country_id":48,"country_code":"CO","latitude":"2.70214000","longitude":"-76.59736000"},{"id":"21202","name":"Piendamo","state_id":2884,"state_code":"CAU","country_id":48,"country_code":"CO","latitude":"2.63918000","longitude":"-76.53055000"},{"id":"21219","name":"Popay\u00e1n","state_id":2884,"state_code":"CAU","country_id":48,"country_code":"CO","latitude":"2.43823000","longitude":"-76.61316000"},{"id":"21257","name":"Puerto Tejada","state_id":2884,"state_code":"CAU","country_id":48,"country_code":"CO","latitude":"3.23393000","longitude":"-76.41935000"},{"id":"21263","name":"Purac\u00e9","state_id":2884,"state_code":"CAU","country_id":48,"country_code":"CO","latitude":"2.33851000","longitude":"-76.38759000"},{"id":"21301","name":"Rosas","state_id":2884,"state_code":"CAU","country_id":48,"country_code":"CO","latitude":"2.26093000","longitude":"-76.73986000"},{"id":"21404","name":"San Sebasti\u00e1n","state_id":2884,"state_code":"CAU","country_id":48,"country_code":"CO","latitude":"1.91667000","longitude":"-76.66667000"},{"id":"21434","name":"Santander de Quilichao","state_id":2884,"state_code":"CAU","country_id":48,"country_code":"CO","latitude":"3.00945000","longitude":"-76.48494000"},{"id":"21457","name":"Silvia","state_id":2884,"state_code":"CAU","country_id":48,"country_code":"CO","latitude":"2.61557000","longitude":"-76.38261000"},{"id":"21482","name":"Sotara","state_id":2884,"state_code":"CAU","country_id":48,"country_code":"CO","latitude":"2.25000000","longitude":"-76.58333000"},{"id":"21499","name":"Su\u00e1rez","state_id":2884,"state_code":"CAU","country_id":48,"country_code":"CO","latitude":"2.95395000","longitude":"-76.69644000"},{"id":"21489","name":"Sucre","state_id":2884,"state_code":"CAU","country_id":48,"country_code":"CO","latitude":"2.06182000","longitude":"-76.91438000"},{"id":"21528","name":"Timbiqu\u00ed","state_id":2884,"state_code":"CAU","country_id":48,"country_code":"CO","latitude":"2.77170000","longitude":"-77.66536000"},{"id":"21543","name":"Torib\u00edo","state_id":2884,"state_code":"CAU","country_id":48,"country_code":"CO","latitude":"2.95481000","longitude":"-76.26839000"},{"id":"21542","name":"Toribio","state_id":2884,"state_code":"CAU","country_id":48,"country_code":"CO","latitude":"3.00000000","longitude":"-76.16667000"},{"id":"21546","name":"Totor\u00f3","state_id":2884,"state_code":"CAU","country_id":48,"country_code":"CO","latitude":"2.50518000","longitude":"-76.39254000"},{"id":"21597","name":"Villa Rica","state_id":2884,"state_code":"CAU","country_id":48,"country_code":"CO","latitude":"2.51420000","longitude":"-76.84939000"},{"id":"20663","name":"Caruru","state_id":2885,"state_code":"VAU","country_id":48,"country_code":"CO","latitude":"1.02081000","longitude":"-71.33788000"},{"id":"21088","name":"Mit\u00fa","state_id":2885,"state_code":"VAU","country_id":48,"country_code":"CO","latitude":"1.25778000","longitude":"-70.23472000"},{"id":"21160","name":"Pacoa","state_id":2885,"state_code":"VAU","country_id":48,"country_code":"CO","latitude":"0.15636000","longitude":"-70.89274000"},{"id":"21181","name":"Papunaua","state_id":2885,"state_code":"VAU","country_id":48,"country_code":"CO","latitude":"1.68335000","longitude":"-70.70968000"},{"id":"21511","name":"Taraira","state_id":2885,"state_code":"VAU","country_id":48,"country_code":"CO","latitude":"-0.74835000","longitude":"-69.89662000"},{"id":"21623","name":"Yavarat\u00e9","state_id":2885,"state_code":"VAU","country_id":48,"country_code":"CO","latitude":"0.82828000","longitude":"-69.62959000"},{"id":"20505","name":"Algarrobo","state_id":2886,"state_code":"MAG","country_id":48,"country_code":"CO","latitude":"10.18553000","longitude":"-74.06158000"},{"id":"20533","name":"Aracataca","state_id":2886,"state_code":"MAG","country_id":48,"country_code":"CO","latitude":"10.59181000","longitude":"-74.18983000"},{"id":"20548","name":"Ariguan\u00ed","state_id":2886,"state_code":"MAG","country_id":48,"country_code":"CO","latitude":"9.89383000","longitude":"-74.13583000"},{"id":"20606","name":"Buenavista","state_id":2886,"state_code":"MAG","country_id":48,"country_code":"CO","latitude":"9.21433000","longitude":"-74.31363000"},{"id":"20673","name":"Cerro de San Antonio","state_id":2886,"state_code":"MAG","country_id":48,"country_code":"CO","latitude":"10.32585000","longitude":"-74.86933000"},{"id":"20672","name":"Cerro San Antonio","state_id":2886,"state_code":"MAG","country_id":48,"country_code":"CO","latitude":"10.29063000","longitude":"-74.82173000"},{"id":"20681","name":"Chibolo","state_id":2886,"state_code":"MAG","country_id":48,"country_code":"CO","latitude":"10.08250000","longitude":"-74.50696000"},{"id":"20700","name":"Chivolo","state_id":2886,"state_code":"MAG","country_id":48,"country_code":"CO","latitude":"10.02502000","longitude":"-74.62279000"},{"id":"20712","name":"Ci\u00e9naga","state_id":2886,"state_code":"MAG","country_id":48,"country_code":"CO","latitude":"10.83333000","longitude":"-74.08333000"},{"id":"20726","name":"Concordia","state_id":2886,"state_code":"MAG","country_id":48,"country_code":"CO","latitude":"9.83545000","longitude":"-74.45548000"},{"id":"20787","name":"El Banco","state_id":2886,"state_code":"MAG","country_id":48,"country_code":"CO","latitude":"9.00114000","longitude":"-73.97581000"},{"id":"20821","name":"El Pi\u00f1\u00f3n","state_id":2886,"state_code":"MAG","country_id":48,"country_code":"CO","latitude":"10.40283000","longitude":"-74.82415000"},{"id":"20820","name":"El Pi\u00f1on","state_id":2886,"state_code":"MAG","country_id":48,"country_code":"CO","latitude":"10.33333000","longitude":"-74.66667000"},{"id":"20824","name":"El Ret\u00e9n","state_id":2886,"state_code":"MAG","country_id":48,"country_code":"CO","latitude":"10.61135000","longitude":"-74.26824000"},{"id":"20864","name":"Fundaci\u00f3n","state_id":2886,"state_code":"MAG","country_id":48,"country_code":"CO","latitude":"10.52066000","longitude":"-74.18504000"},{"id":"20907","name":"Guamal","state_id":2886,"state_code":"MAG","country_id":48,"country_code":"CO","latitude":"9.14334000","longitude":"-74.22384000"},{"id":"21139","name":"Nueva Granada","state_id":2886,"state_code":"MAG","country_id":48,"country_code":"CO","latitude":"9.80168000","longitude":"-74.39304000"},{"id":"21191","name":"Pedraza","state_id":2886,"state_code":"MAG","country_id":48,"country_code":"CO","latitude":"10.18739000","longitude":"-74.91504000"},{"id":"21205","name":"Piji\u00f1o del Carmen","state_id":2886,"state_code":"MAG","country_id":48,"country_code":"CO","latitude":"9.32908000","longitude":"-74.45302000"},{"id":"21210","name":"Pivijay","state_id":2886,"state_code":"MAG","country_id":48,"country_code":"CO","latitude":"10.46167000","longitude":"-74.61621000"},{"id":"21214","name":"Plato","state_id":2886,"state_code":"MAG","country_id":48,"country_code":"CO","latitude":"9.77267000","longitude":"-74.74548000"},{"id":"21228","name":"Puebloviejo","state_id":2886,"state_code":"MAG","country_id":48,"country_code":"CO","latitude":"10.84239000","longitude":"-74.38538000"},{"id":"21282","name":"Remolino","state_id":2886,"state_code":"MAG","country_id":48,"country_code":"CO","latitude":"10.65048000","longitude":"-74.58442000"},{"id":"21313","name":"Sabanas de San Angel","state_id":2886,"state_code":"MAG","country_id":48,"country_code":"CO","latitude":"10.11072000","longitude":"-74.26007000"},{"id":"21318","name":"Salamina","state_id":2886,"state_code":"MAG","country_id":48,"country_code":"CO","latitude":"10.49027000","longitude":"-74.79463000"},{"id":"21336","name":"San Antonio","state_id":2886,"state_code":"MAG","country_id":48,"country_code":"CO","latitude":"9.93303000","longitude":"-74.69346000"},{"id":"21409","name":"San Zen\u00f3n","state_id":2886,"state_code":"MAG","country_id":48,"country_code":"CO","latitude":"9.32686000","longitude":"-74.32914000"},{"id":"21411","name":"Santa Ana","state_id":2886,"state_code":"MAG","country_id":48,"country_code":"CO","latitude":"9.51484000","longitude":"-74.34330000"},{"id":"21415","name":"Santa B\u00e1rbara de Pinto","state_id":2886,"state_code":"MAG","country_id":48,"country_code":"CO","latitude":"9.52107000","longitude":"-74.64912000"},{"id":"21421","name":"Santa Marta","state_id":2886,"state_code":"MAG","country_id":48,"country_code":"CO","latitude":"11.24348000","longitude":"-74.20835000"},{"id":"21463","name":"Sitionuevo","state_id":2886,"state_code":"MAG","country_id":48,"country_code":"CO","latitude":"10.77737000","longitude":"-74.72049000"},{"id":"21519","name":"Tenerife","state_id":2886,"state_code":"MAG","country_id":48,"country_code":"CO","latitude":"9.93201000","longitude":"-74.73465000"},{"id":"21631","name":"Zapay\u00e1n","state_id":2886,"state_code":"MAG","country_id":48,"country_code":"CO","latitude":"10.11846000","longitude":"-74.69143000"},{"id":"21637","name":"Zona Bananera","state_id":2886,"state_code":"MAG","country_id":48,"country_code":"CO","latitude":"10.76417000","longitude":"-74.15722000"},{"id":"20494","name":"Aguadas","state_id":2887,"state_code":"CAL","country_id":48,"country_code":"CO","latitude":"5.61161000","longitude":"-75.45624000"},{"id":"20525","name":"Anserma","state_id":2887,"state_code":"CAL","country_id":48,"country_code":"CO","latitude":"5.20427000","longitude":"-75.79167000"},{"id":"20534","name":"Aranzazu","state_id":2887,"state_code":"CAL","country_id":48,"country_code":"CO","latitude":"5.25519000","longitude":"-75.50984000"},{"id":"20576","name":"Belalc\u00e1zar","state_id":2887,"state_code":"CAL","country_id":48,"country_code":"CO","latitude":"4.99528000","longitude":"-75.81278000"},{"id":"20688","name":"Chinchin\u00e1","state_id":2887,"state_code":"CAL","country_id":48,"country_code":"CO","latitude":"4.97522000","longitude":"-75.70416000"},{"id":"20844","name":"Filadelfia","state_id":2887,"state_code":"CAL","country_id":48,"country_code":"CO","latitude":"5.29606000","longitude":"-75.56120000"},{"id":"20981","name":"La Dorada","state_id":2887,"state_code":"CAL","country_id":48,"country_code":"CO","latitude":"5.53333000","longitude":"-74.70000000"},{"id":"20992","name":"La Merced","state_id":2887,"state_code":"CAL","country_id":48,"country_code":"CO","latitude":"5.38060000","longitude":"-75.58842000"},{"id":"21059","name":"Manizales","state_id":2887,"state_code":"CAL","country_id":48,"country_code":"CO","latitude":"5.06889000","longitude":"-75.51738000"},{"id":"21061","name":"Manzanares","state_id":2887,"state_code":"CAL","country_id":48,"country_code":"CO","latitude":"5.23305000","longitude":"-75.15168000"},{"id":"21068","name":"Marmato","state_id":2887,"state_code":"CAL","country_id":48,"country_code":"CO","latitude":"5.47554000","longitude":"-75.59710000"},{"id":"21069","name":"Marquetalia","state_id":2887,"state_code":"CAL","country_id":48,"country_code":"CO","latitude":"5.29069000","longitude":"-75.08028000"},{"id":"21071","name":"Marulanda","state_id":2887,"state_code":"CAL","country_id":48,"country_code":"CO","latitude":"5.28393000","longitude":"-75.26016000"},{"id":"21131","name":"Neira","state_id":2887,"state_code":"CAL","country_id":48,"country_code":"CO","latitude":"5.17534000","longitude":"-75.52405000"},{"id":"21137","name":"Norcasia","state_id":2887,"state_code":"CAL","country_id":48,"country_code":"CO","latitude":"5.57535000","longitude":"-74.88831000"},{"id":"21169","name":"Palestina","state_id":2887,"state_code":"CAL","country_id":48,"country_code":"CO","latitude":"5.04571000","longitude":"-75.69552000"},{"id":"21267","name":"P\u00e1cora","state_id":2887,"state_code":"CAL","country_id":48,"country_code":"CO","latitude":"5.50631000","longitude":"-75.49054000"},{"id":"21193","name":"Pensilvania","state_id":2887,"state_code":"CAL","country_id":48,"country_code":"CO","latitude":"5.38840000","longitude":"-75.20420000"},{"id":"21294","name":"Riosucio","state_id":2887,"state_code":"CAL","country_id":48,"country_code":"CO","latitude":"5.42164000","longitude":"-75.70318000"},{"id":"21296","name":"Risaralda","state_id":2887,"state_code":"CAL","country_id":48,"country_code":"CO","latitude":"5.11237000","longitude":"-75.75861000"},{"id":"21319","name":"Salamina","state_id":2887,"state_code":"CAL","country_id":48,"country_code":"CO","latitude":"5.37014000","longitude":"-75.41548000"},{"id":"21326","name":"Saman\u00e1","state_id":2887,"state_code":"CAL","country_id":48,"country_code":"CO","latitude":"5.54061000","longitude":"-74.99346000"},{"id":"21364","name":"San Jos\u00e9","state_id":2887,"state_code":"CAL","country_id":48,"country_code":"CO","latitude":"5.08221000","longitude":"-75.79107000"},{"id":"21492","name":"Sup\u00eda","state_id":2887,"state_code":"CAL","country_id":48,"country_code":"CO","latitude":"5.45303000","longitude":"-75.65072000"},{"id":"21594","name":"Victoria","state_id":2887,"state_code":"CAL","country_id":48,"country_code":"CO","latitude":"5.45666000","longitude":"-74.84061000"},{"id":"21605","name":"Villamar\u00eda","state_id":2887,"state_code":"CAL","country_id":48,"country_code":"CO","latitude":"4.95078000","longitude":"-75.43680000"},{"id":"21617","name":"Viterbo","state_id":2887,"state_code":"CAL","country_id":48,"country_code":"CO","latitude":"5.06242000","longitude":"-75.87159000"},{"id":"20627","name":"Calamar","state_id":2888,"state_code":"GUV","country_id":48,"country_code":"CO","latitude":"1.95960000","longitude":"-72.65315000"},{"id":"20823","name":"El Retorno","state_id":2888,"state_code":"GUV","country_id":48,"country_code":"CO","latitude":"2.33022000","longitude":"-72.62765000"},{"id":"21083","name":"Miraflores","state_id":2888,"state_code":"GUV","country_id":48,"country_code":"CO","latitude":"1.33667000","longitude":"-71.95111000"},{"id":"21370","name":"San Jos\u00e9 del Guaviare","state_id":2888,"state_code":"GUV","country_id":48,"country_code":"CO","latitude":"2.57286000","longitude":"-72.64591000"},{"id":"20498","name":"Albania","state_id":2889,"state_code":"LAG","country_id":48,"country_code":"CO","latitude":"11.16099000","longitude":"-72.59238000"},{"id":"20571","name":"Barrancas","state_id":2889,"state_code":"LAG","country_id":48,"country_code":"CO","latitude":"10.97180000","longitude":"-72.69115000"},{"id":"20776","name":"Dibulla","state_id":2889,"state_code":"LAG","country_id":48,"country_code":"CO","latitude":"11.27251000","longitude":"-73.30911000"},{"id":"20777","name":"Distracci\u00f3n","state_id":2889,"state_code":"LAG","country_id":48,"country_code":"CO","latitude":"10.89784000","longitude":"-72.88666000"},{"id":"20812","name":"El Molino","state_id":2889,"state_code":"LAG","country_id":48,"country_code":"CO","latitude":"10.65296000","longitude":"-72.92461000"},{"id":"20855","name":"Fonseca","state_id":2889,"state_code":"LAG","country_id":48,"country_code":"CO","latitude":"10.82966000","longitude":"-72.79778000"},{"id":"20938","name":"Hatonuevo","state_id":2889,"state_code":"LAG","country_id":48,"country_code":"CO","latitude":"11.06940000","longitude":"-72.76690000"},{"id":"20988","name":"La Jagua del Pilar","state_id":2889,"state_code":"LAG","country_id":48,"country_code":"CO","latitude":"10.51061000","longitude":"-73.07178000"},{"id":"21051","name":"Maicao","state_id":2889,"state_code":"LAG","country_id":48,"country_code":"CO","latitude":"11.37837000","longitude":"-72.23950000"},{"id":"21056","name":"Manaure","state_id":2889,"state_code":"LAG","country_id":48,"country_code":"CO","latitude":"11.77505000","longitude":"-72.44447000"},{"id":"21291","name":"Riohacha","state_id":2889,"state_code":"LAG","country_id":48,"country_code":"CO","latitude":"11.54444000","longitude":"-72.90722000"},{"id":"21377","name":"San Juan del Cesar","state_id":2889,"state_code":"LAG","country_id":48,"country_code":"CO","latitude":"10.77107000","longitude":"-73.00314000"},{"id":"21573","name":"Uribia","state_id":2889,"state_code":"LAG","country_id":48,"country_code":"CO","latitude":"12.02638000","longitude":"-71.74887000"},{"id":"21575","name":"Urumita","state_id":2889,"state_code":"LAG","country_id":48,"country_code":"CO","latitude":"10.55894000","longitude":"-73.01232000"},{"id":"21608","name":"Villanueva","state_id":2889,"state_code":"LAG","country_id":48,"country_code":"CO","latitude":"10.58333000","longitude":"-72.96077000"},{"id":"20485","name":"Abejorral","state_id":2890,"state_code":"ANT","country_id":48,"country_code":"CO","latitude":"5.78928000","longitude":"-75.42725000"},{"id":"20487","name":"Abriaqu\u00ed","state_id":2890,"state_code":"ANT","country_id":48,"country_code":"CO","latitude":"6.63148000","longitude":"-76.06444000"},{"id":"20504","name":"Alejandr\u00eda","state_id":2890,"state_code":"ANT","country_id":48,"country_code":"CO","latitude":"6.36667000","longitude":"-75.08333000"},{"id":"20512","name":"Amag\u00e1","state_id":2890,"state_code":"ANT","country_id":48,"country_code":"CO","latitude":"6.04001000","longitude":"-75.70315000"},{"id":"20513","name":"Amalfi","state_id":2890,"state_code":"ANT","country_id":48,"country_code":"CO","latitude":"6.91016000","longitude":"-75.07764000"},{"id":"20520","name":"Andes","state_id":2890,"state_code":"ANT","country_id":48,"country_code":"CO","latitude":"5.66974000","longitude":"-75.89905000"},{"id":"20521","name":"Angel\u00f3polis","state_id":2890,"state_code":"ANT","country_id":48,"country_code":"CO","latitude":"6.12228000","longitude":"-75.71432000"},{"id":"20522","name":"Angostura","state_id":2890,"state_code":"ANT","country_id":48,"country_code":"CO","latitude":"6.87120000","longitude":"-75.35947000"},{"id":"20527","name":"Anza","state_id":2890,"state_code":"ANT","country_id":48,"country_code":"CO","latitude":"6.33333000","longitude":"-75.91667000"},{"id":"20529","name":"Apartad\u00f3","state_id":2890,"state_code":"ANT","country_id":48,"country_code":"CO","latitude":"7.88299000","longitude":"-76.62587000"},{"id":"20541","name":"Arboletes","state_id":2890,"state_code":"ANT","country_id":48,"country_code":"CO","latitude":"8.85051000","longitude":"-76.42694000"},{"id":"20544","name":"Argelia","state_id":2890,"state_code":"ANT","country_id":48,"country_code":"CO","latitude":"5.73127000","longitude":"-75.14257000"},{"id":"20551","name":"Armenia","state_id":2890,"state_code":"ANT","country_id":48,"country_code":"CO","latitude":"6.17554000","longitude":"-75.81230000"},{"id":"20566","name":"Barbosa","state_id":2890,"state_code":"ANT","country_id":48,"country_code":"CO","latitude":"6.43809000","longitude":"-75.33136000"},{"id":"20579","name":"Bello","state_id":2890,"state_code":"ANT","country_id":48,"country_code":"CO","latitude":"6.36160000","longitude":"-75.58728000"},{"id":"20580","name":"Belmira","state_id":2890,"state_code":"ANT","country_id":48,"country_code":"CO","latitude":"6.60508000","longitude":"-75.66619000"},{"id":"20588","name":"Betania","state_id":2890,"state_code":"ANT","country_id":48,"country_code":"CO","latitude":"5.73571000","longitude":"-75.98964000"},{"id":"20589","name":"Betulia","state_id":2890,"state_code":"ANT","country_id":48,"country_code":"CO","latitude":"6.11284000","longitude":"-75.98378000"},{"id":"20602","name":"Brice\u00f1o","state_id":2890,"state_code":"ANT","country_id":48,"country_code":"CO","latitude":"7.05001000","longitude":"-75.50903000"},{"id":"20613","name":"Buritic\u00e1","state_id":2890,"state_code":"ANT","country_id":48,"country_code":"CO","latitude":"6.80549000","longitude":"-75.92093000"},{"id":"20667","name":"Ca\u00f1asgordas","state_id":2890,"state_code":"ANT","country_id":48,"country_code":"CO","latitude":"6.80951000","longitude":"-76.03954000"},{"id":"20621","name":"Caicedo","state_id":2890,"state_code":"ANT","country_id":48,"country_code":"CO","latitude":"6.42805000","longitude":"-75.99715000"},{"id":"20631","name":"Caldas","state_id":2890,"state_code":"ANT","country_id":48,"country_code":"CO","latitude":"6.09106000","longitude":"-75.63569000"},{"id":"20638","name":"Campamento","state_id":2890,"state_code":"ANT","country_id":48,"country_code":"CO","latitude":"7.03910000","longitude":"-75.28938000"},{"id":"20649","name":"Caracol\u00ed","state_id":2890,"state_code":"ANT","country_id":48,"country_code":"CO","latitude":"6.40920000","longitude":"-74.75715000"},{"id":"20650","name":"Caramanta","state_id":2890,"state_code":"ANT","country_id":48,"country_code":"CO","latitude":"5.54144000","longitude":"-75.66961000"},{"id":"20652","name":"Carepa","state_id":2890,"state_code":"ANT","country_id":48,"country_code":"CO","latitude":"7.75849000","longitude":"-76.65255000"},{"id":"20656","name":"Carmen de Viboral","state_id":2890,"state_code":"ANT","country_id":48,"country_code":"CO","latitude":"6.08236000","longitude":"-75.33509000"},{"id":"20658","name":"Carolina","state_id":2890,"state_code":"ANT","country_id":48,"country_code":"CO","latitude":"6.74807000","longitude":"-75.32131000"},{"id":"20666","name":"Caucasia","state_id":2890,"state_code":"ANT","country_id":48,"country_code":"CO","latitude":"7.98654000","longitude":"-75.19349000"},{"id":"20763","name":"C\u00e1ceres","state_id":2890,"state_code":"ANT","country_id":48,"country_code":"CO","latitude":"7.68252000","longitude":"-75.22481000"},{"id":"20683","name":"Chigorod\u00f3","state_id":2890,"state_code":"ANT","country_id":48,"country_code":"CO","latitude":"7.66638000","longitude":"-76.68106000"},{"id":"20710","name":"Cisneros","state_id":2890,"state_code":"ANT","country_id":48,"country_code":"CO","latitude":"6.54507000","longitude":"-75.09415000"},{"id":"20711","name":"Ciudad Bol\u00edvar","state_id":2890,"state_code":"ANT","country_id":48,"country_code":"CO","latitude":"5.85389000","longitude":"-76.02528000"},{"id":"20716","name":"Cocorn\u00e1","state_id":2890,"state_code":"ANT","country_id":48,"country_code":"CO","latitude":"6.00579000","longitude":"-75.16984000"},{"id":"20724","name":"Concepci\u00f3n","state_id":2890,"state_code":"ANT","country_id":48,"country_code":"CO","latitude":"6.39408000","longitude":"-75.25830000"},{"id":"20727","name":"Concordia","state_id":2890,"state_code":"ANT","country_id":48,"country_code":"CO","latitude":"6.04639000","longitude":"-75.90705000"},{"id":"20735","name":"Copacabana","state_id":2890,"state_code":"ANT","country_id":48,"country_code":"CO","latitude":"6.36230000","longitude":"-75.49922000"},{"id":"20747","name":"Cruces de Anor\u00ed","state_id":2890,"state_code":"ANT","country_id":48,"country_code":"CO","latitude":"7.18333000","longitude":"-75.06667000"},{"id":"20773","name":"Dabeiba","state_id":2890,"state_code":"ANT","country_id":48,"country_code":"CO","latitude":"7.03367000","longitude":"-76.34161000"},{"id":"20780","name":"Don Mat\u00edas","state_id":2890,"state_code":"ANT","country_id":48,"country_code":"CO","latitude":"6.50559000","longitude":"-75.36645000"},{"id":"20781","name":"Donmat\u00edas","state_id":2890,"state_code":"ANT","country_id":48,"country_code":"CO","latitude":"6.48569000","longitude":"-75.39496000"},{"id":"20785","name":"Eb\u00e9jico","state_id":2890,"state_code":"ANT","country_id":48,"country_code":"CO","latitude":"6.32598000","longitude":"-75.76835000"},{"id":"20786","name":"El Bagre","state_id":2890,"state_code":"ANT","country_id":48,"country_code":"CO","latitude":"7.60347000","longitude":"-74.80951000"},{"id":"20798","name":"El Carmen de Viboral","state_id":2890,"state_code":"ANT","country_id":48,"country_code":"CO","latitude":"5.97810000","longitude":"-75.26322000"},{"id":"20828","name":"El Santuario","state_id":2890,"state_code":"ANT","country_id":48,"country_code":"CO","latitude":"6.13568000","longitude":"-75.25705000"},{"id":"20839","name":"Entrerr\u00edos","state_id":2890,"state_code":"ANT","country_id":48,"country_code":"CO","latitude":"6.56540000","longitude":"-75.51690000"},{"id":"20838","name":"Entrerrios","state_id":2890,"state_code":"ANT","country_id":48,"country_code":"CO","latitude":"6.58333000","longitude":"-75.58333000"},{"id":"20840","name":"Envigado","state_id":2890,"state_code":"ANT","country_id":48,"country_code":"CO","latitude":"6.17591000","longitude":"-75.59174000"},{"id":"20859","name":"Fredonia","state_id":2890,"state_code":"ANT","country_id":48,"country_code":"CO","latitude":"5.89239000","longitude":"-75.68546000"},{"id":"20861","name":"Frontino","state_id":2890,"state_code":"ANT","country_id":48,"country_code":"CO","latitude":"6.77133000","longitude":"-76.13324000"},{"id":"20931","name":"G\u00f3mez Plata","state_id":2890,"state_code":"ANT","country_id":48,"country_code":"CO","latitude":"6.68178000","longitude":"-75.21907000"},{"id":"20885","name":"Giraldo","state_id":2890,"state_code":"ANT","country_id":48,"country_code":"CO","latitude":"6.66667000","longitude":"-75.95346000"},{"id":"20888","name":"Girardota","state_id":2890,"state_code":"ANT","country_id":48,"country_code":"CO","latitude":"6.36789000","longitude":"-75.46231000"},{"id":"20893","name":"Granada","state_id":2890,"state_code":"ANT","country_id":48,"country_code":"CO","latitude":"6.14353000","longitude":"-75.18532000"},{"id":"20901","name":"Guadalupe","state_id":2890,"state_code":"ANT","country_id":48,"country_code":"CO","latitude":"6.81449000","longitude":"-75.24063000"},{"id":"20913","name":"Guarne","state_id":2890,"state_code":"ANT","country_id":48,"country_code":"CO","latitude":"6.28345000","longitude":"-75.44363000"},{"id":"20915","name":"Guatap\u00e9","state_id":2890,"state_code":"ANT","country_id":48,"country_code":"CO","latitude":"6.25548000","longitude":"-75.16432000"},{"id":"20939","name":"Heliconia","state_id":2890,"state_code":"ANT","country_id":48,"country_code":"CO","latitude":"6.20831000","longitude":"-75.73565000"},{"id":"20942","name":"Hispania","state_id":2890,"state_code":"ANT","country_id":48,"country_code":"CO","latitude":"5.79925000","longitude":"-75.90718000"},{"id":"20954","name":"Itag\u00fc\u00ed","state_id":2890,"state_code":"ANT","country_id":48,"country_code":"CO","latitude":"6.18461000","longitude":"-75.59913000"},{"id":"20953","name":"Itagui","state_id":2890,"state_code":"ANT","country_id":48,"country_code":"CO","latitude":"6.17874000","longitude":"-75.63117000"},{"id":"20955","name":"Ituango","state_id":2890,"state_code":"ANT","country_id":48,"country_code":"CO","latitude":"7.17117000","longitude":"-75.76404000"},{"id":"20959","name":"Jard\u00edn","state_id":2890,"state_code":"ANT","country_id":48,"country_code":"CO","latitude":"5.59038000","longitude":"-75.81846000"},{"id":"20961","name":"Jeric\u00f3","state_id":2890,"state_code":"ANT","country_id":48,"country_code":"CO","latitude":"5.79211000","longitude":"-75.78601000"},{"id":"20974","name":"La Ceja","state_id":2890,"state_code":"ANT","country_id":48,"country_code":"CO","latitude":"6.00000000","longitude":"-75.43311000"},{"id":"20983","name":"La Estrella","state_id":2890,"state_code":"ANT","country_id":48,"country_code":"CO","latitude":"6.14239000","longitude":"-75.65257000"},{"id":"21000","name":"La Pintada","state_id":2890,"state_code":"ANT","country_id":48,"country_code":"CO","latitude":"5.74867000","longitude":"-75.60626000"},{"id":"21009","name":"La Uni\u00f3n","state_id":2890,"state_code":"ANT","country_id":48,"country_code":"CO","latitude":"5.94642000","longitude":"-75.35917000"},{"id":"21028","name":"Liborina","state_id":2890,"state_code":"ANT","country_id":48,"country_code":"CO","latitude":"6.67790000","longitude":"-75.81218000"},{"id":"21044","name":"Maceo","state_id":2890,"state_code":"ANT","country_id":48,"country_code":"CO","latitude":"6.55196000","longitude":"-74.78741000"},{"id":"21066","name":"Marinilla","state_id":2890,"state_code":"ANT","country_id":48,"country_code":"CO","latitude":"6.19609000","longitude":"-75.30313000"},{"id":"21074","name":"Medell\u00edn","state_id":2890,"state_code":"ANT","country_id":48,"country_code":"CO","latitude":"6.25184000","longitude":"-75.56359000"},{"id":"21097","name":"Montebello","state_id":2890,"state_code":"ANT","country_id":48,"country_code":"CO","latitude":"5.93703000","longitude":"-75.52741000"},{"id":"21117","name":"Municipio de San Pedro de los Milagros","state_id":2890,"state_code":"ANT","country_id":48,"country_code":"CO","latitude":"6.46538000","longitude":"-75.56452000"},{"id":"21120","name":"Murind\u00f3","state_id":2890,"state_code":"ANT","country_id":48,"country_code":"CO","latitude":"6.84698000","longitude":"-76.71544000"},{"id":"21121","name":"Mutat\u00e1","state_id":2890,"state_code":"ANT","country_id":48,"country_code":"CO","latitude":"7.24407000","longitude":"-76.43564000"},{"id":"21126","name":"Nari\u00f1o","state_id":2890,"state_code":"ANT","country_id":48,"country_code":"CO","latitude":"5.60893000","longitude":"-75.17656000"},{"id":"21129","name":"Nech\u00ed","state_id":2890,"state_code":"ANT","country_id":48,"country_code":"CO","latitude":"8.09419000","longitude":"-74.77573000"},{"id":"21130","name":"Necocl\u00ed","state_id":2890,"state_code":"ANT","country_id":48,"country_code":"CO","latitude":"8.42627000","longitude":"-76.78926000"},{"id":"21149","name":"Olaya","state_id":2890,"state_code":"ANT","country_id":48,"country_code":"CO","latitude":"6.62773000","longitude":"-75.81270000"},{"id":"21197","name":"Pe\u00f1ol","state_id":2890,"state_code":"ANT","country_id":48,"country_code":"CO","latitude":"6.23434000","longitude":"-75.22573000"},{"id":"21194","name":"Peque","state_id":2890,"state_code":"ANT","country_id":48,"country_code":"CO","latitude":"7.02123000","longitude":"-75.90926000"},{"id":"21227","name":"Pueblorrico","state_id":2890,"state_code":"ANT","country_id":48,"country_code":"CO","latitude":"5.80000000","longitude":"-75.85000000"},{"id":"21234","name":"Puerto Berr\u00edo","state_id":2890,"state_code":"ANT","country_id":48,"country_code":"CO","latitude":"6.50749000","longitude":"-74.52271000"},{"id":"21248","name":"Puerto Nare","state_id":2890,"state_code":"ANT","country_id":48,"country_code":"CO","latitude":"6.19167000","longitude":"-74.58670000"},{"id":"21258","name":"Puerto Triunfo","state_id":2890,"state_code":"ANT","country_id":48,"country_code":"CO","latitude":"5.87259000","longitude":"-74.64050000"},{"id":"21281","name":"Remedios","state_id":2890,"state_code":"ANT","country_id":48,"country_code":"CO","latitude":"7.02835000","longitude":"-74.69379000"},{"id":"21286","name":"Retiro","state_id":2890,"state_code":"ANT","country_id":48,"country_code":"CO","latitude":"6.05906000","longitude":"-75.51488000"},{"id":"21293","name":"Rionegro","state_id":2890,"state_code":"ANT","country_id":48,"country_code":"CO","latitude":"6.16667000","longitude":"-75.41667000"},{"id":"21311","name":"Sabanalarga","state_id":2890,"state_code":"ANT","country_id":48,"country_code":"CO","latitude":"6.84893000","longitude":"-75.81711000"},{"id":"21314","name":"Sabaneta","state_id":2890,"state_code":"ANT","country_id":48,"country_code":"CO","latitude":"6.15153000","longitude":"-75.61657000"},{"id":"21323","name":"Salgar","state_id":2890,"state_code":"ANT","country_id":48,"country_code":"CO","latitude":"5.96711000","longitude":"-75.98747000"},{"id":"21330","name":"San Andr\u00e9s","state_id":2890,"state_code":"ANT","country_id":48,"country_code":"CO","latitude":"6.90333000","longitude":"-75.68250000"},{"id":"21334","name":"San Andr\u00e9s de Cuerqu\u00eda","state_id":2890,"state_code":"ANT","country_id":48,"country_code":"CO","latitude":"6.91667000","longitude":"-75.66667000"},{"id":"21345","name":"San Carlos","state_id":2890,"state_code":"ANT","country_id":48,"country_code":"CO","latitude":"7.79177000","longitude":"-74.77316000"},{"id":"21357","name":"San Francisco","state_id":2890,"state_code":"ANT","country_id":48,"country_code":"CO","latitude":"6.11667000","longitude":"-75.98333000"},{"id":"21362","name":"San Jer\u00f3nimo","state_id":2890,"state_code":"ANT","country_id":48,"country_code":"CO","latitude":"6.44139000","longitude":"-75.70783000"},{"id":"21366","name":"San Jos\u00e9 de la Monta\u00f1a","state_id":2890,"state_code":"ANT","country_id":48,"country_code":"CO","latitude":"6.82205000","longitude":"-75.69757000"},{"id":"21376","name":"San Juan de Urab\u00e1","state_id":2890,"state_code":"ANT","country_id":48,"country_code":"CO","latitude":"8.75924000","longitude":"-76.52969000"},{"id":"21396","name":"San Pedro","state_id":2890,"state_code":"ANT","country_id":48,"country_code":"CO","latitude":"6.46135000","longitude":"-75.55778000"},{"id":"21399","name":"San Pedro de Uraba","state_id":2890,"state_code":"ANT","country_id":48,"country_code":"CO","latitude":"8.42291000","longitude":"-76.31747000"},{"id":"21400","name":"San Pedro de Urab\u00e1","state_id":2890,"state_code":"ANT","country_id":48,"country_code":"CO","latitude":"8.27515000","longitude":"-76.37641000"},{"id":"21402","name":"San Rafael","state_id":2890,"state_code":"ANT","country_id":48,"country_code":"CO","latitude":"6.31234000","longitude":"-75.02426000"},{"id":"21403","name":"San Roque","state_id":2890,"state_code":"ANT","country_id":48,"country_code":"CO","latitude":"6.48511000","longitude":"-75.01960000"},{"id":"21406","name":"San Vicente","state_id":2890,"state_code":"ANT","country_id":48,"country_code":"CO","latitude":"6.28535000","longitude":"-75.33385000"},{"id":"21407","name":"San Vicente Ferrer","state_id":2890,"state_code":"ANT","country_id":48,"country_code":"CO","latitude":"6.32237000","longitude":"-75.33020000"},{"id":"21414","name":"Santa B\u00e1rbara","state_id":2890,"state_code":"ANT","country_id":48,"country_code":"CO","latitude":"5.88937000","longitude":"-75.58255000"},{"id":"21417","name":"Santa Fe de Antioquia","state_id":2890,"state_code":"ANT","country_id":48,"country_code":"CO","latitude":"6.55687000","longitude":"-75.82806000"},{"id":"21425","name":"Santa Rosa de Osos","state_id":2890,"state_code":"ANT","country_id":48,"country_code":"CO","latitude":"6.64738000","longitude":"-75.46031000"},{"id":"21432","name":"Santaf\u00e9 de Antioquia","state_id":2890,"state_code":"ANT","country_id":48,"country_code":"CO","latitude":"6.55000000","longitude":"-75.90000000"},{"id":"21439","name":"Santo Domingo","state_id":2890,"state_code":"ANT","country_id":48,"country_code":"CO","latitude":"6.47282000","longitude":"-75.16547000"},{"id":"21441","name":"Santuario","state_id":2890,"state_code":"ANT","country_id":48,"country_code":"CO","latitude":"6.13833000","longitude":"-75.26417000"},{"id":"21449","name":"Segovia","state_id":2890,"state_code":"ANT","country_id":48,"country_code":"CO","latitude":"7.28132000","longitude":"-74.64273000"},{"id":"21475","name":"Sons\u00f3n","state_id":2890,"state_code":"ANT","country_id":48,"country_code":"CO","latitude":"5.71062000","longitude":"-75.31069000"},{"id":"21474","name":"Sonson","state_id":2890,"state_code":"ANT","country_id":48,"country_code":"CO","latitude":"5.75000000","longitude":"-75.00000000"},{"id":"21476","name":"Sopetr\u00e1n","state_id":2890,"state_code":"ANT","country_id":48,"country_code":"CO","latitude":"6.52271000","longitude":"-75.74608000"},{"id":"21513","name":"Taraz\u00e1","state_id":2890,"state_code":"ANT","country_id":48,"country_code":"CO","latitude":"7.58358000","longitude":"-75.40068000"},{"id":"21514","name":"Tarso","state_id":2890,"state_code":"ANT","country_id":48,"country_code":"CO","latitude":"5.86467000","longitude":"-75.82192000"},{"id":"21562","name":"T\u00e1mesis","state_id":2890,"state_code":"ANT","country_id":48,"country_code":"CO","latitude":"5.66462000","longitude":"-75.71339000"},{"id":"21532","name":"Titirib\u00ed","state_id":2890,"state_code":"ANT","country_id":48,"country_code":"CO","latitude":"6.06276000","longitude":"-75.79370000"},{"id":"21537","name":"Toledo","state_id":2890,"state_code":"ANT","country_id":48,"country_code":"CO","latitude":"7.01306000","longitude":"-75.69528000"},{"id":"21557","name":"Turbo","state_id":2890,"state_code":"ANT","country_id":48,"country_code":"CO","latitude":"8.09263000","longitude":"-76.72822000"},{"id":"21572","name":"Uramita","state_id":2890,"state_code":"ANT","country_id":48,"country_code":"CO","latitude":"6.89944000","longitude":"-76.17417000"},{"id":"21574","name":"Urrao","state_id":2890,"state_code":"ANT","country_id":48,"country_code":"CO","latitude":"6.31696000","longitude":"-76.13420000"},{"id":"21577","name":"Valdivia","state_id":2890,"state_code":"ANT","country_id":48,"country_code":"CO","latitude":"7.29382000","longitude":"-75.39190000"},{"id":"21584","name":"Valpara\u00edso","state_id":2890,"state_code":"ANT","country_id":48,"country_code":"CO","latitude":"5.61500000","longitude":"-75.62422000"},{"id":"21585","name":"Vegach\u00ed","state_id":2890,"state_code":"ANT","country_id":48,"country_code":"CO","latitude":"6.76141000","longitude":"-74.79473000"},{"id":"21588","name":"Venecia","state_id":2890,"state_code":"ANT","country_id":48,"country_code":"CO","latitude":"5.95417000","longitude":"-75.79904000"},{"id":"21595","name":"Vig\u00eda del Fuerte","state_id":2890,"state_code":"ANT","country_id":48,"country_code":"CO","latitude":"6.58933000","longitude":"-76.89599000"},{"id":"21621","name":"Yal\u00ed","state_id":2890,"state_code":"ANT","country_id":48,"country_code":"CO","latitude":"6.70257000","longitude":"-74.79018000"},{"id":"21622","name":"Yarumal","state_id":2890,"state_code":"ANT","country_id":48,"country_code":"CO","latitude":"6.98532000","longitude":"-75.45402000"},{"id":"21624","name":"Yolomb\u00f3","state_id":2890,"state_code":"ANT","country_id":48,"country_code":"CO","latitude":"6.66569000","longitude":"-74.99120000"},{"id":"21625","name":"Yond\u00f3","state_id":2890,"state_code":"ANT","country_id":48,"country_code":"CO","latitude":"6.90738000","longitude":"-74.17686000"},{"id":"21632","name":"Zaragoza","state_id":2890,"state_code":"ANT","country_id":48,"country_code":"CO","latitude":"7.48971000","longitude":"-74.86919000"},{"id":"20499","name":"Albania","state_id":2891,"state_code":"CAQ","country_id":48,"country_code":"CO","latitude":"1.26325000","longitude":"-75.95366000"},{"id":"20586","name":"Bel\u00e9n de los Andaqu\u00edes","state_id":2891,"state_code":"CAQ","country_id":48,"country_code":"CO","latitude":"1.41828000","longitude":"-75.87753000"},{"id":"20584","name":"Bel\u00e9n de Los Andaquies","state_id":2891,"state_code":"CAQ","country_id":48,"country_code":"CO","latitude":"1.41667000","longitude":"-75.91667000"},{"id":"20660","name":"Cartagena del Chair\u00e1","state_id":2891,"state_code":"CAQ","country_id":48,"country_code":"CO","latitude":"1.33488000","longitude":"-74.84289000"},{"id":"20759","name":"Curillo","state_id":2891,"state_code":"CAQ","country_id":48,"country_code":"CO","latitude":"1.03327000","longitude":"-75.91907000"},{"id":"20805","name":"El Doncello","state_id":2891,"state_code":"CAQ","country_id":48,"country_code":"CO","latitude":"1.67817000","longitude":"-75.28466000"},{"id":"20815","name":"El Pauj\u00edl","state_id":2891,"state_code":"CAQ","country_id":48,"country_code":"CO","latitude":"1.57006000","longitude":"-75.32863000"},{"id":"20814","name":"El Paujil","state_id":2891,"state_code":"CAQ","country_id":48,"country_code":"CO","latitude":"1.57085000","longitude":"-75.31403000"},