[{"id":"52522","name":"A\u00edgio","state_id":2096,"state_code":"G","country_id":85,"country_code":"GR","latitude":"38.24861000","longitude":"22.08194000"},{"id":"52523","name":"A\u00edyira","state_id":2096,"state_code":"G","country_id":85,"country_code":"GR","latitude":"38.14846000","longitude":"22.35426000"},{"id":"52414","name":"Agr\u00ednio","state_id":2096,"state_code":"G","country_id":85,"country_code":"GR","latitude":"38.62139000","longitude":"21.40778000"},{"id":"52432","name":"Aitolik\u00f3","state_id":2096,"state_code":"G","country_id":85,"country_code":"GR","latitude":"38.43704000","longitude":"21.35358000"},{"id":"52437","name":"Akr\u00e1ta","state_id":2096,"state_code":"G","country_id":85,"country_code":"GR","latitude":"38.15469000","longitude":"22.31830000"},{"id":"52438","name":"Akta\u00edo","state_id":2096,"state_code":"G","country_id":85,"country_code":"GR","latitude":"38.30444000","longitude":"21.79440000"},{"id":"52442","name":"Alfeio\u00fasa","state_id":2096,"state_code":"G","country_id":85,"country_code":"GR","latitude":"37.64019000","longitude":"21.53750000"},{"id":"52447","name":"Amali\u00e1da","state_id":2096,"state_code":"G","country_id":85,"country_code":"GR","latitude":"37.79842000","longitude":"21.35068000"},{"id":"52449","name":"Amfiloch\u00eda","state_id":2096,"state_code":"G","country_id":85,"country_code":"GR","latitude":"38.85944000","longitude":"21.16639000"},{"id":"52463","name":"Andrav\u00edda","state_id":2096,"state_code":"G","country_id":85,"country_code":"GR","latitude":"37.90588000","longitude":"21.26936000"},{"id":"52466","name":"Angel\u00f3kastro","state_id":2096,"state_code":"G","country_id":85,"country_code":"GR","latitude":"38.56585000","longitude":"21.29631000"},{"id":"52474","name":"Antirrio","state_id":2096,"state_code":"G","country_id":85,"country_code":"GR","latitude":"38.33014000","longitude":"21.76413000"},{"id":"52482","name":"Archa\u00eda Olymp\u00eda","state_id":2096,"state_code":"G","country_id":85,"country_code":"GR","latitude":"37.64788000","longitude":"21.62710000"},{"id":"52483","name":"Archontoch\u00f3ri","state_id":2096,"state_code":"G","country_id":85,"country_code":"GR","latitude":"38.70053000","longitude":"21.03896000"},{"id":"52495","name":"Arko\u00fadi","state_id":2096,"state_code":"G","country_id":85,"country_code":"GR","latitude":"37.84681000","longitude":"21.11022000"},{"id":"52509","name":"Astak\u00f3s","state_id":2096,"state_code":"G","country_id":85,"country_code":"GR","latitude":"38.53556000","longitude":"21.08135000"},{"id":"53391","name":"\u00c1no Kastr\u00edtsi","state_id":2096,"state_code":"G","country_id":85,"country_code":"GR","latitude":"38.27228000","longitude":"21.83600000"},{"id":"53411","name":"\u00c1yios Konstand\u00ednos","state_id":2096,"state_code":"G","country_id":85,"country_code":"GR","latitude":"38.63337000","longitude":"21.39950000"},{"id":"52525","name":"Chalandr\u00edtsa","state_id":2096,"state_code":"G","country_id":85,"country_code":"GR","latitude":"38.10843000","longitude":"21.78349000"},{"id":"52542","name":"Ch\u00e1vari","state_id":2096,"state_code":"G","country_id":85,"country_code":"GR","latitude":"37.84842000","longitude":"21.38403000"},{"id":"52550","name":"Dhok\u00edmion","state_id":2096,"state_code":"G","country_id":85,"country_code":"GR","latitude":"38.61352000","longitude":"21.38072000"},{"id":"52588","name":"Epit\u00e1lio","state_id":2096,"state_code":"G","country_id":85,"country_code":"GR","latitude":"37.62675000","longitude":"21.49528000"},{"id":"52614","name":"Fyte\u00edes","state_id":2096,"state_code":"G","country_id":85,"country_code":"GR","latitude":"38.69524000","longitude":"21.18467000"},{"id":"52622","name":"Galat\u00e1s","state_id":2096,"state_code":"G","country_id":85,"country_code":"GR","latitude":"38.35742000","longitude":"21.56222000"},{"id":"52629","name":"Gasto\u00fani","state_id":2096,"state_code":"G","country_id":85,"country_code":"GR","latitude":"37.85000000","longitude":"21.25000000"},{"id":"52630","name":"Gavalo\u00fa","state_id":2096,"state_code":"G","country_id":85,"country_code":"GR","latitude":"38.52903000","longitude":"21.53226000"},{"id":"52640","name":"Go\u00famero","state_id":2096,"state_code":"G","country_id":85,"country_code":"GR","latitude":"37.76236000","longitude":"21.61853000"},{"id":"52672","name":"Kaino\u00faryion","state_id":2096,"state_code":"G","country_id":85,"country_code":"GR","latitude":"38.60453000","longitude":"21.48776000"},{"id":"52688","name":"Kal\u00e1vryta","state_id":2096,"state_code":"G","country_id":85,"country_code":"GR","latitude":"38.03222000","longitude":"22.11250000"},{"id":"52699","name":"Kam\u00e1rai","state_id":2096,"state_code":"G","country_id":85,"country_code":"GR","latitude":"38.29881000","longitude":"21.99892000"},{"id":"52702","name":"Kand\u00edla","state_id":2096,"state_code":"G","country_id":85,"country_code":"GR","latitude":"38.70564000","longitude":"20.94749000"},{"id":"52720","name":"Kar\u00e1toula","state_id":2096,"state_code":"G","country_id":85,"country_code":"GR","latitude":"37.73564000","longitude":"21.53578000"},{"id":"52707","name":"Kardam\u00e1s","state_id":2096,"state_code":"G","country_id":85,"country_code":"GR","latitude":"37.76729000","longitude":"21.33946000"},{"id":"52732","name":"Kato\u00fana","state_id":2096,"state_code":"G","country_id":85,"country_code":"GR","latitude":"38.78547000","longitude":"21.11417000"},{"id":"52731","name":"Katoch\u00ed","state_id":2096,"state_code":"G","country_id":85,"country_code":"GR","latitude":"38.41237000","longitude":"21.25258000"},{"id":"52736","name":"Kav\u00e1sila","state_id":2096,"state_code":"G","country_id":85,"country_code":"GR","latitude":"37.87581000","longitude":"21.26422000"},{"id":"52805","name":"K\u00e1to Acha\u1e2fa","state_id":2096,"state_code":"G","country_id":85,"country_code":"GR","latitude":"38.15000000","longitude":"21.55000000"},{"id":"52813","name":"K\u00e1to Mazar\u00e1ki","state_id":2096,"state_code":"G","country_id":85,"country_code":"GR","latitude":"38.07035000","longitude":"21.65097000"},{"id":"52791","name":"Kr\u00e9stena","state_id":2096,"state_code":"G","country_id":85,"country_code":"GR","latitude":"37.59193000","longitude":"21.62034000"},{"id":"52792","name":"Kr\u00edkellos","state_id":2096,"state_code":"G","country_id":85,"country_code":"GR","latitude":"38.94532000","longitude":"21.17910000"},{"id":"52795","name":"Kyll\u00edni","state_id":2096,"state_code":"G","country_id":85,"country_code":"GR","latitude":"37.93542000","longitude":"21.14503000"},{"id":"52873","name":"L\u00e1las","state_id":2096,"state_code":"G","country_id":85,"country_code":"GR","latitude":"37.70936000","longitude":"21.72117000"},{"id":"52874","name":"L\u00e1pas","state_id":2096,"state_code":"G","country_id":85,"country_code":"GR","latitude":"38.09755000","longitude":"21.41861000"},{"id":"52839","name":"Lechain\u00e1","state_id":2096,"state_code":"G","country_id":85,"country_code":"GR","latitude":"37.93333000","longitude":"21.26667000"},{"id":"52846","name":"Lepeno\u00fa","state_id":2096,"state_code":"G","country_id":85,"country_code":"GR","latitude":"38.70839000","longitude":"21.28970000"},{"id":"52854","name":"Limnokh\u00f3rion","state_id":2096,"state_code":"G","country_id":85,"country_code":"GR","latitude":"38.14115000","longitude":"21.48047000"},{"id":"52890","name":"Makr\u00edsia","state_id":2096,"state_code":"G","country_id":85,"country_code":"GR","latitude":"37.60957000","longitude":"21.60509000"},{"id":"52896","name":"Manol\u00e1da","state_id":2096,"state_code":"G","country_id":85,"country_code":"GR","latitude":"38.04708000","longitude":"21.34814000"},{"id":"52905","name":"Matar\u00e1nga","state_id":2096,"state_code":"G","country_id":85,"country_code":"GR","latitude":"38.52359000","longitude":"21.47325000"},{"id":"52914","name":"Meg\u00e1li Kh\u00f3ra","state_id":2096,"state_code":"G","country_id":85,"country_code":"GR","latitude":"38.64629000","longitude":"21.37309000"},{"id":"52925","name":"Men\u00eddi","state_id":2096,"state_code":"G","country_id":85,"country_code":"GR","latitude":"39.04213000","longitude":"21.11875000"},{"id":"52928","name":"Mesol\u00f3ngi","state_id":2096,"state_code":"G","country_id":85,"country_code":"GR","latitude":"38.37138000","longitude":"21.43151000"},{"id":"52936","name":"Mindil\u00f3glion","state_id":2096,"state_code":"G","country_id":85,"country_code":"GR","latitude":"38.18387000","longitude":"21.70133000"},{"id":"52941","name":"Monastir\u00e1ki","state_id":2096,"state_code":"G","country_id":85,"country_code":"GR","latitude":"38.85053000","longitude":"20.94458000"},{"id":"52951","name":"Myrs\u00edni","state_id":2096,"state_code":"G","country_id":85,"country_code":"GR","latitude":"37.92117000","longitude":"21.23700000"},{"id":"52994","name":"N\u00e1fpaktos","state_id":2096,"state_code":"G","country_id":85,"country_code":"GR","latitude":"38.39167000","longitude":"21.82750000"},{"id":"53018","name":"N\u00e9a Manol\u00e1da","state_id":2096,"state_code":"G","country_id":85,"country_code":"GR","latitude":"38.05378000","longitude":"21.38189000"},{"id":"52974","name":"Ne\u00e1polis","state_id":2096,"state_code":"G","country_id":85,"country_code":"GR","latitude":"38.67144000","longitude":"21.36274000"},{"id":"52968","name":"Neoch\u00f3ri","state_id":2096,"state_code":"G","country_id":85,"country_code":"GR","latitude":"37.90794000","longitude":"21.20392000"},{"id":"52969","name":"Neoch\u00f3rion","state_id":2096,"state_code":"G","country_id":85,"country_code":"GR","latitude":"38.40847000","longitude":"21.27511000"},{"id":"52978","name":"Nom\u00f3s Acha\u1e2fas","state_id":2096,"state_code":"G","country_id":85,"country_code":"GR","latitude":"38.00000000","longitude":"22.00000000"},{"id":"52979","name":"Nom\u00f3s Aitol\u00edas kai Akarnan\u00edas","state_id":2096,"state_code":"G","country_id":85,"country_code":"GR","latitude":"38.50000000","longitude":"21.50000000"},{"id":"52984","name":"Nom\u00f3s Ile\u00edas","state_id":2096,"state_code":"G","country_id":85,"country_code":"GR","latitude":"37.75000000","longitude":"21.58333000"},{"id":"53067","name":"Ovri\u00e1","state_id":2096,"state_code":"G","country_id":85,"country_code":"GR","latitude":"38.18866000","longitude":"21.72903000"},{"id":"53085","name":"Panait\u00f3lion","state_id":2096,"state_code":"G","country_id":85,"country_code":"GR","latitude":"38.58316000","longitude":"21.44729000"},{"id":"53087","name":"Pappadh\u00e1tai","state_id":2096,"state_code":"G","country_id":85,"country_code":"GR","latitude":"38.52816000","longitude":"21.45016000"},{"id":"53090","name":"Paral\u00eda","state_id":2096,"state_code":"G","country_id":85,"country_code":"GR","latitude":"38.19833000","longitude":"21.70263000"},{"id":"53098","name":"Parav\u00f3la","state_id":2096,"state_code":"G","country_id":85,"country_code":"GR","latitude":"38.61472000","longitude":"21.52046000"},{"id":"53162","name":"P\u00e1lairos","state_id":2096,"state_code":"G","country_id":85,"country_code":"GR","latitude":"38.78300000","longitude":"20.88183000"},{"id":"53169","name":"P\u00e1tra","state_id":2096,"state_code":"G","country_id":85,"country_code":"GR","latitude":"38.24444000","longitude":"21.73444000"},{"id":"53184","name":"P\u00fdrgos","state_id":2096,"state_code":"G","country_id":85,"country_code":"GR","latitude":"37.67513000","longitude":"21.44102000"},{"id":"53104","name":"Pel\u00f3pi","state_id":2096,"state_code":"G","country_id":85,"country_code":"GR","latitude":"37.67444000","longitude":"21.59344000"},{"id":"53130","name":"Pl\u00e1tanos","state_id":2096,"state_code":"G","country_id":85,"country_code":"GR","latitude":"37.66731000","longitude":"21.61108000"},{"id":"53200","name":"R\u00edo","state_id":2096,"state_code":"G","country_id":85,"country_code":"GR","latitude":"38.29558000","longitude":"21.78504000"},{"id":"53194","name":"Rodod\u00e1fni","state_id":2096,"state_code":"G","country_id":85,"country_code":"GR","latitude":"38.26976000","longitude":"22.04875000"},{"id":"53199","name":"Roy\u00edtika","state_id":2096,"state_code":"G","country_id":85,"country_code":"GR","latitude":"38.18268000","longitude":"21.68414000"},{"id":"53206","name":"Sard\u00ednia","state_id":2096,"state_code":"G","country_id":85,"country_code":"GR","latitude":"38.89003000","longitude":"21.20619000"},{"id":"53208","name":"Sav\u00e1lia","state_id":2096,"state_code":"G","country_id":85,"country_code":"GR","latitude":"37.82158000","longitude":"21.29425000"},{"id":"53256","name":"St\u00e1nos","state_id":2096,"state_code":"G","country_id":85,"country_code":"GR","latitude":"38.80453000","longitude":"21.17461000"},{"id":"53261","name":"Sylivaini\u00f3tika","state_id":2096,"state_code":"G","country_id":85,"country_code":"GR","latitude":"38.16139000","longitude":"22.33156000"},{"id":"53262","name":"Synoikism\u00f3s Chavar\u00edou","state_id":2096,"state_code":"G","country_id":85,"country_code":"GR","latitude":"37.85575000","longitude":"21.38789000"},{"id":"53301","name":"T\u00e9meni","state_id":2096,"state_code":"G","country_id":85,"country_code":"GR","latitude":"38.23707000","longitude":"22.12533000"},{"id":"53284","name":"Th\u00e9rmo","state_id":2096,"state_code":"G","country_id":85,"country_code":"GR","latitude":"38.57358000","longitude":"21.66628000"},{"id":"53288","name":"Trianda\u00edika","state_id":2096,"state_code":"G","country_id":85,"country_code":"GR","latitude":"38.65530000","longitude":"21.38315000"},{"id":"53309","name":"Vartholomi\u00f3","state_id":2096,"state_code":"G","country_id":85,"country_code":"GR","latitude":"37.86219000","longitude":"21.20575000"},{"id":"53310","name":"Varv\u00e1saina","state_id":2096,"state_code":"G","country_id":85,"country_code":"GR","latitude":"37.67106000","longitude":"21.49886000"},{"id":"53339","name":"V\u00e1rda","state_id":2096,"state_code":"G","country_id":85,"country_code":"GR","latitude":"38.03058000","longitude":"21.36506000"},{"id":"53346","name":"V\u00f3nitsa","state_id":2096,"state_code":"G","country_id":85,"country_code":"GR","latitude":"38.91639000","longitude":"20.88639000"},{"id":"53332","name":"Vrachna\u00edika","state_id":2096,"state_code":"G","country_id":85,"country_code":"GR","latitude":"38.16253000","longitude":"21.66693000"},{"id":"53356","name":"Zach\u00e1ro","state_id":2096,"state_code":"G","country_id":85,"country_code":"GR","latitude":"37.48333000","longitude":"21.65000000"}]