[{"id":"52401","name":"Ad\u00e1mas","state_id":2118,"state_code":"L","country_id":85,"country_code":"GR","latitude":"36.72506000","longitude":"24.44685000"},{"id":"52405","name":"Af\u00e1ntou","state_id":2118,"state_code":"L","country_id":85,"country_code":"GR","latitude":"36.29354000","longitude":"28.16225000"},{"id":"52419","name":"Ag\u00eda Mar\u00edna","state_id":2118,"state_code":"L","country_id":85,"country_code":"GR","latitude":"37.15430000","longitude":"26.85162000"},{"id":"52452","name":"Amorg\u00f3s","state_id":2118,"state_code":"L","country_id":85,"country_code":"GR","latitude":"36.83175000","longitude":"25.89821000"},{"id":"52476","name":"An\u00e1fi","state_id":2118,"state_code":"L","country_id":85,"country_code":"GR","latitude":"36.35000000","longitude":"25.76667000"},{"id":"52464","name":"Andros","state_id":2118,"state_code":"L","country_id":85,"country_code":"GR","latitude":"37.83333000","longitude":"24.93333000"},{"id":"52475","name":"Ant\u00edparos","state_id":2118,"state_code":"L","country_id":85,"country_code":"GR","latitude":"37.03940000","longitude":"25.08258000"},{"id":"52473","name":"Antim\u00e1cheia","state_id":2118,"state_code":"L","country_id":85,"country_code":"GR","latitude":"36.80888000","longitude":"27.09764000"},{"id":"52484","name":"Arch\u00e1ngelos","state_id":2118,"state_code":"L","country_id":85,"country_code":"GR","latitude":"36.21492000","longitude":"28.11487000"},{"id":"52510","name":"Astyp\u00e1laia","state_id":2118,"state_code":"L","country_id":85,"country_code":"GR","latitude":"36.55000000","longitude":"26.35000000"},{"id":"53395","name":"\u00c1no Mer\u00e1","state_id":2118,"state_code":"L","country_id":85,"country_code":"GR","latitude":"37.44904000","longitude":"25.39095000"},{"id":"53396","name":"\u00c1no S\u00fdros","state_id":2118,"state_code":"L","country_id":85,"country_code":"GR","latitude":"37.44997000","longitude":"24.93562000"},{"id":"53422","name":"\u00cdos","state_id":2118,"state_code":"L","country_id":85,"country_code":"GR","latitude":"36.73333000","longitude":"25.28333000"},{"id":"53417","name":"\u00c9mponas","state_id":2118,"state_code":"L","country_id":85,"country_code":"GR","latitude":"36.22683000","longitude":"27.85645000"},{"id":"52541","name":"Ch\u00e1lki","state_id":2118,"state_code":"L","country_id":85,"country_code":"GR","latitude":"36.22243000","longitude":"27.61191000"},{"id":"52584","name":"Empore\u00edo","state_id":2118,"state_code":"L","country_id":85,"country_code":"GR","latitude":"36.35816000","longitude":"25.44615000"},{"id":"52590","name":"Ermo\u00fapolis","state_id":2118,"state_code":"L","country_id":85,"country_code":"GR","latitude":"37.44466000","longitude":"24.94290000"},{"id":"52598","name":"Faliraki","state_id":2118,"state_code":"L","country_id":85,"country_code":"GR","latitude":"36.33981000","longitude":"28.19942000"},{"id":"52606","name":"Fil\u00f3tion","state_id":2118,"state_code":"L","country_id":85,"country_code":"GR","latitude":"37.05167000","longitude":"25.49829000"},{"id":"52607","name":"Fir\u00e1","state_id":2118,"state_code":"L","country_id":85,"country_code":"GR","latitude":"36.42107000","longitude":"25.43087000"},{"id":"52609","name":"Fol\u00e9gandros","state_id":2118,"state_code":"L","country_id":85,"country_code":"GR","latitude":"36.62794000","longitude":"24.92021000"},{"id":"52611","name":"Fry","state_id":2118,"state_code":"L","country_id":85,"country_code":"GR","latitude":"35.41623000","longitude":"26.92328000"},{"id":"52657","name":"Ialys\u00f3s","state_id":2118,"state_code":"L","country_id":85,"country_code":"GR","latitude":"36.41352000","longitude":"28.15516000"},{"id":"52712","name":"Kard\u00e1maina","state_id":2118,"state_code":"L","country_id":85,"country_code":"GR","latitude":"36.78305000","longitude":"27.14289000"},{"id":"52715","name":"Karpathos","state_id":2118,"state_code":"L","country_id":85,"country_code":"GR","latitude":"35.50701000","longitude":"27.21322000"},{"id":"52803","name":"K\u00e1lymnos","state_id":2118,"state_code":"L","country_id":85,"country_code":"GR","latitude":"36.95030000","longitude":"26.98388000"},{"id":"52819","name":"K\u00e9falos","state_id":2118,"state_code":"L","country_id":85,"country_code":"GR","latitude":"36.74507000","longitude":"26.95961000"},{"id":"52820","name":"K\u00edmolos","state_id":2118,"state_code":"L","country_id":85,"country_code":"GR","latitude":"36.79368000","longitude":"24.57577000"},{"id":"52831","name":"K\u00fdthnos","state_id":2118,"state_code":"L","country_id":85,"country_code":"GR","latitude":"37.41237000","longitude":"24.43068000"},{"id":"52773","name":"Kos","state_id":2118,"state_code":"L","country_id":85,"country_code":"GR","latitude":"36.89295000","longitude":"27.28768000"},{"id":"52784","name":"Kremast\u00ed","state_id":2118,"state_code":"L","country_id":85,"country_code":"GR","latitude":"36.40981000","longitude":"28.11920000"},{"id":"52836","name":"Lakk\u00ed","state_id":2118,"state_code":"L","country_id":85,"country_code":"GR","latitude":"37.13344000","longitude":"26.85237000"},{"id":"52875","name":"L\u00e1rdos","state_id":2118,"state_code":"L","country_id":85,"country_code":"GR","latitude":"36.09419000","longitude":"28.01565000"},{"id":"52894","name":"Mandr\u00e1ki","state_id":2118,"state_code":"L","country_id":85,"country_code":"GR","latitude":"36.61139000","longitude":"27.13333000"},{"id":"52957","name":"M\u00edlos","state_id":2118,"state_code":"L","country_id":85,"country_code":"GR","latitude":"36.74536000","longitude":"24.42650000"},{"id":"52916","name":"Meg\u00e1lo Chori\u00f3","state_id":2118,"state_code":"L","country_id":85,"country_code":"GR","latitude":"37.45820000","longitude":"26.97272000"},{"id":"52917","name":"Meg\u00edsti","state_id":2118,"state_code":"L","country_id":85,"country_code":"GR","latitude":"36.14889000","longitude":"29.59361000"},{"id":"52926","name":"Mesari\u00e1","state_id":2118,"state_code":"L","country_id":85,"country_code":"GR","latitude":"36.39893000","longitude":"25.44807000"},{"id":"52950","name":"Mykonos","state_id":2118,"state_code":"L","country_id":85,"country_code":"GR","latitude":"37.44529000","longitude":"25.32872000"},{"id":"52997","name":"N\u00e1ousa","state_id":2118,"state_code":"L","country_id":85,"country_code":"GR","latitude":"37.12181000","longitude":"25.24014000"},{"id":"52998","name":"N\u00e1xos","state_id":2118,"state_code":"L","country_id":85,"country_code":"GR","latitude":"37.10556000","longitude":"25.37639000"},{"id":"52989","name":"Nom\u00f3s Kykl\u00e1don","state_id":2118,"state_code":"L","country_id":85,"country_code":"GR","latitude":"37.41667000","longitude":"24.91667000"},{"id":"53069","name":"O\u00eda","state_id":2118,"state_code":"L","country_id":85,"country_code":"GR","latitude":"36.46260000","longitude":"25.37637000"},{"id":"53064","name":"Orn\u00f3s","state_id":2118,"state_code":"L","country_id":85,"country_code":"GR","latitude":"37.42391000","longitude":"25.32248000"},{"id":"53164","name":"P\u00e1normos","state_id":2118,"state_code":"L","country_id":85,"country_code":"GR","latitude":"36.97156000","longitude":"26.93727000"},{"id":"53166","name":"P\u00e1ros","state_id":2118,"state_code":"L","country_id":85,"country_code":"GR","latitude":"37.08333000","longitude":"25.15000000"},{"id":"53168","name":"P\u00e1tmos","state_id":2118,"state_code":"L","country_id":85,"country_code":"GR","latitude":"37.30895000","longitude":"26.54723000"},{"id":"53159","name":"Pyl\u00ed","state_id":2118,"state_code":"L","country_id":85,"country_code":"GR","latitude":"36.84472000","longitude":"27.15932000"},{"id":"53203","name":"R\u00f3dos","state_id":2118,"state_code":"L","country_id":85,"country_code":"GR","latitude":"36.43556000","longitude":"28.22199000"},{"id":"53267","name":"S\u00e9rifos","state_id":2118,"state_code":"L","country_id":85,"country_code":"GR","latitude":"37.15397000","longitude":"24.50614000"},{"id":"53273","name":"S\u00fdmi","state_id":2118,"state_code":"L","country_id":85,"country_code":"GR","latitude":"36.61547000","longitude":"27.83619000"},{"id":"53224","name":"Sk\u00e1la","state_id":2118,"state_code":"L","country_id":85,"country_code":"GR","latitude":"37.32218000","longitude":"26.54300000"},{"id":"53303","name":"T\u00ednos","state_id":2118,"state_code":"L","country_id":85,"country_code":"GR","latitude":"37.53753000","longitude":"25.16343000"},{"id":"53341","name":"V\u00e1ri","state_id":2118,"state_code":"L","country_id":85,"country_code":"GR","latitude":"37.39859000","longitude":"24.94904000"},{"id":"53362","name":"Zip\u00e1ri","state_id":2118,"state_code":"L","country_id":85,"country_code":"GR","latitude":"36.87696000","longitude":"27.20532000"}]