[{"id":"52440","name":"Alexandroupoli","state_id":2120,"state_code":"A2","country_id":85,"country_code":"GR","latitude":"40.84995000","longitude":"25.87644000"},{"id":"52456","name":"Amygdale\u00f3nas","state_id":2120,"state_code":"A2","country_id":85,"country_code":"GR","latitude":"40.96346000","longitude":"24.36007000"},{"id":"52502","name":"Ar\u00edsvi","state_id":2120,"state_code":"A2","country_id":85,"country_code":"GR","latitude":"41.07000000","longitude":"25.59041000"},{"id":"52497","name":"Arrian\u00e1","state_id":2120,"state_code":"A2","country_id":85,"country_code":"GR","latitude":"41.08131000","longitude":"25.69494000"},{"id":"53375","name":"\u00c1gios Athan\u00e1sios","state_id":2120,"state_code":"A2","country_id":85,"country_code":"GR","latitude":"41.07463000","longitude":"24.24545000"},{"id":"53398","name":"\u00c1ratos","state_id":2120,"state_code":"A2","country_id":85,"country_code":"GR","latitude":"41.08139000","longitude":"25.55186000"},{"id":"53408","name":"\u00c1vato","state_id":2120,"state_code":"A2","country_id":85,"country_code":"GR","latitude":"40.96279000","longitude":"24.80441000"},{"id":"53420","name":"\u00cdasmos","state_id":2120,"state_code":"A2","country_id":85,"country_code":"GR","latitude":"41.12747000","longitude":"25.18573000"},{"id":"53418","name":"\u00c9vlalo","state_id":2120,"state_code":"A2","country_id":85,"country_code":"GR","latitude":"40.98333000","longitude":"24.80000000"},{"id":"52535","name":"Chorist\u00ed","state_id":2120,"state_code":"A2","country_id":85,"country_code":"GR","latitude":"41.13056000","longitude":"24.20843000"},{"id":"52539","name":"Chryso\u00fapolis","state_id":2120,"state_code":"A2","country_id":85,"country_code":"GR","latitude":"40.98556000","longitude":"24.69389000"},{"id":"52538","name":"Chrysoch\u00f3ri","state_id":2120,"state_code":"A2","country_id":85,"country_code":"GR","latitude":"40.93328000","longitude":"24.71088000"},{"id":"52555","name":"Didym\u00f3teicho","state_id":2120,"state_code":"A2","country_id":85,"country_code":"GR","latitude":"41.34806000","longitude":"26.49611000"},{"id":"52565","name":"Dr\u00e1ma","state_id":2120,"state_code":"A2","country_id":85,"country_code":"GR","latitude":"41.15283000","longitude":"24.14730000"},{"id":"52571","name":"Ech\u00ednos","state_id":2120,"state_code":"A2","country_id":85,"country_code":"GR","latitude":"41.27558000","longitude":"24.97237000"},{"id":"52576","name":"Elaioch\u00f3ri","state_id":2120,"state_code":"A2","country_id":85,"country_code":"GR","latitude":"40.82030000","longitude":"24.24373000"},{"id":"52579","name":"Elefther\u00e9s","state_id":2120,"state_code":"A2","country_id":85,"country_code":"GR","latitude":"40.84666000","longitude":"24.25431000"},{"id":"52578","name":"Elefthero\u00fapolis","state_id":2120,"state_code":"A2","country_id":85,"country_code":"GR","latitude":"40.91389000","longitude":"24.25139000"},{"id":"52616","name":"F\u00e9res","state_id":2120,"state_code":"A2","country_id":85,"country_code":"GR","latitude":"40.89305000","longitude":"26.17234000"},{"id":"52603","name":"Fill\u00fdra","state_id":2120,"state_code":"A2","country_id":85,"country_code":"GR","latitude":"41.11667000","longitude":"25.63333000"},{"id":"52610","name":"Fotol\u00edvos","state_id":2120,"state_code":"A2","country_id":85,"country_code":"GR","latitude":"41.06013000","longitude":"24.04724000"},{"id":"52612","name":"Fteli\u00e1","state_id":2120,"state_code":"A2","country_id":85,"country_code":"GR","latitude":"41.08266000","longitude":"24.18968000"},{"id":"52632","name":"Geniss\u00e9a","state_id":2120,"state_code":"A2","country_id":85,"country_code":"GR","latitude":"41.06165000","longitude":"24.96248000"},{"id":"52661","name":"Iliokentima","state_id":2120,"state_code":"A2","country_id":85,"country_code":"GR","latitude":"40.94931000","longitude":"24.78859000"},{"id":"52679","name":"Kalamp\u00e1ki","state_id":2120,"state_code":"A2","country_id":85,"country_code":"GR","latitude":"41.05000000","longitude":"24.18333000"},{"id":"52690","name":"Kal\u00ed Vr\u00fdsi","state_id":2120,"state_code":"A2","country_id":85,"country_code":"GR","latitude":"41.14653000","longitude":"23.90667000"},{"id":"52691","name":"Kal\u00f3s Agr\u00f3s","state_id":2120,"state_code":"A2","country_id":85,"country_code":"GR","latitude":"41.10543000","longitude":"24.08570000"},{"id":"52683","name":"Kall\u00edfytos","state_id":2120,"state_code":"A2","country_id":85,"country_code":"GR","latitude":"41.17280000","longitude":"24.21527000"},{"id":"52696","name":"Kamari\u00f3tissa","state_id":2120,"state_code":"A2","country_id":85,"country_code":"GR","latitude":"40.47501000","longitude":"25.47456000"},{"id":"52723","name":"Kastani\u00e9s","state_id":2120,"state_code":"A2","country_id":85,"country_code":"GR","latitude":"41.64551000","longitude":"26.47676000"},{"id":"52735","name":"Kav\u00e1la","state_id":2120,"state_code":"A2","country_id":85,"country_code":"GR","latitude":"40.93959000","longitude":"24.40687000"},{"id":"52737","name":"Kav\u00fdli","state_id":2120,"state_code":"A2","country_id":85,"country_code":"GR","latitude":"41.56225000","longitude":"26.51470000"},{"id":"52815","name":"K\u00e1to Nevrok\u00f3pi","state_id":2120,"state_code":"A2","country_id":85,"country_code":"GR","latitude":"41.35000000","longitude":"23.86667000"},{"id":"52829","name":"K\u00fdria","state_id":2120,"state_code":"A2","country_id":85,"country_code":"GR","latitude":"41.09900000","longitude":"24.28915000"},{"id":"52739","name":"Keramot\u00ed","state_id":2120,"state_code":"A2","country_id":85,"country_code":"GR","latitude":"40.85591000","longitude":"24.70595000"},{"id":"52748","name":"Kimm\u00e9ria","state_id":2120,"state_code":"A2","country_id":85,"country_code":"GR","latitude":"41.14788000","longitude":"24.93869000"},{"id":"52755","name":"Kokkin\u00f3choma","state_id":2120,"state_code":"A2","country_id":85,"country_code":"GR","latitude":"40.92690000","longitude":"24.30805000"},{"id":"52762","name":"Komotin\u00ed","state_id":2120,"state_code":"A2","country_id":85,"country_code":"GR","latitude":"41.11917000","longitude":"25.40535000"},{"id":"52785","name":"Krin\u00eddes","state_id":2120,"state_code":"A2","country_id":85,"country_code":"GR","latitude":"41.01396000","longitude":"24.29647000"},{"id":"52798","name":"Kypr\u00ednos","state_id":2120,"state_code":"A2","country_id":85,"country_code":"GR","latitude":"41.57542000","longitude":"26.22905000"},{"id":"52834","name":"Lag\u00f3s","state_id":2120,"state_code":"A2","country_id":85,"country_code":"GR","latitude":"41.45102000","longitude":"26.46067000"},{"id":"52876","name":"L\u00e1vara","state_id":2120,"state_code":"A2","country_id":85,"country_code":"GR","latitude":"41.26957000","longitude":"26.38522000"},{"id":"52882","name":"L\u00fdkeio","state_id":2120,"state_code":"A2","country_id":85,"country_code":"GR","latitude":"41.06413000","longitude":"25.68570000"},{"id":"52853","name":"Limen\u00e1ria","state_id":2120,"state_code":"A2","country_id":85,"country_code":"GR","latitude":"40.62741000","longitude":"24.57650000"},{"id":"52959","name":"M\u00fdki","state_id":2120,"state_code":"A2","country_id":85,"country_code":"GR","latitude":"41.24384000","longitude":"24.92084000"},{"id":"52935","name":"Mikr\u00f3polis","state_id":2120,"state_code":"A2","country_id":85,"country_code":"GR","latitude":"41.19351000","longitude":"23.81570000"},{"id":"53011","name":"N\u00e9a Irakl\u00edtsa","state_id":2120,"state_code":"A2","country_id":85,"country_code":"GR","latitude":"40.86442000","longitude":"24.31650000"},{"id":"53013","name":"N\u00e9a Karv\u00e1li","state_id":2120,"state_code":"A2","country_id":85,"country_code":"GR","latitude":"40.96148000","longitude":"24.51132000"},{"id":"53014","name":"N\u00e9a Kary\u00e1","state_id":2120,"state_code":"A2","country_id":85,"country_code":"GR","latitude":"40.90621000","longitude":"24.70726000"},{"id":"53031","name":"N\u00e9a P\u00e9ramos","state_id":2120,"state_code":"A2","country_id":85,"country_code":"GR","latitude":"40.83854000","longitude":"24.30130000"},{"id":"53040","name":"N\u00e9a V\u00fdssa","state_id":2120,"state_code":"A2","country_id":85,"country_code":"GR","latitude":"41.58449000","longitude":"26.54318000"},{"id":"52967","name":"Neoch\u00f3ri","state_id":2120,"state_code":"A2","country_id":85,"country_code":"GR","latitude":"41.51131000","longitude":"26.45740000"},{"id":"52976","name":"Nik\u00edsiani","state_id":2120,"state_code":"A2","country_id":85,"country_code":"GR","latitude":"40.94739000","longitude":"24.14311000"},{"id":"53062","name":"Oresti\u00e1da","state_id":2120,"state_code":"A2","country_id":85,"country_code":"GR","latitude":"41.50306000","longitude":"26.52972000"},{"id":"53078","name":"Palai\u00f3 Tsifl\u00edki","state_id":2120,"state_code":"A2","country_id":85,"country_code":"GR","latitude":"40.90495000","longitude":"24.35083000"},{"id":"53071","name":"Palaioch\u00f3ri","state_id":2120,"state_code":"A2","country_id":85,"country_code":"GR","latitude":"40.94338000","longitude":"24.17747000"},{"id":"53093","name":"Paral\u00eda Ofryn\u00edou","state_id":2120,"state_code":"A2","country_id":85,"country_code":"GR","latitude":"40.76663000","longitude":"23.90039000"},{"id":"53096","name":"Paran\u00e9sti","state_id":2120,"state_code":"A2","country_id":85,"country_code":"GR","latitude":"41.26667000","longitude":"24.50000000"},{"id":"53161","name":"P\u00e1chni","state_id":2120,"state_code":"A2","country_id":85,"country_code":"GR","latitude":"41.30506000","longitude":"24.89438000"},{"id":"53173","name":"P\u00e9plos","state_id":2120,"state_code":"A2","country_id":85,"country_code":"GR","latitude":"40.95755000","longitude":"26.26577000"},{"id":"53117","name":"Petein\u00f3s","state_id":2120,"state_code":"A2","country_id":85,"country_code":"GR","latitude":"41.10056000","longitude":"24.89847000"},{"id":"53120","name":"Petro\u00fassa","state_id":2120,"state_code":"A2","country_id":85,"country_code":"GR","latitude":"41.19470000","longitude":"24.01731000"},{"id":"53118","name":"Petroch\u00f3ri","state_id":2120,"state_code":"A2","country_id":85,"country_code":"GR","latitude":"41.08742000","longitude":"24.84092000"},{"id":"53140","name":"Potami\u00e1","state_id":2120,"state_code":"A2","country_id":85,"country_code":"GR","latitude":"40.71633000","longitude":"24.72859000"},{"id":"53150","name":"Pr\u00ednos","state_id":2120,"state_code":"A2","country_id":85,"country_code":"GR","latitude":"40.74090000","longitude":"24.57787000"},{"id":"53145","name":"Prosots\u00e1ni","state_id":2120,"state_code":"A2","country_id":85,"country_code":"GR","latitude":"41.18333000","longitude":"23.96667000"},{"id":"53201","name":"R\u00edzia","state_id":2120,"state_code":"A2","country_id":85,"country_code":"GR","latitude":"41.62490000","longitude":"26.42771000"},{"id":"53205","name":"Samothr\u00e1ki","state_id":2120,"state_code":"A2","country_id":85,"country_code":"GR","latitude":"40.47333000","longitude":"25.52222000"},{"id":"53264","name":"S\u00e1pes","state_id":2120,"state_code":"A2","country_id":85,"country_code":"GR","latitude":"41.02861000","longitude":"25.69306000"},{"id":"53266","name":"S\u00e9lero","state_id":2120,"state_code":"A2","country_id":85,"country_code":"GR","latitude":"41.13382000","longitude":"24.99408000"},{"id":"53216","name":"Sitagro\u00ed","state_id":2120,"state_code":"A2","country_id":85,"country_code":"GR","latitude":"41.11067000","longitude":"24.02755000"},{"id":"53230","name":"Sm\u00ednthi","state_id":2120,"state_code":"A2","country_id":85,"country_code":"GR","latitude":"41.23333000","longitude":"24.86667000"},{"id":"53235","name":"Soufl\u00ed","state_id":2120,"state_code":"A2","country_id":85,"country_code":"GR","latitude":"41.19194000","longitude":"26.29944000"},{"id":"53282","name":"Th\u00e1sos","state_id":2120,"state_code":"A2","country_id":85,"country_code":"GR","latitude":"40.77806000","longitude":"24.70944000"},{"id":"53298","name":"Tycher\u00f3","state_id":2120,"state_code":"A2","country_id":85,"country_code":"GR","latitude":"41.02878000","longitude":"26.29455000"},{"id":"53345","name":"V\u00f3lakas","state_id":2120,"state_code":"A2","country_id":85,"country_code":"GR","latitude":"41.31661000","longitude":"24.00215000"},{"id":"53353","name":"X\u00e1nthi","state_id":2120,"state_code":"A2","country_id":85,"country_code":"GR","latitude":"41.13488000","longitude":"24.88800000"},{"id":"53350","name":"Xirop\u00f3tamos","state_id":2120,"state_code":"A2","country_id":85,"country_code":"GR","latitude":"41.19206000","longitude":"24.10385000"},{"id":"53351","name":"Xylagan\u00ed","state_id":2120,"state_code":"A2","country_id":85,"country_code":"GR","latitude":"40.97437000","longitude":"25.42022000"},{"id":"53365","name":"Zyg\u00f3s","state_id":2120,"state_code":"A2","country_id":85,"country_code":"GR","latitude":"41.01320000","longitude":"24.38132000"}]