[{"id":"52424","name":"Ag\u00eda Tri\u00e1da","state_id":2127,"state_code":"23","country_id":85,"country_code":"GR","latitude":"39.46361000","longitude":"21.89848000"},{"id":"52412","name":"Agnanter\u00f3","state_id":2127,"state_code":"23","country_id":85,"country_code":"GR","latitude":"39.48586000","longitude":"21.84789000"},{"id":"52477","name":"An\u00e1vra","state_id":2127,"state_code":"23","country_id":85,"country_code":"GR","latitude":"39.18996000","longitude":"22.09308000"},{"id":"52469","name":"Anthir\u00f3","state_id":2127,"state_code":"23","country_id":85,"country_code":"GR","latitude":"39.34722000","longitude":"21.45833000"},{"id":"52499","name":"Artesian\u00f3","state_id":2127,"state_code":"23","country_id":85,"country_code":"GR","latitude":"39.40194000","longitude":"21.89649000"},{"id":"52670","name":"It\u00e9a","state_id":2127,"state_code":"23","country_id":85,"country_code":"GR","latitude":"39.45669000","longitude":"22.16577000"},{"id":"52684","name":"Kall\u00edthiro","state_id":2127,"state_code":"23","country_id":85,"country_code":"GR","latitude":"39.28099000","longitude":"21.90491000"},{"id":"52680","name":"Kallif\u00f3ni","state_id":2127,"state_code":"23","country_id":85,"country_code":"GR","latitude":"39.27712000","longitude":"21.96128000"},{"id":"52713","name":"Kard\u00edtsa","state_id":2127,"state_code":"23","country_id":85,"country_code":"GR","latitude":"39.36485000","longitude":"21.92191000"},{"id":"52710","name":"Karditsomago\u00fala","state_id":2127,"state_code":"23","country_id":85,"country_code":"GR","latitude":"39.39061000","longitude":"21.92330000"},{"id":"52717","name":"Karpoch\u00f3ri","state_id":2127,"state_code":"23","country_id":85,"country_code":"GR","latitude":"39.33575000","longitude":"22.01129000"},{"id":"52884","name":"Mago\u00fala","state_id":2127,"state_code":"23","country_id":85,"country_code":"GR","latitude":"39.45395000","longitude":"21.80351000"},{"id":"52889","name":"Makrych\u00f3ri","state_id":2127,"state_code":"23","country_id":85,"country_code":"GR","latitude":"39.43978000","longitude":"21.96582000"},{"id":"52907","name":"Mavromm\u00e1ti","state_id":2127,"state_code":"23","country_id":85,"country_code":"GR","latitude":"39.42386000","longitude":"21.69379000"},{"id":"52938","name":"Mitr\u00f3poli","state_id":2127,"state_code":"23","country_id":85,"country_code":"GR","latitude":"39.33933000","longitude":"21.83751000"},{"id":"52942","name":"Morfovo\u00fani","state_id":2127,"state_code":"23","country_id":85,"country_code":"GR","latitude":"39.35250000","longitude":"21.75000000"},{"id":"52947","name":"Mouz\u00e1ki","state_id":2127,"state_code":"23","country_id":85,"country_code":"GR","latitude":"39.42972000","longitude":"21.66361000"},{"id":"53081","name":"Palam\u00e1s","state_id":2127,"state_code":"23","country_id":85,"country_code":"GR","latitude":"39.46667000","longitude":"22.08333000"},{"id":"53147","name":"Pro\u00e1stio","state_id":2127,"state_code":"23","country_id":85,"country_code":"GR","latitude":"39.48682000","longitude":"21.90288000"},{"id":"53233","name":"Sof\u00e1des","state_id":2127,"state_code":"23","country_id":85,"country_code":"GR","latitude":"39.33333000","longitude":"22.10000000"}]