[{"id":"81147","name":"Adlay","state_id":1314,"state_code":"13","country_id":174,"country_code":"PH","latitude":"9.40972000","longitude":"125.89750000"},{"id":"81153","name":"Agay","state_id":1314,"state_code":"13","country_id":174,"country_code":"PH","latitude":"9.05361000","longitude":"125.58667000"},{"id":"81200","name":"Alegria","state_id":1314,"state_code":"13","country_id":174,"country_code":"PH","latitude":"9.46694000","longitude":"125.57722000"},{"id":"81235","name":"Alubijid","state_id":1314,"state_code":"13","country_id":174,"country_code":"PH","latitude":"8.96278000","longitude":"125.42583000"},{"id":"81240","name":"Amaga","state_id":1314,"state_code":"13","country_id":174,"country_code":"PH","latitude":"8.53083000","longitude":"126.07028000"},{"id":"81280","name":"Anticala","state_id":1314,"state_code":"13","country_id":174,"country_code":"PH","latitude":"9.00444000","longitude":"125.64528000"},{"id":"81308","name":"Aras-asan","state_id":1314,"state_code":"13","country_id":174,"country_code":"PH","latitude":"8.88781000","longitude":"126.31120000"},{"id":"81336","name":"Aurora","state_id":1314,"state_code":"13","country_id":174,"country_code":"PH","latitude":"8.59306000","longitude":"125.83750000"},{"id":"81364","name":"Bacolod","state_id":1314,"state_code":"13","country_id":174,"country_code":"PH","latitude":"8.93167000","longitude":"126.28944000"},{"id":"81373","name":"Bacuag","state_id":1314,"state_code":"13","country_id":174,"country_code":"PH","latitude":"9.60806000","longitude":"125.63889000"},{"id":"81415","name":"Bah-Bah","state_id":1314,"state_code":"13","country_id":174,"country_code":"PH","latitude":"8.60722000","longitude":"125.91444000"},{"id":"81442","name":"Balangbalang","state_id":1314,"state_code":"13","country_id":174,"country_code":"PH","latitude":"9.05694000","longitude":"125.62278000"},{"id":"81521","name":"Bancasi","state_id":1314,"state_code":"13","country_id":174,"country_code":"PH","latitude":"8.96667000","longitude":"125.46667000"},{"id":"81533","name":"Bangonay","state_id":1314,"state_code":"13","country_id":174,"country_code":"PH","latitude":"9.31444000","longitude":"125.55389000"},{"id":"81571","name":"Barcelona","state_id":1314,"state_code":"13","country_id":174,"country_code":"PH","latitude":"8.15917000","longitude":"126.43417000"},{"id":"81579","name":"Barobo","state_id":1314,"state_code":"13","country_id":174,"country_code":"PH","latitude":"8.53528000","longitude":"126.12139000"},{"id":"81591","name":"Basa","state_id":1314,"state_code":"13","country_id":174,"country_code":"PH","latitude":"8.07222000","longitude":"126.06417000"},{"id":"81592","name":"Basag","state_id":1314,"state_code":"13","country_id":174,"country_code":"PH","latitude":"8.92548000","longitude":"125.62167000"},{"id":"81605","name":"Basilisa","state_id":1314,"state_code":"13","country_id":174,"country_code":"PH","latitude":"10.00000000","longitude":"125.50000000"},{"id":"81653","name":"Bayabas","state_id":1314,"state_code":"13","country_id":174,"country_code":"PH","latitude":"8.96972000","longitude":"126.28611000"},{"id":"81668","name":"Bayugan","state_id":1314,"state_code":"13","country_id":174,"country_code":"PH","latitude":"8.75611000","longitude":"125.76750000"},{"id":"81695","name":"Bigaan","state_id":1314,"state_code":"13","country_id":174,"country_code":"PH","latitude":"8.31722000","longitude":"126.28111000"},{"id":"81734","name":"Binucayan","state_id":1314,"state_code":"13","country_id":174,"country_code":"PH","latitude":"8.25000000","longitude":"125.71667000"},{"id":"81737","name":"Bislig","state_id":1314,"state_code":"13","country_id":174,"country_code":"PH","latitude":"8.21528000","longitude":"126.31639000"},{"id":"81797","name":"Borbon","state_id":1314,"state_code":"13","country_id":174,"country_code":"PH","latitude":"8.48417000","longitude":"125.89306000"},{"id":"81831","name":"Buenavista","state_id":1314,"state_code":"13","country_id":174,"country_code":"PH","latitude":"8.97694000","longitude":"125.40889000"},{"id":"81892","name":"Bunawan","state_id":1314,"state_code":"13","country_id":174,"country_code":"PH","latitude":"8.16722000","longitude":"125.99083000"},{"id":"81908","name":"Burgos","state_id":1314,"state_code":"13","country_id":174,"country_code":"PH","latitude":"9.26639000","longitude":"126.18833000"},{"id":"81925","name":"Butuan","state_id":1314,"state_code":"13","country_id":174,"country_code":"PH","latitude":"8.94917000","longitude":"125.54361000"},{"id":"81937","name":"Cabadbaran","state_id":1314,"state_code":"13","country_id":174,"country_code":"PH","latitude":"9.12261000","longitude":"125.53549000"},{"id":"81997","name":"Cagdianao","state_id":1314,"state_code":"13","country_id":174,"country_code":"PH","latitude":"9.92111000","longitude":"125.66917000"},{"id":"82000","name":"Cagwait","state_id":1314,"state_code":"13","country_id":174,"country_code":"PH","latitude":"8.91861000","longitude":"126.30111000"},{"id":"82016","name":"Calamba","state_id":1314,"state_code":"13","country_id":174,"country_code":"PH","latitude":"9.10361000","longitude":"125.59417000"},{"id":"82060","name":"Caloc-an","state_id":1314,"state_code":"13","country_id":174,"country_code":"PH","latitude":"9.04694000","longitude":"125.53056000"},{"id":"82126","name":"Cantapoy","state_id":1314,"state_code":"13","country_id":174,"country_code":"PH","latitude":"9.49056000","longitude":"125.43639000"},{"id":"82128","name":"Cantilan","state_id":1314,"state_code":"13","country_id":174,"country_code":"PH","latitude":"9.33361000","longitude":"125.97750000"},{"id":"82134","name":"Capalayan","state_id":1314,"state_code":"13","country_id":174,"country_code":"PH","latitude":"9.74056000","longitude":"125.54444000"},{"id":"82169","name":"Carmen","state_id":1314,"state_code":"13","country_id":174,"country_code":"PH","latitude":"9.22639000","longitude":"126.01722000"},{"id":"82181","name":"Carrascal","state_id":1314,"state_code":"13","country_id":174,"country_code":"PH","latitude":"9.37028000","longitude":"125.94917000"},{"id":"82224","name":"Causwagan","state_id":1314,"state_code":"13","country_id":174,"country_code":"PH","latitude":"8.44750000","longitude":"125.84028000"},{"id":"82248","name":"Claver","state_id":1314,"state_code":"13","country_id":174,"country_code":"PH","latitude":"9.57250000","longitude":"125.73306000"},{"id":"82264","name":"Comagascas","state_id":1314,"state_code":"13","country_id":174,"country_code":"PH","latitude":"9.13972000","longitude":"125.55972000"},{"id":"82299","name":"Cortes","state_id":1314,"state_code":"13","country_id":174,"country_code":"PH","latitude":"9.27972000","longitude":"126.19111000"},{"id":"82308","name":"Cuevas","state_id":1314,"state_code":"13","country_id":174,"country_code":"PH","latitude":"8.01917000","longitude":"126.09417000"},{"id":"82316","name":"Culit","state_id":1314,"state_code":"13","country_id":174,"country_code":"PH","latitude":"8.94722000","longitude":"125.35694000"},{"id":"82375","name":"Dapa","state_id":1314,"state_code":"13","country_id":174,"country_code":"PH","latitude":"9.75944000","longitude":"126.05306000"},{"id":"82405","name":"Del Carmen, Surigao del Norte","state_id":1314,"state_code":"13","country_id":174,"country_code":"PH","latitude":"9.86944000","longitude":"125.96972000"},{"id":"82410","name":"Del Pilar","state_id":1314,"state_code":"13","country_id":174,"country_code":"PH","latitude":"9.15194000","longitude":"125.58472000"},{"id":"82433","name":"Dinagat","state_id":1314,"state_code":"13","country_id":174,"country_code":"PH","latitude":"9.95611000","longitude":"125.59333000"},{"id":"82434","name":"Dinagat Islands","state_id":1314,"state_code":"13","country_id":174,"country_code":"PH","latitude":"10.12301000","longitude":"125.55725000"},{"id":"82519","name":"Esperanza","state_id":1314,"state_code":"13","country_id":174,"country_code":"PH","latitude":"8.67694000","longitude":"125.64694000"},{"id":"82560","name":"Gamut","state_id":1314,"state_code":"13","country_id":174,"country_code":"PH","latitude":"8.53153000","longitude":"126.24117000"},{"id":"82576","name":"General Luna","state_id":1314,"state_code":"13","country_id":174,"country_code":"PH","latitude":"9.78417000","longitude":"126.15889000"},{"id":"82591","name":"Gigaquit","state_id":1314,"state_code":"13","country_id":174,"country_code":"PH","latitude":"9.59444000","longitude":"125.69750000"},{"id":"82612","name":"Guadalupe","state_id":1314,"state_code":"13","country_id":174,"country_code":"PH","latitude":"8.58278000","longitude":"125.70806000"},{"id":"82628","name":"Guinabsan","state_id":1314,"state_code":"13","country_id":174,"country_code":"PH","latitude":"8.89750000","longitude":"125.41611000"},{"id":"82693","name":"Hinatuan","state_id":1314,"state_code":"13","country_id":174,"country_code":"PH","latitude":"8.37222000","longitude":"126.33417000"},{"id":"82758","name":"Ipil","state_id":1314,"state_code":"13","country_id":174,"country_code":"PH","latitude":"9.79070000","longitude":"125.43860000"},{"id":"82778","name":"Jabonga","state_id":1314,"state_code":"13","country_id":174,"country_code":"PH","latitude":"9.34306000","longitude":"125.51556000"},{"id":"82784","name":"Jagupit","state_id":1314,"state_code":"13","country_id":174,"country_code":"PH","latitude":"9.24222000","longitude":"125.55806000"},{"id":"82801","name":"Javier","state_id":1314,"state_code":"13","country_id":174,"country_code":"PH","latitude":"8.48889000","longitude":"126.08500000"},{"id":"82885","name":"Kauswagan","state_id":1314,"state_code":"13","country_id":174,"country_code":"PH","latitude":"8.51667000","longitude":"125.75000000"},{"id":"82904","name":"Kinabhangan","state_id":1314,"state_code":"13","country_id":174,"country_code":"PH","latitude":"8.96917000","longitude":"125.35750000"},{"id":"82918","name":"Kitcharao","state_id":1314,"state_code":"13","country_id":174,"country_code":"PH","latitude":"9.45500000","longitude":"125.57306000"},{"id":"82945","name":"La Paz","state_id":1314,"state_code":"13","country_id":174,"country_code":"PH","latitude":"8.27083000","longitude":"125.79972000"},{"id":"82955","name":"La Union","state_id":1314,"state_code":"13","country_id":174,"country_code":"PH","latitude":"9.08556000","longitude":"125.53583000"},{"id":"83025","name":"Lanuza","state_id":1314,"state_code":"13","country_id":174,"country_code":"PH","latitude":"9.23417000","longitude":"126.06444000"},{"id":"83034","name":"Lapinigan","state_id":1314,"state_code":"13","country_id":174,"country_code":"PH","latitude":"8.42056000","longitude":"125.98250000"},{"id":"83074","name":"Lianga","state_id":1314,"state_code":"13","country_id":174,"country_code":"PH","latitude":"8.63361000","longitude":"126.09472000"},{"id":"83081","name":"Libas","state_id":1314,"state_code":"13","country_id":174,"country_code":"PH","latitude":"9.88333000","longitude":"125.98333000"},{"id":"83083","name":"Libertad","state_id":1314,"state_code":"13","country_id":174,"country_code":"PH","latitude":"8.94417000","longitude":"125.50194000"},{"id":"83091","name":"Libjo","state_id":1314,"state_code":"13","country_id":174,"country_code":"PH","latitude":"10.19778000","longitude":"125.53528000"},{"id":"83140","name":"Lingig","state_id":1314,"state_code":"13","country_id":174,"country_code":"PH","latitude":"8.03889000","longitude":"126.41250000"},{"id":"83164","name":"Lombocan","state_id":1314,"state_code":"13","country_id":174,"country_code":"PH","latitude":"9.00767000","longitude":"125.50558000"},{"id":"83182","name":"Loreto","state_id":1314,"state_code":"13","country_id":174,"country_code":"PH","latitude":"8.18694000","longitude":"125.85306000"},{"id":"83183","name":"Los Angeles","state_id":1314,"state_code":"13","country_id":174,"country_code":"PH","latitude":"9.01250000","longitude":"125.60806000"},{"id":"83184","name":"Los Arcos","state_id":1314,"state_code":"13","country_id":174,"country_code":"PH","latitude":"8.63278000","longitude":"125.98556000"},{"id":"83189","name":"Loyola","state_id":1314,"state_code":"13","country_id":174,"country_code":"PH","latitude":"8.33492000","longitude":"126.33366000"},{"id":"83230","name":"Luna","state_id":1314,"state_code":"13","country_id":174,"country_code":"PH","latitude":"9.73700000","longitude":"125.49760000"},{"id":"83265","name":"Mabahin","state_id":1314,"state_code":"13","country_id":174,"country_code":"PH","latitude":"9.18556000","longitude":"126.17056000"},{"id":"83286","name":"Mabua","state_id":1314,"state_code":"13","country_id":174,"country_code":"PH","latitude":"9.80390000","longitude":"125.44090000"},{"id":"83313","name":"Madrid","state_id":1314,"state_code":"13","country_id":174,"country_code":"PH","latitude":"9.26211000","longitude":"125.96437000"},{"id":"83319","name":"Magallanes","state_id":1314,"state_code":"13","country_id":174,"country_code":"PH","latitude":"9.02000000","longitude":"125.51722000"},{"id":"83370","name":"Mainit","state_id":1314,"state_code":"13","country_id":174,"country_code":"PH","latitude":"9.53500000","longitude":"125.52306000"},{"id":"83433","name":"Malimono","state_id":1314,"state_code":"13","country_id":174,"country_code":"PH","latitude":"9.61806000","longitude":"125.40222000"},{"id":"83492","name":"Manapa","state_id":1314,"state_code":"13","country_id":174,"country_code":"PH","latitude":"8.97778000","longitude":"125.43944000"},{"id":"83582","name":"Marihatag","state_id":1314,"state_code":"13","country_id":174,"country_code":"PH","latitude":"8.80590000","longitude":"126.29660000"},{"id":"83612","name":"Matabao","state_id":1314,"state_code":"13","country_id":174,"country_code":"PH","latitude":"8.95722000","longitude":"125.39944000"},{"id":"83624","name":"Mati","state_id":1314,"state_code":"13","country_id":174,"country_code":"PH","latitude":"9.73580000","longitude":"125.46800000"},{"id":"83649","name":"Maygatasan","state_id":1314,"state_code":"13","country_id":174,"country_code":"PH","latitude":"8.70944000","longitude":"125.71833000"},{"id":"83783","name":"Nasipit","state_id":1314,"state_code":"13","country_id":174,"country_code":"PH","latitude":"8.96917000","longitude":"125.29472000"},{"id":"83986","name":"Panikian","state_id":1314,"state_code":"13","country_id":174,"country_code":"PH","latitude":"9.32935000","longitude":"125.93380000"},{"id":"84018","name":"Parang","state_id":1314,"state_code":"13","country_id":174,"country_code":"PH","latitude":"9.28149000","longitude":"125.94208000"},{"id":"84043","name":"Patin-ay","state_id":1314,"state_code":"13","country_id":174,"country_code":"PH","latitude":"8.55056000","longitude":"125.93722000"},{"id":"84092","name":"Pilar","state_id":1314,"state_code":"13","country_id":174,"country_code":"PH","latitude":"9.86500000","longitude":"126.09944000"},{"id":"84128","name":"Placer","state_id":1314,"state_code":"13","country_id":174,"country_code":"PH","latitude":"9.65417000","longitude":"125.60250000"},{"id":"84178","name":"Prosperidad","state_id":1314,"state_code":"13","country_id":174,"country_code":"PH","latitude":"8.58000000","longitude":"125.89639000"},{"id":"84182","name":"Province of Agusan del Norte","state_id":1314,"state_code":"13","country_id":174,"country_code":"PH","latitude":"8.99360000","longitude":"125.57098000"},{"id":"84183","name":"Province of Agusan del Sur","state_id":1314,"state_code":"13","country_id":174,"country_code":"PH","latitude":"8.50000000","longitude":"125.83333000"},{"id":"84246","name":"Province of Surigao del Norte","state_id":1314,"state_code":"13","country_id":174,"country_code":"PH","latitude":"9.66303000","longitude":"125.52704000"},{"id":"84247","name":"Province of Surigao del Sur","state_id":1314,"state_code":"13","country_id":174,"country_code":"PH","latitude":"8.80908000","longitude":"126.12854000"},{"id":"84280","name":"Punta","state_id":1314,"state_code":"13","country_id":174,"country_code":"PH","latitude":"8.98972000","longitude":"125.34000000"},{"id":"84345","name":"Rizal","state_id":1314,"state_code":"13","country_id":174,"country_code":"PH","latitude":"8.92917000","longitude":"125.39861000"},{"id":"84421","name":"Salvacion","state_id":1314,"state_code":"13","country_id":174,"country_code":"PH","latitude":"7.99954000","longitude":"126.12480000"},{"id":"84455","name":"San Benito","state_id":1314,"state_code":"13","country_id":174,"country_code":"PH","latitude":"9.95778000","longitude":"126.00694000"},{"id":"84486","name":"San Francisco","state_id":1314,"state_code":"13","country_id":174,"country_code":"PH","latitude":"8.53556000","longitude":"125.95000000"},{"id":"84503","name":"San Isidro","state_id":1314,"state_code":"13","country_id":174,"country_code":"PH","latitude":"9.93694000","longitude":"126.08861000"},{"id":"84538","name":"San Luis","state_id":1314,"state_code":"13","country_id":174,"country_code":"PH","latitude":"8.47806000","longitude":"125.74389000"},{"id":"84566","name":"San Miguel","state_id":1314,"state_code":"13","country_id":174,"country_code":"PH","latitude":"8.96889000","longitude":"125.94500000"},{"id":"84634","name":"Sanghan","state_id":1314,"state_code":"13","country_id":174,"country_code":"PH","latitude":"9.08556000","longitude":"125.57278000"},{"id":"84640","name":"Santa Ana","state_id":1314,"state_code":"13","country_id":174,"country_code":"PH","latitude":"9.19278000","longitude":"125.56444000"},{"id":"84674","name":"Santa Josefa","state_id":1314,"state_code":"13","country_id":174,"country_code":"PH","latitude":"7.99111000","longitude":"126.03000000"},{"id":"84684","name":"Santa Maria","state_id":1314,"state_code":"13","country_id":174,"country_code":"PH","latitude":"8.03333000","longitude":"126.16250000"},{"id":"84691","name":"Santa Monica","state_id":1314,"state_code":"13","country_id":174,"country_code":"PH","latitude":"10.02000000","longitude":"126.03833000"},{"id":"84730","name":"Santo Tomas","state_id":1314,"state_code":"13","country_id":174,"country_code":"PH","latitude":"8.18583000","longitude":"125.80389000"},{"id":"84768","name":"Sibagat","state_id":1314,"state_code":"13","country_id":174,"country_code":"PH","latitude":"8.82250000","longitude":"125.69750000"},{"id":"84820","name":"Sinubong","state_id":1314,"state_code":"13","country_id":174,"country_code":"PH","latitude":"8.06840000","longitude":"125.93080000"},{"id":"84832","name":"Sison","state_id":1314,"state_code":"13","country_id":174,"country_code":"PH","latitude":"9.66028000","longitude":"125.52861000"},{"id":"84835","name":"Socorro","state_id":1314,"state_code":"13","country_id":174,"country_code":"PH","latitude":"9.62139000","longitude":"125.96667000"},{"id":"84882","name":"Surigao","state_id":1314,"state_code":"13","country_id":174,"country_code":"PH","latitude":"9.78900000","longitude":"125.49500000"},{"id":"84927","name":"Tagana-an","state_id":1314,"state_code":"13","country_id":174,"country_code":"PH","latitude":"9.69722000","longitude":"125.58556000"},{"id":"84936","name":"Tagbina","state_id":1314,"state_code":"13","country_id":174,"country_code":"PH","latitude":"8.45194000","longitude":"126.17139000"},{"id":"84940","name":"Tagcatong","state_id":1314,"state_code":"13","country_id":174,"country_code":"PH","latitude":"9.00222000","longitude":"125.25694000"},{"id":"84944","name":"Tago","state_id":1314,"state_code":"13","country_id":174,"country_code":"PH","latitude":"9.02111000","longitude":"126.23167000"},{"id":"84961","name":"Talacogon","state_id":1314,"state_code":"13","country_id":174,"country_code":"PH","latitude":"8.45611000","longitude":"125.78417000"},{"id":"84975","name":"Taligaman","state_id":1314,"state_code":"13","country_id":174,"country_code":"PH","latitude":"8.90444000","longitude":"125.65583000"},{"id":"84982","name":"Talisay","state_id":1314,"state_code":"13","country_id":174,"country_code":"PH","latitude":"9.81889000","longitude":"125.61556000"},{"id":"85031","name":"Tandag","state_id":1314,"state_code":"13","country_id":174,"country_code":"PH","latitude":"9.07833000","longitude":"126.19861000"},{"id":"85099","name":"Tidman","state_id":1314,"state_code":"13","country_id":174,"country_code":"PH","latitude":"8.29861000","longitude":"126.33889000"},{"id":"85101","name":"Tigao","state_id":1314,"state_code":"13","country_id":174,"country_code":"PH","latitude":"9.20889000","longitude":"126.17611000"},{"id":"85178","name":"Trento","state_id":1314,"state_code":"13","country_id":174,"country_code":"PH","latitude":"8.04583000","longitude":"126.06361000"},{"id":"85181","name":"Tubajon","state_id":1314,"state_code":"13","country_id":174,"country_code":"PH","latitude":"10.33167000","longitude":"125.56194000"},{"id":"85188","name":"Tubay","state_id":1314,"state_code":"13","country_id":174,"country_code":"PH","latitude":"9.16694000","longitude":"125.52389000"},{"id":"85194","name":"Tubod","state_id":1314,"state_code":"13","country_id":174,"country_code":"PH","latitude":"9.56250000","longitude":"125.57083000"},{"id":"85226","name":"Tungao","state_id":1314,"state_code":"13","country_id":174,"country_code":"PH","latitude":"8.78368000","longitude":"125.59587000"},{"id":"85254","name":"Unidad","state_id":1314,"state_code":"13","country_id":174,"country_code":"PH","latitude":"8.53556000","longitude":"126.22865000"},{"id":"85259","name":"Union","state_id":1314,"state_code":"13","country_id":174,"country_code":"PH","latitude":"9.75667000","longitude":"126.11028000"},{"id":"85282","name":"Veruela","state_id":1314,"state_code":"13","country_id":174,"country_code":"PH","latitude":"8.07310000","longitude":"125.95580000"}]