[{"id":"81127","name":"Abaca","state_id":1336,"state_code":"ANT","country_id":174,"country_code":"PH","latitude":"11.13420000","longitude":"122.71560000"},{"id":"81128","name":"Abangay","state_id":1336,"state_code":"ANT","country_id":174,"country_code":"PH","latitude":"10.96667000","longitude":"122.65000000"},{"id":"81129","name":"Abiera","state_id":1336,"state_code":"ANT","country_id":174,"country_code":"PH","latitude":"11.57490000","longitude":"122.09000000"},{"id":"81130","name":"Abilay","state_id":1336,"state_code":"ANT","country_id":174,"country_code":"PH","latitude":"10.73333000","longitude":"122.50000000"},{"id":"81150","name":"Ag-ambulong","state_id":1336,"state_code":"ANT","country_id":174,"country_code":"PH","latitude":"11.36840000","longitude":"122.50940000"},{"id":"81152","name":"Aganan","state_id":1336,"state_code":"ANT","country_id":174,"country_code":"PH","latitude":"10.78333000","longitude":"122.53333000"},{"id":"81159","name":"Aglalana","state_id":1336,"state_code":"ANT","country_id":174,"country_code":"PH","latitude":"11.18030000","longitude":"122.65740000"},{"id":"81165","name":"Agpangi","state_id":1336,"state_code":"ANT","country_id":174,"country_code":"PH","latitude":"10.57716000","longitude":"123.42320000"},{"id":"81170","name":"Aguisan","state_id":1336,"state_code":"ANT","country_id":174,"country_code":"PH","latitude":"10.16030000","longitude":"122.86150000"},{"id":"81174","name":"Ajuy","state_id":1336,"state_code":"ANT","country_id":174,"country_code":"PH","latitude":"11.17240000","longitude":"123.01970000"},{"id":"81180","name":"Alacaygan","state_id":1336,"state_code":"ANT","country_id":174,"country_code":"PH","latitude":"10.84014000","longitude":"123.05830000"},{"id":"81199","name":"Alegria","state_id":1336,"state_code":"ANT","country_id":174,"country_code":"PH","latitude":"10.64345000","longitude":"123.08360000"},{"id":"81211","name":"Alibunan","state_id":1336,"state_code":"ANT","country_id":174,"country_code":"PH","latitude":"11.14652000","longitude":"122.45911000"},{"id":"81212","name":"Alicante","state_id":1336,"state_code":"ANT","country_id":174,"country_code":"PH","latitude":"10.89704000","longitude":"123.01850000"},{"id":"81216","name":"Alijis","state_id":1336,"state_code":"ANT","country_id":174,"country_code":"PH","latitude":"10.45830000","longitude":"122.83480000"},{"id":"81218","name":"Alim","state_id":1336,"state_code":"ANT","country_id":174,"country_code":"PH","latitude":"9.56490000","longitude":"122.48760000"},{"id":"81219","name":"Alimodian","state_id":1336,"state_code":"ANT","country_id":174,"country_code":"PH","latitude":"10.82139000","longitude":"122.43111000"},{"id":"81220","name":"Alimono","state_id":1336,"state_code":"ANT","country_id":174,"country_code":"PH","latitude":"11.18550000","longitude":"122.71290000"},{"id":"81232","name":"Altavas","state_id":1336,"state_code":"ANT","country_id":174,"country_code":"PH","latitude":"11.53800000","longitude":"122.48700000"},{"id":"81245","name":"Ambulong","state_id":1336,"state_code":"ANT","country_id":174,"country_code":"PH","latitude":"11.57930000","longitude":"122.49870000"},{"id":"81263","name":"Andres Bonifacio","state_id":1336,"state_code":"ANT","country_id":174,"country_code":"PH","latitude":"10.91667000","longitude":"123.25000000"},{"id":"81273","name":"Anini-y","state_id":1336,"state_code":"ANT","country_id":174,"country_code":"PH","latitude":"10.43120000","longitude":"121.92700000"},{"id":"81277","name":"Anoring","state_id":1336,"state_code":"ANT","country_id":174,"country_code":"PH","latitude":"11.25000000","longitude":"123.03333000"},{"id":"81285","name":"Antipolo","state_id":1336,"state_code":"ANT","country_id":174,"country_code":"PH","latitude":"10.35650000","longitude":"122.96460000"},{"id":"81301","name":"Aquino","state_id":1336,"state_code":"ANT","country_id":174,"country_code":"PH","latitude":"11.82210000","longitude":"122.10880000"},{"id":"81302","name":"Araal","state_id":1336,"state_code":"ANT","country_id":174,"country_code":"PH","latitude":"10.41950000","longitude":"123.04370000"},{"id":"81306","name":"Aranas Sur","state_id":1336,"state_code":"ANT","country_id":174,"country_code":"PH","latitude":"11.56350000","longitude":"122.39010000"},{"id":"81307","name":"Aranda","state_id":1336,"state_code":"ANT","country_id":174,"country_code":"PH","latitude":"10.23650000","longitude":"122.94670000"},{"id":"81310","name":"Arcangel","state_id":1336,"state_code":"ANT","country_id":174,"country_code":"PH","latitude":"11.53950000","longitude":"122.34550000"},{"id":"81319","name":"Asia","state_id":1336,"state_code":"ANT","country_id":174,"country_code":"PH","latitude":"9.55060000","longitude":"122.51640000"},{"id":"81322","name":"Asturga","state_id":1336,"state_code":"ANT","country_id":174,"country_code":"PH","latitude":"11.25449000","longitude":"122.80180000"},{"id":"81324","name":"Atabayan","state_id":1336,"state_code":"ANT","country_id":174,"country_code":"PH","latitude":"10.68333000","longitude":"122.41667000"},{"id":"81326","name":"Atipuluhan","state_id":1336,"state_code":"ANT","country_id":174,"country_code":"PH","latitude":"10.51336000","longitude":"122.96210000"},{"id":"81331","name":"Aurelliana","state_id":1336,"state_code":"ANT","country_id":174,"country_code":"PH","latitude":"10.88490000","longitude":"121.97690000"},{"id":"81337","name":"Avila","state_id":1336,"state_code":"ANT","country_id":174,"country_code":"PH","latitude":"10.69200000","longitude":"122.70900000"},{"id":"81670","name":"Ba\u00f1ga","state_id":1336,"state_code":"ANT","country_id":174,"country_code":"PH","latitude":"11.63870000","longitude":"122.33410000"},{"id":"81354","name":"Bacalan","state_id":1336,"state_code":"ANT","country_id":174,"country_code":"PH","latitude":"11.54640000","longitude":"122.08490000"},{"id":"81366","name":"Bacolod City","state_id":1336,"state_code":"ANT","country_id":174,"country_code":"PH","latitude":"10.66667000","longitude":"122.95000000"},{"id":"81378","name":"Bacuyangan","state_id":1336,"state_code":"ANT","country_id":174,"country_code":"PH","latitude":"9.63700000","longitude":"122.47210000"},{"id":"81382","name":"Badiangan","state_id":1336,"state_code":"ANT","country_id":174,"country_code":"PH","latitude":"11.00573000","longitude":"122.50051000"},{"id":"81383","name":"Badlan","state_id":1336,"state_code":"ANT","country_id":174,"country_code":"PH","latitude":"11.14140000","longitude":"122.52000000"},{"id":"81396","name":"Bago City","state_id":1336,"state_code":"ANT","country_id":174,"country_code":"PH","latitude":"10.53333000","longitude":"122.83333000"},{"id":"81404","name":"Bagroy","state_id":1336,"state_code":"ANT","country_id":174,"country_code":"PH","latitude":"10.20310000","longitude":"122.93620000"},{"id":"81412","name":"Bagumbayan","state_id":1336,"state_code":"ANT","country_id":174,"country_code":"PH","latitude":"10.44600000","longitude":"122.83480000"},{"id":"81421","name":"Bailan","state_id":1336,"state_code":"ANT","country_id":174,"country_code":"PH","latitude":"11.45840000","longitude":"122.83010000"},{"id":"81430","name":"Balabag","state_id":1336,"state_code":"ANT","country_id":174,"country_code":"PH","latitude":"11.97000000","longitude":"121.91917000"},{"id":"81451","name":"Balasan","state_id":1336,"state_code":"ANT","country_id":174,"country_code":"PH","latitude":"11.47280000","longitude":"123.08780000"},{"id":"81462","name":"Balete","state_id":1336,"state_code":"ANT","country_id":174,"country_code":"PH","latitude":"11.55560000","longitude":"122.38030000"},{"id":"81465","name":"Balibagan Oeste","state_id":1336,"state_code":"ANT","country_id":174,"country_code":"PH","latitude":"10.80000000","longitude":"122.51667000"},{"id":"81487","name":"Baliwagan","state_id":1336,"state_code":"ANT","country_id":174,"country_code":"PH","latitude":"10.39710000","longitude":"122.89110000"},{"id":"81520","name":"Bancal","state_id":1336,"state_code":"ANT","country_id":174,"country_code":"PH","latitude":"11.55910000","longitude":"123.15510000"},{"id":"81522","name":"Banga","state_id":1336,"state_code":"ANT","country_id":174,"country_code":"PH","latitude":"10.50180000","longitude":"122.82890000"},{"id":"81570","name":"Barbaza","state_id":1336,"state_code":"ANT","country_id":174,"country_code":"PH","latitude":"11.19572000","longitude":"122.03861000"},{"id":"81583","name":"Barotac Nuevo","state_id":1336,"state_code":"ANT","country_id":174,"country_code":"PH","latitude":"10.89417000","longitude":"122.70444000"},{"id":"81584","name":"Barotac Viejo","state_id":1336,"state_code":"ANT","country_id":174,"country_code":"PH","latitude":"11.04194000","longitude":"122.85222000"},{"id":"81602","name":"Basiao","state_id":1336,"state_code":"ANT","country_id":174,"country_code":"PH","latitude":"11.54861000","longitude":"122.63750000"},{"id":"81611","name":"Batad","state_id":1336,"state_code":"ANT","country_id":174,"country_code":"PH","latitude":"11.41800000","longitude":"123.10800000"},{"id":"81613","name":"Batan","state_id":1336,"state_code":"ANT","country_id":174,"country_code":"PH","latitude":"11.58570000","longitude":"122.49710000"},{"id":"81628","name":"Bato","state_id":1336,"state_code":"ANT","country_id":174,"country_code":"PH","latitude":"10.80854000","longitude":"123.37330000"},{"id":"81651","name":"Bay-ang","state_id":1336,"state_code":"ANT","country_id":174,"country_code":"PH","latitude":"11.03472000","longitude":"122.94167000"},{"id":"81659","name":"Bayas","state_id":1336,"state_code":"ANT","country_id":174,"country_code":"PH","latitude":"11.43360000","longitude":"123.18160000"},{"id":"81677","name":"Belison","state_id":1336,"state_code":"ANT","country_id":174,"country_code":"PH","latitude":"10.83840000","longitude":"121.96050000"},{"id":"81683","name":"Biao","state_id":1336,"state_code":"ANT","country_id":174,"country_code":"PH","latitude":"10.10880000","longitude":"122.97720000"},{"id":"81700","name":"Bilao","state_id":1336,"state_code":"ANT","country_id":174,"country_code":"PH","latitude":"11.48800000","longitude":"122.55990000"},{"id":"81706","name":"Binabaan","state_id":1336,"state_code":"ANT","country_id":174,"country_code":"PH","latitude":"11.01910000","longitude":"122.52210000"},{"id":"81710","name":"Binalbagan","state_id":1336,"state_code":"ANT","country_id":174,"country_code":"PH","latitude":"10.19480000","longitude":"122.85810000"},{"id":"81713","name":"Binantocan","state_id":1336,"state_code":"ANT","country_id":174,"country_code":"PH","latitude":"11.40730000","longitude":"122.86020000"},{"id":"81718","name":"Bingawan","state_id":1336,"state_code":"ANT","country_id":174,"country_code":"PH","latitude":"11.23300000","longitude":"122.56720000"},{"id":"81726","name":"Binon-an","state_id":1336,"state_code":"ANT","country_id":174,"country_code":"PH","latitude":"11.39470000","longitude":"123.14260000"},{"id":"81727","name":"Binonga","state_id":1336,"state_code":"ANT","country_id":174,"country_code":"PH","latitude":"10.77190000","longitude":"122.98170000"},{"id":"81739","name":"Bitadtun","state_id":1336,"state_code":"ANT","country_id":174,"country_code":"PH","latitude":"11.49690000","longitude":"122.08511000"},{"id":"81757","name":"Bocana","state_id":1336,"state_code":"ANT","country_id":174,"country_code":"PH","latitude":"10.01160000","longitude":"122.72170000"},{"id":"81765","name":"Bolanon","state_id":1336,"state_code":"ANT","country_id":174,"country_code":"PH","latitude":"10.91710000","longitude":"123.47340000"},{"id":"81769","name":"Bolilao","state_id":1336,"state_code":"ANT","country_id":174,"country_code":"PH","latitude":"10.88333000","longitude":"122.73333000"},{"id":"81777","name":"Bolo","state_id":1336,"state_code":"ANT","country_id":174,"country_code":"PH","latitude":"11.54028000","longitude":"122.75722000"},{"id":"81780","name":"Bolong","state_id":1336,"state_code":"ANT","country_id":174,"country_code":"PH","latitude":"10.81667000","longitude":"122.51667000"},{"id":"81807","name":"Brgy. Bachaw Norte, Kalibo","state_id":1336,"state_code":"ANT","country_id":174,"country_code":"PH","latitude":"11.71806000","longitude":"122.37806000"},{"id":"81808","name":"Brgy. Bulwang, Numancia","state_id":1336,"state_code":"ANT","country_id":174,"country_code":"PH","latitude":"11.72194000","longitude":"122.36111000"},{"id":"81809","name":"Brgy. Mabilo, New Washington","state_id":1336,"state_code":"ANT","country_id":174,"country_code":"PH","latitude":"11.67778000","longitude":"122.40750000"},{"id":"81810","name":"Brgy. Nalook, kalibo","state_id":1336,"state_code":"ANT","country_id":174,"country_code":"PH","latitude":"11.68586000","longitude":"122.36916000"},{"id":"81811","name":"Brgy. New Buswang, Kalibo","state_id":1336,"state_code":"ANT","country_id":174,"country_code":"PH","latitude":"11.71222000","longitude":"122.38472000"},{"id":"81812","name":"Brgy. Tinigao, Kalibo","state_id":1336,"state_code":"ANT","country_id":174,"country_code":"PH","latitude":"11.70000000","longitude":"122.36667000"},{"id":"81829","name":"Buenavista","state_id":1336,"state_code":"ANT","country_id":174,"country_code":"PH","latitude":"10.79874000","longitude":"123.55440000"},{"id":"81838","name":"Buga","state_id":1336,"state_code":"ANT","country_id":174,"country_code":"PH","latitude":"10.71667000","longitude":"122.26667000"},{"id":"81841","name":"Bugang","state_id":1336,"state_code":"ANT","country_id":174,"country_code":"PH","latitude":"10.74185000","longitude":"123.39330000"},{"id":"81844","name":"Bugasong","state_id":1336,"state_code":"ANT","country_id":174,"country_code":"PH","latitude":"11.04464000","longitude":"122.06463000"},{"id":"81859","name":"Bula","state_id":1336,"state_code":"ANT","country_id":174,"country_code":"PH","latitude":"11.44800000","longitude":"122.56850000"},{"id":"81863","name":"Bulad","state_id":1336,"state_code":"ANT","country_id":174,"country_code":"PH","latitude":"10.25480000","longitude":"122.99830000"},{"id":"81870","name":"Bulata","state_id":1336,"state_code":"ANT","country_id":174,"country_code":"PH","latitude":"9.85990000","longitude":"122.40160000"},{"id":"81889","name":"Buluangan","state_id":1336,"state_code":"ANT","country_id":174,"country_code":"PH","latitude":"10.38707000","longitude":"123.33810000"},{"id":"81898","name":"Bungsuan","state_id":1336,"state_code":"ANT","country_id":174,"country_code":"PH","latitude":"11.24040000","longitude":"122.69760000"},{"id":"81905","name":"Buray","state_id":1336,"state_code":"ANT","country_id":174,"country_code":"PH","latitude":"10.71500000","longitude":"122.45944000"},{"id":"81911","name":"Burias","state_id":1336,"state_code":"ANT","country_id":174,"country_code":"PH","latitude":"11.44630000","longitude":"122.54970000"},{"id":"81914","name":"Buruanga","state_id":1336,"state_code":"ANT","country_id":174,"country_code":"PH","latitude":"11.84428000","longitude":"121.88841000"},{"id":"81915","name":"Busay","state_id":1336,"state_code":"ANT","country_id":174,"country_code":"PH","latitude":"10.53780000","longitude":"122.88600000"},{"id":"81931","name":"Buyuan","state_id":1336,"state_code":"ANT","country_id":174,"country_code":"PH","latitude":"10.67086000","longitude":"122.35740000"},{"id":"81935","name":"Cabacungan","state_id":1336,"state_code":"ANT","country_id":174,"country_code":"PH","latitude":"10.32370000","longitude":"123.13310000"},{"id":"81938","name":"Cabadiangan","state_id":1336,"state_code":"ANT","country_id":174,"country_code":"PH","latitude":"9.75340000","longitude":"122.47390000"},{"id":"81946","name":"Cabanbanan","state_id":1336,"state_code":"ANT","country_id":174,"country_code":"PH","latitude":"10.08520000","longitude":"122.95790000"},{"id":"81952","name":"Cabano","state_id":1336,"state_code":"ANT","country_id":174,"country_code":"PH","latitude":"10.58690000","longitude":"122.70020000"},{"id":"81957","name":"Cabatuan","state_id":1336,"state_code":"ANT","country_id":174,"country_code":"PH","latitude":"10.87940000","longitude":"122.48600000"},{"id":"81967","name":"Cabilao","state_id":1336,"state_code":"ANT","country_id":174,"country_code":"PH","latitude":"11.53960000","longitude":"123.14360000"},{"id":"81968","name":"Cabilauan","state_id":1336,"state_code":"ANT","country_id":174,"country_code":"PH","latitude":"10.89222000","longitude":"122.65917000"},{"id":"81978","name":"Cabugao","state_id":1336,"state_code":"ANT","country_id":174,"country_code":"PH","latitude":"10.81028000","longitude":"122.54472000"},{"id":"81987","name":"Cadagmayan Norte","state_id":1336,"state_code":"ANT","country_id":174,"country_code":"PH","latitude":"10.81667000","longitude":"122.50000000"},{"id":"81989","name":"Cadiz","state_id":1336,"state_code":"ANT","country_id":174,"country_code":"PH","latitude":"10.94650000","longitude":"123.28800000"},{"id":"81996","name":"Cagbang","state_id":1336,"state_code":"ANT","country_id":174,"country_code":"PH","latitude":"10.70000000","longitude":"122.49889000"},{"id":"82019","name":"Calampisauan","state_id":1336,"state_code":"ANT","country_id":174,"country_code":"PH","latitude":"10.60985000","longitude":"123.47650000"},{"id":"82030","name":"Calape","state_id":1336,"state_code":"ANT","country_id":174,"country_code":"PH","latitude":"10.27360000","longitude":"122.97430000"},{"id":"82037","name":"Calatrava","state_id":1336,"state_code":"ANT","country_id":174,"country_code":"PH","latitude":"10.59496000","longitude":"123.48380000"},{"id":"82043","name":"Calaya","state_id":1336,"state_code":"ANT","country_id":174,"country_code":"PH","latitude":"10.49160000","longitude":"122.62550000"},{"id":"82055","name":"Calinog","state_id":1336,"state_code":"ANT","country_id":174,"country_code":"PH","latitude":"11.11667000","longitude":"122.56667000"},{"id":"82058","name":"Calizo","state_id":1336,"state_code":"ANT","country_id":174,"country_code":"PH","latitude":"11.58190000","longitude":"122.38570000"},{"id":"82074","name":"Caluya","state_id":1336,"state_code":"ANT","country_id":174,"country_code":"PH","latitude":"11.93100000","longitude":"121.54770000"},{"id":"82081","name":"Camalobalo","state_id":1336,"state_code":"ANT","country_id":174,"country_code":"PH","latitude":"10.27310000","longitude":"122.95050000"},{"id":"82083","name":"Camandag","state_id":1336,"state_code":"ANT","country_id":174,"country_code":"PH","latitude":"10.33333000","longitude":"123.06667000"},{"id":"82084","name":"Camangcamang","state_id":1336,"state_code":"ANT","country_id":174,"country_code":"PH","latitude":"10.17910000","longitude":"122.98650000"},{"id":"82091","name":"Camindangan","state_id":1336,"state_code":"ANT","country_id":174,"country_code":"PH","latitude":"9.91840000","longitude":"122.62960000"},{"id":"82092","name":"Camingawan","state_id":1336,"state_code":"ANT","country_id":174,"country_code":"PH","latitude":"9.89580000","longitude":"122.86250000"},{"id":"82109","name":"Candelaria","state_id":1336,"state_code":"ANT","country_id":174,"country_code":"PH","latitude":"11.28930000","longitude":"122.52280000"},{"id":"82113","name":"Candoni","state_id":1336,"state_code":"ANT","country_id":174,"country_code":"PH","latitude":"9.81700000","longitude":"122.60430000"},{"id":"82116","name":"Caningay","state_id":1336,"state_code":"ANT","country_id":174,"country_code":"PH","latitude":"9.82970000","longitude":"122.64420000"},{"id":"82121","name":"Canroma","state_id":1336,"state_code":"ANT","country_id":174,"country_code":"PH","latitude":"10.36060000","longitude":"122.87900000"},{"id":"82122","name":"Cansilayan","state_id":1336,"state_code":"ANT","country_id":174,"country_code":"PH","latitude":"10.55976000","longitude":"123.01840000"},{"id":"82123","name":"Cansolungon","state_id":1336,"state_code":"ANT","country_id":174,"country_code":"PH","latitude":"10.15100000","longitude":"122.99780000"},{"id":"82130","name":"Canturay","state_id":1336,"state_code":"ANT","country_id":174,"country_code":"PH","latitude":"9.79370000","longitude":"122.45430000"},{"id":"82133","name":"Capaga","state_id":1336,"state_code":"ANT","country_id":174,"country_code":"PH","latitude":"11.43790000","longitude":"122.74790000"},{"id":"82139","name":"Capitan Ramon","state_id":1336,"state_code":"ANT","country_id":174,"country_code":"PH","latitude":"10.76020000","longitude":"123.11480000"},{"id":"82146","name":"Carabalan","state_id":1336,"state_code":"ANT","country_id":174,"country_code":"PH","latitude":"10.09640000","longitude":"122.94600000"},{"id":"82160","name":"Caridad","state_id":1336,"state_code":"ANT","country_id":174,"country_code":"PH","latitude":"10.49670000","longitude":"122.89740000"},{"id":"82164","name":"Carles","state_id":1336,"state_code":"ANT","country_id":174,"country_code":"PH","latitude":"11.57260000","longitude":"123.13420000"},{"id":"82165","name":"Carmelo","state_id":1336,"state_code":"ANT","country_id":174,"country_code":"PH","latitude":"11.01667000","longitude":"122.81667000"},{"id":"82174","name":"Carmen Grande","state_id":1336,"state_code":"ANT","country_id":174,"country_code":"PH","latitude":"10.37870000","longitude":"122.91560000"},{"id":"82184","name":"Cartagena","state_id":1336,"state_code":"ANT","country_id":174,"country_code":"PH","latitude":"9.82030000","longitude":"122.40040000"},{"id":"82194","name":"Cassanayan","state_id":1336,"state_code":"ANT","country_id":174,"country_code":"PH","latitude":"11.51690000","longitude":"123.05120000"},{"id":"82211","name":"Caticlan","state_id":1336,"state_code":"ANT","country_id":174,"country_code":"PH","latitude":"11.93337000","longitude":"121.95981000"},{"id":"82220","name":"Catungan","state_id":1336,"state_code":"ANT","country_id":174,"country_code":"PH","latitude":"10.77060000","longitude":"122.01490000"},{"id":"82229","name":"Cawayan","state_id":1336,"state_code":"ANT","country_id":174,"country_code":"PH","latitude":"9.97180000","longitude":"122.62490000"},{"id":"82235","name":"Cayanguan","state_id":1336,"state_code":"ANT","country_id":174,"country_code":"PH","latitude":"11.68900000","longitude":"122.29090000"},{"id":"82236","name":"Cayhagan","state_id":1336,"state_code":"ANT","country_id":174,"country_code":"PH","latitude":"9.67830000","longitude":"122.43350000"},{"id":"82241","name":"Cervantes","state_id":1336,"state_code":"ANT","country_id":174,"country_code":"PH","latitude":"10.87260000","longitude":"123.52090000"},{"id":"82243","name":"Chambrey","state_id":1336,"state_code":"ANT","country_id":174,"country_code":"PH","latitude":"10.97680000","longitude":"123.16820000"},{"id":"82252","name":"Codcod","state_id":1336,"state_code":"ANT","country_id":174,"country_code":"PH","latitude":"10.46337000","longitude":"123.24950000"},{"id":"82256","name":"Cogon","state_id":1336,"state_code":"ANT","country_id":174,"country_code":"PH","latitude":"11.46410000","longitude":"122.80300000"},{"id":"82259","name":"Colipapa","state_id":1336,"state_code":"ANT","country_id":174,"country_code":"PH","latitude":"9.47260000","longitude":"122.56160000"},{"id":"82272","name":"Concepcion","state_id":1336,"state_code":"ANT","country_id":174,"country_code":"PH","latitude":"10.69200000","longitude":"123.06080000"},{"id":"82277","name":"Concordia","state_id":1336,"state_code":"ANT","country_id":174,"country_code":"PH","latitude":"10.50767000","longitude":"122.54960000"},{"id":"82282","name":"Consolacion","state_id":1336,"state_code":"ANT","country_id":174,"country_code":"PH","latitude":"11.32840000","longitude":"122.63320000"},{"id":"82283","name":"Constancia","state_id":1336,"state_code":"ANT","country_id":174,"country_code":"PH","latitude":"10.59596000","longitude":"122.64150000"},{"id":"82286","name":"Consuelo","state_id":1336,"state_code":"ANT","country_id":174,"country_code":"PH","latitude":"9.99960000","longitude":"122.75800000"},{"id":"82292","name":"Cordova","state_id":1336,"state_code":"ANT","country_id":174,"country_code":"PH","latitude":"10.73028000","longitude":"122.40139000"},{"id":"82300","name":"Cortez","state_id":1336,"state_code":"ANT","country_id":174,"country_code":"PH","latitude":"11.53010000","longitude":"122.39750000"},{"id":"82306","name":"Cuartero","state_id":1336,"state_code":"ANT","country_id":174,"country_code":"PH","latitude":"11.34070000","longitude":"122.66940000"},{"id":"82312","name":"Culasi","state_id":1336,"state_code":"ANT","country_id":174,"country_code":"PH","latitude":"11.42721000","longitude":"122.05601000"},{"id":"82326","name":"Da-an Sur","state_id":1336,"state_code":"ANT","country_id":174,"country_code":"PH","latitude":"11.26120000","longitude":"122.42020000"},{"id":"82348","name":"Daliciasao","state_id":1336,"state_code":"ANT","country_id":174,"country_code":"PH","latitude":"9.98590000","longitude":"122.76180000"},{"id":"82360","name":"Damayan","state_id":1336,"state_code":"ANT","country_id":174,"country_code":"PH","latitude":"11.49360000","longitude":"122.55310000"},{"id":"82368","name":"Dancalan","state_id":1336,"state_code":"ANT","country_id":174,"country_code":"PH","latitude":"9.98210000","longitude":"122.73860000"},{"id":"82373","name":"Dao","state_id":1336,"state_code":"ANT","country_id":174,"country_code":"PH","latitude":"11.39370000","longitude":"122.68560000"},{"id":"82379","name":"Dapdapan","state_id":1336,"state_code":"ANT","country_id":174,"country_code":"PH","latitude":"11.49430000","longitude":"122.63140000"},{"id":"82402","name":"De la Paz","state_id":1336,"state_code":"ANT","country_id":174,"country_code":"PH","latitude":"11.06444000","longitude":"122.77917000"},{"id":"82415","name":"Dian-ay","state_id":1336,"state_code":"ANT","country_id":174,"country_code":"PH","latitude":"10.83333000","longitude":"123.55000000"},{"id":"82440","name":"Dingle","state_id":1336,"state_code":"ANT","country_id":174,"country_code":"PH","latitude":"10.99950000","longitude":"122.67110000"},{"id":"82465","name":"Dos Hermanas","state_id":1336,"state_code":"ANT","country_id":174,"country_code":"PH","latitude":"10.74210000","longitude":"123.03770000"},{"id":"82470","name":"Due\u00f1as","state_id":1336,"state_code":"ANT","country_id":174,"country_code":"PH","latitude":"11.06698000","longitude":"122.61545000"},{"id":"82475","name":"Dulangan","state_id":1336,"state_code":"ANT","country_id":174,"country_code":"PH","latitude":"11.45610000","longitude":"122.95570000"},{"id":"82477","name":"Dulao","state_id":1336,"state_code":"ANT","country_id":174,"country_code":"PH","latitude":"10.54176000","longitude":"122.93830000"},{"id":"82483","name":"Dumalag","state_id":1336,"state_code":"ANT","country_id":174,"country_code":"PH","latitude":"11.30800000","longitude":"122.62360000"},{"id":"82487","name":"Dumangas","state_id":1336,"state_code":"ANT","country_id":174,"country_code":"PH","latitude":"10.82500000","longitude":"122.71300000"},{"id":"82491","name":"Dumarao","state_id":1336,"state_code":"ANT","country_id":174,"country_code":"PH","latitude":"11.26540000","longitude":"122.68890000"},{"id":"82495","name":"Dungon","state_id":1336,"state_code":"ANT","country_id":174,"country_code":"PH","latitude":"11.71960000","longitude":"122.31600000"},{"id":"82497","name":"Duran","state_id":1336,"state_code":"ANT","country_id":174,"country_code":"PH","latitude":"11.26180000","longitude":"122.59170000"},{"id":"82499","name":"East Valencia","state_id":1336,"state_code":"ANT","country_id":174,"country_code":"PH","latitude":"10.66800000","longitude":"122.71000000"},{"id":"82503","name":"Ega\u00f1a","state_id":1336,"state_code":"ANT","country_id":174,"country_code":"PH","latitude":"10.74720000","longitude":"122.00984000"},{"id":"82513","name":"Ermita","state_id":1336,"state_code":"ANT","country_id":174,"country_code":"PH","latitude":"10.90000000","longitude":"122.71667000"},{"id":"82514","name":"Escalante","state_id":1336,"state_code":"ANT","country_id":174,"country_code":"PH","latitude":"10.84028000","longitude":"123.49917000"},{"id":"82527","name":"Estancia","state_id":1336,"state_code":"ANT","country_id":174,"country_code":"PH","latitude":"11.45510000","longitude":"123.15200000"},{"id":"82533","name":"Eustaquio Lopez","state_id":1336,"state_code":"ANT","country_id":174,"country_code":"PH","latitude":"10.81950000","longitude":"123.04120000"},{"id":"82537","name":"Feliciano","state_id":1336,"state_code":"ANT","country_id":174,"country_code":"PH","latitude":"11.57870000","longitude":"122.35830000"},{"id":"82548","name":"Gabi","state_id":1336,"state_code":"ANT","country_id":174,"country_code":"PH","latitude":"11.59560000","longitude":"123.33760000"},{"id":"82586","name":"Getulio","state_id":1336,"state_code":"ANT","country_id":174,"country_code":"PH","latitude":"10.74700000","longitude":"122.66600000"},{"id":"82588","name":"Gibato","state_id":1336,"state_code":"ANT","country_id":174,"country_code":"PH","latitude":"11.22510000","longitude":"122.81430000"},{"id":"82590","name":"Gibong","state_id":1336,"state_code":"ANT","country_id":174,"country_code":"PH","latitude":"11.86338000","longitude":"122.03941000"},{"id":"82596","name":"Gines-Patay","state_id":1336,"state_code":"ANT","country_id":174,"country_code":"PH","latitude":"10.93570000","longitude":"122.49320000"},{"id":"82608","name":"Granada","state_id":1336,"state_code":"ANT","country_id":174,"country_code":"PH","latitude":"11.63333000","longitude":"123.35000000"},{"id":"82611","name":"Guadalupe","state_id":1336,"state_code":"ANT","country_id":174,"country_code":"PH","latitude":"10.45447000","longitude":"123.37320000"},{"id":"82625","name":"Guiljungan","state_id":1336,"state_code":"ANT","country_id":174,"country_code":"PH","latitude":"9.98050000","longitude":"122.67420000"},{"id":"82627","name":"Guimbal","state_id":1336,"state_code":"ANT","country_id":174,"country_code":"PH","latitude":"10.66330000","longitude":"122.32280000"},{"id":"82637","name":"Guinoaliuan","state_id":1336,"state_code":"ANT","country_id":174,"country_code":"PH","latitude":"11.65760000","longitude":"122.38510000"},{"id":"82641","name":"Guinticgan","state_id":1336,"state_code":"ANT","country_id":174,"country_code":"PH","latitude":"11.56410000","longitude":"123.12360000"},{"id":"82642","name":"Guintubhan","state_id":1336,"state_code":"ANT","country_id":174,"country_code":"PH","latitude":"10.20740000","longitude":"122.96270000"},{"id":"82649","name":"Guisijan","state_id":1336,"state_code":"ANT","country_id":174,"country_code":"PH","latitude":"11.09320000","longitude":"122.04610000"},{"id":"82664","name":"Hacienda Refugio","state_id":1336,"state_code":"ANT","country_id":174,"country_code":"PH","latitude":"10.52166000","longitude":"123.44450000"},{"id":"82665","name":"Hacienda Santa Rosa","state_id":1336,"state_code":"ANT","country_id":174,"country_code":"PH","latitude":"10.57226000","longitude":"123.10120000"},{"id":"82670","name":"Haguimit","state_id":1336,"state_code":"ANT","country_id":174,"country_code":"PH","latitude":"10.39990000","longitude":"123.01780000"},{"id":"82677","name":"Hamtic","state_id":1336,"state_code":"ANT","country_id":174,"country_code":"PH","latitude":"10.70230000","longitude":"121.98240000"},{"id":"82689","name":"Himamaylan","state_id":1336,"state_code":"ANT","country_id":174,"country_code":"PH","latitude":"10.09889000","longitude":"122.87056000"},{"id":"82690","name":"Himaya","state_id":1336,"state_code":"ANT","country_id":174,"country_code":"PH","latitude":"10.45160000","longitude":"122.83250000"},{"id":"82696","name":"Hinigaran","state_id":1336,"state_code":"ANT","country_id":174,"country_code":"PH","latitude":"10.27060000","longitude":"122.85070000"},{"id":"82702","name":"Hipona","state_id":1336,"state_code":"ANT","country_id":174,"country_code":"PH","latitude":"11.41740000","longitude":"122.88250000"},{"id":"82709","name":"Ibajay","state_id":1336,"state_code":"ANT","country_id":174,"country_code":"PH","latitude":"11.81990000","longitude":"122.16200000"},{"id":"82713","name":"Idio","state_id":1336,"state_code":"ANT","country_id":174,"country_code":"PH","latitude":"11.62380000","longitude":"122.09790000"},{"id":"82715","name":"Igang","state_id":1336,"state_code":"ANT","country_id":174,"country_code":"PH","latitude":"10.91600000","longitude":"122.63880000"},{"id":"82716","name":"Igbaras","state_id":1336,"state_code":"ANT","country_id":174,"country_code":"PH","latitude":"10.71565000","longitude":"122.26570000"},{"id":"82717","name":"Igbon","state_id":1336,"state_code":"ANT","country_id":174,"country_code":"PH","latitude":"11.21420000","longitude":"123.16550000"},{"id":"82718","name":"Igcocolo","state_id":1336,"state_code":"ANT","country_id":174,"country_code":"PH","latitude":"10.68966000","longitude":"122.31930000"},{"id":"82719","name":"Igmaya-an","state_id":1336,"state_code":"ANT","country_id":174,"country_code":"PH","latitude":"10.54986000","longitude":"123.22060000"},{"id":"82731","name":"Ilog","state_id":1336,"state_code":"ANT","country_id":174,"country_code":"PH","latitude":"10.02660000","longitude":"122.76840000"},{"id":"82732","name":"Iloilo","state_id":1336,"state_code":"ANT","country_id":174,"country_code":"PH","latitude":"10.69694000","longitude":"122.56444000"},{"id":"82733","name":"Imbang","state_id":1336,"state_code":"ANT","country_id":174,"country_code":"PH","latitude":"10.79670000","longitude":"123.02130000"},{"id":"82745","name":"Inayauan","state_id":1336,"state_code":"ANT","country_id":174,"country_code":"PH","latitude":"9.90050000","longitude":"122.43400000"},{"id":"82754","name":"Intampilan","state_id":1336,"state_code":"ANT","country_id":174,"country_code":"PH","latitude":"11.48130000","longitude":"122.74340000"},{"id":"82770","name":"Isabela","state_id":1336,"state_code":"ANT","country_id":174,"country_code":"PH","latitude":"10.20480000","longitude":"122.98880000"},{"id":"82777","name":"Ivisan","state_id":1336,"state_code":"ANT","country_id":174,"country_code":"PH","latitude":"11.52167000","longitude":"122.69083000"},{"id":"82781","name":"Jaena","state_id":1336,"state_code":"ANT","country_id":174,"country_code":"PH","latitude":"11.41667000","longitude":"122.40000000"},{"id":"82783","name":"Jaguimitan","state_id":1336,"state_code":"ANT","country_id":174,"country_code":"PH","latitude":"11.14000000","longitude":"122.72360000"},{"id":"82786","name":"Jalaud","state_id":1336,"state_code":"ANT","country_id":174,"country_code":"PH","latitude":"10.84360000","longitude":"122.64040000"},{"id":"82787","name":"Jamabalod","state_id":1336,"state_code":"ANT","country_id":174,"country_code":"PH","latitude":"10.87880000","longitude":"122.62120000"},{"id":"82788","name":"Jamindan","state_id":1336,"state_code":"ANT","country_id":174,"country_code":"PH","latitude":"11.40023000","longitude":"122.49833000"},{"id":"82792","name":"Janiuay","state_id":1336,"state_code":"ANT","country_id":174,"country_code":"PH","latitude":"10.94930000","longitude":"122.50610000"},{"id":"82796","name":"Japitan","state_id":1336,"state_code":"ANT","country_id":174,"country_code":"PH","latitude":"10.76524000","longitude":"123.54440000"},{"id":"82797","name":"Jarigue","state_id":1336,"state_code":"ANT","country_id":174,"country_code":"PH","latitude":"11.86538000","longitude":"121.44041000"},{"id":"82802","name":"Jayub\u00f3","state_id":1336,"state_code":"ANT","country_id":174,"country_code":"PH","latitude":"11.05000000","longitude":"122.38333000"},{"id":"82805","name":"Jibao-an","state_id":1336,"state_code":"ANT","country_id":174,"country_code":"PH","latitude":"10.78333000","longitude":"122.50000000"},{"id":"82810","name":"Jordan","state_id":1336,"state_code":"ANT","country_id":174,"country_code":"PH","latitude":"10.65836000","longitude":"122.59630000"},{"id":"82824","name":"Kabankalan","state_id":1336,"state_code":"ANT","country_id":174,"country_code":"PH","latitude":"9.98390000","longitude":"122.81423000"},{"id":"82827","name":"Kabilauan","state_id":1336,"state_code":"ANT","country_id":174,"country_code":"PH","latitude":"10.86100000","longitude":"122.57340000"},{"id":"82850","name":"Kalibo (poblacion)","state_id":1336,"state_code":"ANT","country_id":174,"country_code":"PH","latitude":"11.70611000","longitude":"122.36444000"},{"id":"82853","name":"Kaliling","state_id":1336,"state_code":"ANT","country_id":174,"country_code":"PH","latitude":"9.98040000","longitude":"122.48140000"},{"id":"82934","name":"Kumalisquis","state_id":1336,"state_code":"ANT","country_id":174,"country_code":"PH","latitude":"10.50726000","longitude":"123.20300000"},{"id":"82936","name":"La Carlota","state_id":1336,"state_code":"ANT","country_id":174,"country_code":"PH","latitude":"10.42420000","longitude":"122.92120000"},{"id":"82937","name":"La Castellana","state_id":1336,"state_code":"ANT","country_id":174,"country_code":"PH","latitude":"10.32390000","longitude":"123.02150000"},{"id":"82941","name":"La Granja","state_id":1336,"state_code":"ANT","country_id":174,"country_code":"PH","latitude":"10.40820000","longitude":"122.98980000"},{"id":"82951","name":"La Paz","state_id":1336,"state_code":"ANT","country_id":174,"country_code":"PH","latitude":"10.41310000","longitude":"122.51620000"},{"id":"83059","name":"La\u00f1gub","state_id":1336,"state_code":"ANT","country_id":174,"country_code":"PH","latitude":"10.79754000","longitude":"123.53380000"},{"id":"82970","name":"Lacaron","state_id":1336,"state_code":"ANT","country_id":174,"country_code":"PH","latitude":"11.42200000","longitude":"122.74220000"},{"id":"82988","name":"Lalab","state_id":1336,"state_code":"ANT","country_id":174,"country_code":"PH","latitude":"11.57490000","longitude":"122.42840000"},{"id":"82989","name":"Lalagsan","state_id":1336,"state_code":"ANT","country_id":174,"country_code":"PH","latitude":"10.28240000","longitude":"123.01300000"},{"id":"82998","name":"Lambunao","state_id":1336,"state_code":"ANT","country_id":174,"country_code":"PH","latitude":"11.05563000","longitude":"122.47590000"},{"id":"83021","name":"Lanot","state_id":1336,"state_code":"ANT","country_id":174,"country_code":"PH","latitude":"11.51917000","longitude":"122.75722000"},{"id":"83022","name":"Lantangan","state_id":1336,"state_code":"ANT","country_id":174,"country_code":"PH","latitude":"11.58820000","longitude":"123.32560000"},{"id":"83054","name":"Lawigan","state_id":1336,"state_code":"ANT","country_id":174,"country_code":"PH","latitude":"10.48562000","longitude":"122.04442000"},{"id":"83060","name":"Leganes","state_id":1336,"state_code":"ANT","country_id":174,"country_code":"PH","latitude":"10.78722000","longitude":"122.58917000"},{"id":"83064","name":"Lemery","state_id":1336,"state_code":"ANT","country_id":174,"country_code":"PH","latitude":"11.22580000","longitude":"122.92750000"},{"id":"83066","name":"Leon","state_id":1336,"state_code":"ANT","country_id":174,"country_code":"PH","latitude":"10.78085000","longitude":"122.38940000"},{"id":"83075","name":"Libacao","state_id":1336,"state_code":"ANT","country_id":174,"country_code":"PH","latitude":"10.18000000","longitude":"122.91370000"},{"id":"83088","name":"Libertad","state_id":1336,"state_code":"ANT","country_id":174,"country_code":"PH","latitude":"11.03528000","longitude":"122.76944000"},{"id":"83129","name":"Linabuan","state_id":1336,"state_code":"ANT","country_id":174,"country_code":"PH","latitude":"11.65100000","longitude":"122.35750000"},{"id":"83130","name":"Linabuan Sur","state_id":1336,"state_code":"ANT","country_id":174,"country_code":"PH","latitude":"11.65111000","longitude":"122.34500000"},{"id":"83135","name":"Linaon","state_id":1336,"state_code":"ANT","country_id":174,"country_code":"PH","latitude":"9.94990000","longitude":"122.44830000"},{"id":"83161","name":"Locmayan","state_id":1336,"state_code":"ANT","country_id":174,"country_code":"PH","latitude":"10.47260000","longitude":"122.51900000"},{"id":"83168","name":"Lono","state_id":1336,"state_code":"ANT","country_id":174,"country_code":"PH","latitude":"11.51361000","longitude":"122.72972000"},{"id":"83169","name":"Lonoy","state_id":1336,"state_code":"ANT","country_id":174,"country_code":"PH","latitude":"11.51222000","longitude":"122.55333000"},{"id":"83179","name":"Lopez Jaena","state_id":1336,"state_code":"ANT","country_id":174,"country_code":"PH","latitude":"10.84780000","longitude":"123.41410000"},{"id":"83200","name":"Lucena","state_id":1336,"state_code":"ANT","country_id":174,"country_code":"PH","latitude":"10.87940000","longitude":"122.59670000"},{"id":"83203","name":"Lucero","state_id":1336,"state_code":"ANT","country_id":174,"country_code":"PH","latitude":"11.45420000","longitude":"122.46431000"},{"id":"83228","name":"Luna","state_id":1336,"state_code":"ANT","country_id":174,"country_code":"PH","latitude":"10.96900000","longitude":"123.24190000"},{"id":"83245","name":"Lupo","state_id":1336,"state_code":"ANT","country_id":174,"country_code":"PH","latitude":"11.50760000","longitude":"122.47910000"},{"id":"83257","name":"Maao","state_id":1336,"state_code":"ANT","country_id":174,"country_code":"PH","latitude":"10.48960000","longitude":"122.99070000"},{"id":"83260","name":"Maasin","state_id":1336,"state_code":"ANT","country_id":174,"country_code":"PH","latitude":"10.89250000","longitude":"122.43472000"},{"id":"83262","name":"Maayon","state_id":1336,"state_code":"ANT","country_id":174,"country_code":"PH","latitude":"11.38670000","longitude":"122.78590000"},{"id":"83276","name":"Mabini","state_id":1336,"state_code":"ANT","country_id":174,"country_code":"PH","latitude":"10.79594000","longitude":"123.48460000"},{"id":"83308","name":"Madalag","state_id":1336,"state_code":"ANT","country_id":174,"country_code":"PH","latitude":"10.89944000","longitude":"122.98280000"},{"id":"83323","name":"Magallon Cadre","state_id":1336,"state_code":"ANT","country_id":174,"country_code":"PH","latitude":"10.28850000","longitude":"123.09220000"},{"id":"83332","name":"Magdalena","state_id":1336,"state_code":"ANT","country_id":174,"country_code":"PH","latitude":"10.42360000","longitude":"121.97510000"},{"id":"83376","name":"Makato","state_id":1336,"state_code":"ANT","country_id":174,"country_code":"PH","latitude":"11.71200000","longitude":"122.29220000"},{"id":"83387","name":"Malabonot","state_id":1336,"state_code":"ANT","country_id":174,"country_code":"PH","latitude":"11.96817000","longitude":"121.92021000"},{"id":"83388","name":"Malabor","state_id":1336,"state_code":"ANT","country_id":174,"country_code":"PH","latitude":"11.27292000","longitude":"122.04661000"},{"id":"83403","name":"Malangabang","state_id":1336,"state_code":"ANT","country_id":174,"country_code":"PH","latitude":"11.23670000","longitude":"123.20620000"},{"id":"83415","name":"Malay","state_id":1336,"state_code":"ANT","country_id":174,"country_code":"PH","latitude":"11.90027000","longitude":"121.90911000"},{"id":"83419","name":"Malayo-an","state_id":1336,"state_code":"ANT","country_id":174,"country_code":"PH","latitude":"11.09790000","longitude":"123.00910000"},{"id":"83434","name":"Malinao","state_id":1336,"state_code":"ANT","country_id":174,"country_code":"PH","latitude":"11.64390000","longitude":"122.30830000"},{"id":"83451","name":"Malocloc","state_id":1336,"state_code":"ANT","country_id":174,"country_code":"PH","latitude":"11.50583000","longitude":"122.67833000"},{"id":"83452","name":"Maloco","state_id":1336,"state_code":"ANT","country_id":174,"country_code":"PH","latitude":"11.78320000","longitude":"122.15200000"},{"id":"83470","name":"Mambagatan","state_id":1336,"state_code":"ANT","country_id":174,"country_code":"PH","latitude":"10.10930000","longitude":"122.88820000"},{"id":"83478","name":"Mambusao","state_id":1336,"state_code":"ANT","country_id":174,"country_code":"PH","latitude":"11.43355000","longitude":"122.59820000"},{"id":"83486","name":"Manalad","state_id":1336,"state_code":"ANT","country_id":174,"country_code":"PH","latitude":"10.00560000","longitude":"122.77690000"},{"id":"83493","name":"Manapla","state_id":1336,"state_code":"ANT","country_id":174,"country_code":"PH","latitude":"10.95803000","longitude":"123.12300000"},{"id":"83518","name":"Mangoso","state_id":1336,"state_code":"ANT","country_id":174,"country_code":"PH","latitude":"11.41750000","longitude":"122.63820000"},{"id":"83522","name":"Manika","state_id":1336,"state_code":"ANT","country_id":174,"country_code":"PH","latitude":"11.38801000","longitude":"122.27931000"},{"id":"83527","name":"Manjoy","state_id":1336,"state_code":"ANT","country_id":174,"country_code":"PH","latitude":"11.35340000","longitude":"122.66630000"},{"id":"83529","name":"Manlucahoc","state_id":1336,"state_code":"ANT","country_id":174,"country_code":"PH","latitude":"9.73990000","longitude":"122.49800000"},{"id":"83530","name":"Manoc-Manoc","state_id":1336,"state_code":"ANT","country_id":174,"country_code":"PH","latitude":"11.94157000","longitude":"121.94281000"},{"id":"83535","name":"Mansilingan","state_id":1336,"state_code":"ANT","country_id":174,"country_code":"PH","latitude":"10.63111000","longitude":"122.97889000"},{"id":"83546","name":"Manup","state_id":1336,"state_code":"ANT","country_id":174,"country_code":"PH","latitude":"11.53150000","longitude":"122.49800000"},{"id":"83553","name":"Mapili","state_id":1336,"state_code":"ANT","country_id":174,"country_code":"PH","latitude":"11.10810000","longitude":"122.73930000"},{"id":"83559","name":"Maquiling","state_id":1336,"state_code":"ANT","country_id":174,"country_code":"PH","latitude":"10.78094000","longitude":"123.39380000"},{"id":"83568","name":"Marawis","state_id":1336,"state_code":"ANT","country_id":174,"country_code":"PH","latitude":"10.24530000","longitude":"122.88690000"},{"id":"83579","name":"Maribong","state_id":1336,"state_code":"ANT","country_id":174,"country_code":"PH","latitude":"11.10000000","longitude":"122.53333000"},{"id":"83581","name":"Maricalom","state_id":1336,"state_code":"ANT","country_id":174,"country_code":"PH","latitude":"9.70490000","longitude":"122.41880000"},{"id":"83592","name":"Masaling","state_id":1336,"state_code":"ANT","country_id":174,"country_code":"PH","latitude":"9.98180000","longitude":"122.53690000"},{"id":"83609","name":"Masonogan","state_id":1336,"state_code":"ANT","country_id":174,"country_code":"PH","latitude":"11.36860000","longitude":"122.67530000"},{"id":"83666","name":"Miagao","state_id":1336,"state_code":"ANT","country_id":174,"country_code":"PH","latitude":"10.64420000","longitude":"122.23520000"},{"id":"83667","name":"Mianay","state_id":1336,"state_code":"ANT","country_id":174,"country_code":"PH","latitude":"11.47160000","longitude":"122.70110000"},{"id":"83675","name":"Mina","state_id":1336,"state_code":"ANT","country_id":174,"country_code":"PH","latitude":"10.93130000","longitude":"122.57450000"},{"id":"83682","name":"Minapasoc","state_id":1336,"state_code":"ANT","country_id":174,"country_code":"PH","latitude":"10.69885000","longitude":"123.34900000"},{"id":"83689","name":"Minuyan","state_id":1336,"state_code":"ANT","country_id":174,"country_code":"PH","latitude":"10.51366000","longitude":"123.10490000"},{"id":"83690","name":"Miranda","state_id":1336,"state_code":"ANT","country_id":174,"country_code":"PH","latitude":"10.30470000","longitude":"122.87780000"},{"id":"83694","name":"Moises Padilla","state_id":1336,"state_code":"ANT","country_id":174,"country_code":"PH","latitude":"10.27028000","longitude":"123.07806000"},{"id":"83703","name":"Monpon","state_id":1336,"state_code":"ANT","country_id":174,"country_code":"PH","latitude":"10.91194000","longitude":"122.63778000"},{"id":"83708","name":"Montilla","state_id":1336,"state_code":"ANT","country_id":174,"country_code":"PH","latitude":"10.20270000","longitude":"122.92610000"},{"id":"83710","name":"Morales","state_id":1336,"state_code":"ANT","country_id":174,"country_code":"PH","latitude":"11.54560000","longitude":"122.37640000"},{"id":"83712","name":"Morobuan","state_id":1336,"state_code":"ANT","country_id":174,"country_code":"PH","latitude":"10.62566000","longitude":"122.55470000"},{"id":"83726","name":"Murcia","state_id":1336,"state_code":"ANT","country_id":174,"country_code":"PH","latitude":"10.60516000","longitude":"123.04170000"},{"id":"83736","name":"Nabas","state_id":1336,"state_code":"ANT","country_id":174,"country_code":"PH","latitude":"11.83100000","longitude":"122.08700000"},{"id":"83738","name":"Nabulao","state_id":1336,"state_code":"ANT","country_id":174,"country_code":"PH","latitude":"9.66160000","longitude":"122.45770000"},{"id":"83758","name":"Naili","state_id":1336,"state_code":"ANT","country_id":174,"country_code":"PH","latitude":"11.76660000","longitude":"122.17650000"},{"id":"83760","name":"Naisud","state_id":1336,"state_code":"ANT","country_id":174,"country_code":"PH","latitude":"11.80580000","longitude":"122.19390000"},{"id":"83774","name":"Nangka","state_id":1336,"state_code":"ANT","country_id":174,"country_code":"PH","latitude":"10.85564000","longitude":"123.03590000"},{"id":"83777","name":"Napnapan","state_id":1336,"state_code":"ANT","country_id":174,"country_code":"PH","latitude":"10.70845000","longitude":"122.39300000"},{"id":"83778","name":"Napoles","state_id":1336,"state_code":"ANT","country_id":174,"country_code":"PH","latitude":"10.50400000","longitude":"122.89790000"},{"id":"83787","name":"Nato","state_id":1336,"state_code":"ANT","country_id":174,"country_code":"PH","latitude":"10.14920000","longitude":"122.86190000"},{"id":"83810","name":"New Pandanon","state_id":1336,"state_code":"ANT","country_id":174,"country_code":"PH","latitude":"10.55696000","longitude":"123.14750000"},{"id":"83813","name":"New Washington","state_id":1336,"state_code":"ANT","country_id":174,"country_code":"PH","latitude":"11.65080000","longitude":"122.43220000"},{"id":"83827","name":"Nueva Valencia","state_id":1336,"state_code":"ANT","country_id":174,"country_code":"PH","latitude":"10.51077000","longitude":"122.53150000"},{"id":"83831","name":"Numancia","state_id":1336,"state_code":"ANT","country_id":174,"country_code":"PH","latitude":"11.70590000","longitude":"122.32840000"},{"id":"83839","name":"Ochanado","state_id":1336,"state_code":"ANT","country_id":174,"country_code":"PH","latitude":"11.61390000","longitude":"122.48330000"},{"id":"83843","name":"Odiong","state_id":1336,"state_code":"ANT","country_id":174,"country_code":"PH","latitude":"10.28580000","longitude":"123.05260000"},{"id":"83848","name":"Ogtongon","state_id":1336,"state_code":"ANT","country_id":174,"country_code":"PH","latitude":"10.77334000","longitude":"123.52000000"},{"id":"83854","name":"Ondoy","state_id":1336,"state_code":"ANT","country_id":174,"country_code":"PH","latitude":"11.81917000","longitude":"122.12611000"},{"id":"83856","name":"Oracon","state_id":1336,"state_code":"ANT","country_id":174,"country_code":"PH","latitude":"10.47820000","longitude":"122.58390000"},{"id":"83861","name":"Orong","state_id":1336,"state_code":"ANT","country_id":174,"country_code":"PH","latitude":"9.93730000","longitude":"122.82900000"},{"id":"83868","name":"Oton","state_id":1336,"state_code":"ANT","country_id":174,"country_code":"PH","latitude":"10.69306000","longitude":"122.47361000"},{"id":"83875","name":"Pacol","state_id":1336,"state_code":"ANT","country_id":174,"country_code":"PH","latitude":"10.45000000","longitude":"122.81667000"},{"id":"83905","name":"Pakiad","state_id":1336,"state_code":"ANT","country_id":174,"country_code":"PH","latitude":"10.71278000","longitude":"122.52417000"},{"id":"83911","name":"Palampas","state_id":1336,"state_code":"ANT","country_id":174,"country_code":"PH","latitude":"10.52506000","longitude":"123.42080000"},{"id":"83953","name":"Panay","state_id":1336,"state_code":"ANT","country_id":174,"country_code":"PH","latitude":"11.55778000","longitude":"122.79417000"},{"id":"83954","name":"Panayacan","state_id":1336,"state_code":"ANT","country_id":174,"country_code":"PH","latitude":"11.76030000","longitude":"122.22360000"},{"id":"83962","name":"Pandan","state_id":1336,"state_code":"ANT","country_id":174,"country_code":"PH","latitude":"11.71950000","longitude":"122.09490000"},{"id":"83991","name":"Panitan","state_id":1336,"state_code":"ANT","country_id":174,"country_code":"PH","latitude":"11.46600000","longitude":"122.77250000"},{"id":"84015","name":"Paraiso","state_id":1336,"state_code":"ANT","country_id":174,"country_code":"PH","latitude":"10.88490000","longitude":"123.36270000"},{"id":"84024","name":"Parion","state_id":1336,"state_code":"ANT","country_id":174,"country_code":"PH","latitude":"11.47480000","longitude":"122.69720000"},{"id":"84031","name":"Pasil","state_id":1336,"state_code":"ANT","country_id":174,"country_code":"PH","latitude":"10.83780000","longitude":"122.60980000"},{"id":"84034","name":"Passi","state_id":1336,"state_code":"ANT","country_id":174,"country_code":"PH","latitude":"11.10778000","longitude":"122.64194000"},{"id":"84045","name":"Patique","state_id":1336,"state_code":"ANT","country_id":174,"country_code":"PH","latitude":"10.23700000","longitude":"122.89930000"},{"id":"84047","name":"Patnongon","state_id":1336,"state_code":"ANT","country_id":174,"country_code":"PH","latitude":"10.91320000","longitude":"121.99370000"},{"id":"84049","name":"Patonan","state_id":1336,"state_code":"ANT","country_id":174,"country_code":"PH","latitude":"10.56816000","longitude":"123.47230000"},{"id":"84052","name":"Patria","state_id":1336,"state_code":"ANT","country_id":174,"country_code":"PH","latitude":"11.74030000","longitude":"122.01710000"},{"id":"84058","name":"Pavia","state_id":1336,"state_code":"ANT","country_id":174,"country_code":"PH","latitude":"10.77611000","longitude":"122.54556000"},{"id":"84059","name":"Pawa","state_id":1336,"state_code":"ANT","country_id":174,"country_code":"PH","latitude":"11.56285000","longitude":"122.81736000"},{"id":"84067","name":"Payao","state_id":1336,"state_code":"ANT","country_id":174,"country_code":"PH","latitude":"10.17850000","longitude":"122.92360000"},{"id":"84080","name":"Piape I","state_id":1336,"state_code":"ANT","country_id":174,"country_code":"PH","latitude":"10.72880000","longitude":"121.97240000"},{"id":"84125","name":"Pi\u00f1a","state_id":1336,"state_code":"ANT","country_id":174,"country_code":"PH","latitude":"10.63956000","longitude":"122.63820000"},{"id":"84089","name":"Pilar","state_id":1336,"state_code":"ANT","country_id":174,"country_code":"PH","latitude":"11.48700000","longitude":"122.99630000"},{"id":"84095","name":"Pili","state_id":1336,"state_code":"ANT","country_id":174,"country_code":"PH","latitude":"11.11960000","longitude":"123.01470000"},{"id":"84133","name":"Plaridel","state_id":1336,"state_code":"ANT","country_id":174,"country_code":"PH","latitude":"10.89740000","longitude":"123.48940000"},{"id":"84136","name":"Platagata","state_id":1336,"state_code":"ANT","country_id":174,"country_code":"PH","latitude":"11.30300000","longitude":"123.15670000"},{"id":"84148","name":"Polo","state_id":1336,"state_code":"ANT","country_id":174,"country_code":"PH","latitude":"11.58440000","longitude":"122.31220000"},{"id":"84155","name":"Polopina","state_id":1336,"state_code":"ANT","country_id":174,"country_code":"PH","latitude":"11.20680000","longitude":"123.16590000"},{"id":"84158","name":"Ponong","state_id":1336,"state_code":"ANT","country_id":174,"country_code":"PH","latitude":"11.08290000","longitude":"122.62610000"},{"id":"84161","name":"Pontevedra","state_id":1336,"state_code":"ANT","country_id":174,"country_code":"PH","latitude":"10.37460000","longitude":"122.86820000"},{"id":"84169","name":"Pototan","state_id":1336,"state_code":"ANT","country_id":174,"country_code":"PH","latitude":"10.94370000","longitude":"122.63520000"},{"id":"84173","name":"President Roxas","state_id":1336,"state_code":"ANT","country_id":174,"country_code":"PH","latitude":"11.43100000","longitude":"122.92790000"},{"id":"84179","name":"Prosperidad","state_id":1336,"state_code":"ANT","country_id":174,"country_code":"PH","latitude":"10.51596000","longitude":"123.30850000"},{"id":"84184","name":"Province of Aklan","state_id":1336,"state_code":"ANT","country_id":174,"country_code":"PH","latitude":"11.66667000","longitude":"122.33333000"},{"id":"84186","name":"Province of Antique","state_id":1336,"state_code":"ANT","country_id":174,"country_code":"PH","latitude":"11.16667000","longitude":"122.08333000"},{"id":"84199","name":"Province of Capiz","state_id":1336,"state_code":"ANT","country_id":174,"country_code":"PH","latitude":"11.40000000","longitude":"122.56667000"},{"id":"84208","name":"Province of Guimaras","state_id":1336,"state_code":"ANT","country_id":174,"country_code":"PH","latitude":"10.58092000","longitude":"122.62621000"},{"id":"84212","name":"Province of Iloilo","state_id":1336,"state_code":"ANT","country_id":174,"country_code":"PH","latitude":"11.00000000","longitude":"122.66667000"},{"id":"84226","name":"Province of Negros Occidental","state_id":1336,"state_code":"ANT","country_id":174,"country_code":"PH","latitude":"10.41667000","longitude":"123.00000000"},{"id":"84272","name":"Pulupandan","state_id":1336,"state_code":"ANT","country_id":174,"country_code":"PH","latitude":"10.52030000","longitude":"122.80170000"},{"id":"84274","name":"Punao","state_id":1336,"state_code":"ANT","country_id":174,"country_code":"PH","latitude":"10.56516000","longitude":"123.40800000"},{"id":"84297","name":"Quezon","state_id":1336,"state_code":"ANT","country_id":174,"country_code":"PH","latitude":"10.43617000","longitude":"123.26040000"},{"id":"84307","name":"Quinagaringan","state_id":1336,"state_code":"ANT","country_id":174,"country_code":"PH","latitude":"11.12220000","longitude":"122.58750000"},{"id":"84312","name":"Quipot","state_id":1336,"state_code":"ANT","country_id":174,"country_code":"PH","latitude":"11.28333000","longitude":"123.00000000"},{"id":"84346","name":"Rizal","state_id":1336,"state_code":"ANT","country_id":174,"country_code":"PH","latitude":"10.88070000","longitude":"123.41780000"},{"id":"84358","name":"Rosario","state_id":1336,"state_code":"ANT","country_id":174,"country_code":"PH","latitude":"11.58320000","longitude":"122.30190000"},{"id":"84363","name":"Roxas City","state_id":1336,"state_code":"ANT","country_id":174,"country_code":"PH","latitude":"11.58528000","longitude":"122.75111000"},{"id":"84383","name":"Sagang","state_id":1336,"state_code":"ANT","country_id":174,"country_code":"PH","latitude":"10.36120000","longitude":"123.07220000"},{"id":"84385","name":"Sagasa","state_id":1336,"state_code":"ANT","country_id":174,"country_code":"PH","latitude":"10.46800000","longitude":"122.89390000"},{"id":"84387","name":"Sagay","state_id":1336,"state_code":"ANT","country_id":174,"country_code":"PH","latitude":"10.94472000","longitude":"123.42417000"},{"id":"84400","name":"Salamanca","state_id":1336,"state_code":"ANT","country_id":174,"country_code":"PH","latitude":"10.74655000","longitude":"123.53000000"},{"id":"84417","name":"Salvacion","state_id":1336,"state_code":"ANT","country_id":174,"country_code":"PH","latitude":"10.68333000","longitude":"122.61667000"},{"id":"84451","name":"San Antonio","state_id":1336,"state_code":"ANT","country_id":174,"country_code":"PH","latitude":"10.80000000","longitude":"122.45000000"},{"id":"84466","name":"San Dionisio","state_id":1336,"state_code":"ANT","country_id":174,"country_code":"PH","latitude":"11.27100000","longitude":"123.09640000"},{"id":"84469","name":"San Enrique","state_id":1336,"state_code":"ANT","country_id":174,"country_code":"PH","latitude":"10.41610000","longitude":"122.85040000"},{"id":"84477","name":"San Fernando","state_id":1336,"state_code":"ANT","country_id":174,"country_code":"PH","latitude":"10.70900000","longitude":"123.06950000"},{"id":"84487","name":"San Francisco","state_id":1336,"state_code":"ANT","country_id":174,"country_code":"PH","latitude":"11.31961000","longitude":"122.05051000"},{"id":"84511","name":"San Joaquin","state_id":1336,"state_code":"ANT","country_id":174,"country_code":"PH","latitude":"10.58800000","longitude":"122.13970000"},{"id":"84515","name":"San Jose","state_id":1336,"state_code":"ANT","country_id":174,"country_code":"PH","latitude":"10.77028000","longitude":"122.53389000"},{"id":"84527","name":"San Juan","state_id":1336,"state_code":"ANT","country_id":174,"country_code":"PH","latitude":"10.38650000","longitude":"122.86510000"},{"id":"84558","name":"San Miguel","state_id":1336,"state_code":"ANT","country_id":174,"country_code":"PH","latitude":"10.78000000","longitude":"122.46556000"},{"id":"84570","name":"San Nicolas","state_id":1336,"state_code":"ANT","country_id":174,"country_code":"PH","latitude":"10.68444000","longitude":"122.49556000"},{"id":"84574","name":"San Pablo","state_id":1336,"state_code":"ANT","country_id":174,"country_code":"PH","latitude":"10.91234000","longitude":"123.14180000"},{"id":"84583","name":"San Pedro","state_id":1336,"state_code":"ANT","country_id":174,"country_code":"PH","latitude":"10.80180000","longitude":"121.94990000"},{"id":"84594","name":"San Rafael","state_id":1336,"state_code":"ANT","country_id":174,"country_code":"PH","latitude":"11.17810000","longitude":"122.82730000"},{"id":"84601","name":"San Remigio","state_id":1336,"state_code":"ANT","country_id":174,"country_code":"PH","latitude":"10.83278000","longitude":"122.08750000"},{"id":"84611","name":"San Salvador","state_id":1336,"state_code":"ANT","country_id":174,"country_code":"PH","latitude":"11.00278000","longitude":"122.83528000"},{"id":"84642","name":"Santa Angel","state_id":1336,"state_code":"ANT","country_id":174,"country_code":"PH","latitude":"11.30680000","longitude":"122.64080000"},{"id":"84643","name":"Santa Barbara","state_id":1336,"state_code":"ANT","country_id":174,"country_code":"PH","latitude":"10.82306000","longitude":"122.53444000"},{"id":"84663","name":"Santa Cruz","state_id":1336,"state_code":"ANT","country_id":174,"country_code":"PH","latitude":"10.63376000","longitude":"123.08210000"},{"id":"84690","name":"Santa Monica","state_id":1336,"state_code":"ANT","country_id":174,"country_code":"PH","latitude":"10.73639000","longitude":"122.45333000"},{"id":"84703","name":"Santa Teresa","state_id":1336,"state_code":"ANT","country_id":174,"country_code":"PH","latitude":"10.58546000","longitude":"122.56040000"},{"id":"84711","name":"Santiago","state_id":1336,"state_code":"ANT","country_id":174,"country_code":"PH","latitude":"11.05806000","longitude":"122.91167000"},{"id":"84736","name":"Santol","state_id":1336,"state_code":"ANT","country_id":174,"country_code":"PH","latitude":"10.17250000","longitude":"122.99470000"},{"id":"84745","name":"Sapian","state_id":1336,"state_code":"ANT","country_id":174,"country_code":"PH","latitude":"11.49430000","longitude":"122.60270000"},{"id":"84748","name":"Sara","state_id":1336,"state_code":"ANT","country_id":174,"country_code":"PH","latitude":"11.25790000","longitude":"123.01380000"},{"id":"84750","name":"Saravia","state_id":1336,"state_code":"ANT","country_id":174,"country_code":"PH","latitude":"10.87754000","longitude":"122.96770000"},{"id":"84756","name":"Sebaste","state_id":1336,"state_code":"ANT","country_id":174,"country_code":"PH","latitude":"11.59010000","longitude":"122.09450000"},{"id":"84757","name":"Semirara","state_id":1336,"state_code":"ANT","country_id":174,"country_code":"PH","latitude":"12.06967000","longitude":"121.39861000"},{"id":"84769","name":"Sibaguan","state_id":1336,"state_code":"ANT","country_id":174,"country_code":"PH","latitude":"11.55778000","longitude":"122.71389000"},{"id":"84770","name":"Sibalom","state_id":1336,"state_code":"ANT","country_id":174,"country_code":"PH","latitude":"10.79000000","longitude":"122.01780000"},{"id":"84772","name":"Sibucao","state_id":1336,"state_code":"ANT","country_id":174,"country_code":"PH","latitude":"10.41790000","longitude":"122.88700000"},{"id":"84786","name":"Sigma","state_id":1336,"state_code":"ANT","country_id":174,"country_code":"PH","latitude":"11.42140000","longitude":"122.66620000"},{"id":"84825","name":"Sipalay","state_id":1336,"state_code":"ANT","country_id":174,"country_code":"PH","latitude":"9.75194000","longitude":"122.40417000"},{"id":"84852","name":"Suay","state_id":1336,"state_code":"ANT","country_id":174,"country_code":"PH","latitude":"10.05330000","longitude":"122.84230000"},{"id":"84867","name":"Sulangan","state_id":1336,"state_code":"ANT","country_id":174,"country_code":"PH","latitude":"10.83000000","longitude":"122.69000000"},{"id":"84874","name":"Sumag","state_id":1336,"state_code":"ANT","country_id":174,"country_code":"PH","latitude":"10.60139000","longitude":"122.91924000"},{"id":"84910","name":"Tabu","state_id":1336,"state_code":"ANT","country_id":174,"country_code":"PH","latitude":"9.89230000","longitude":"122.70980000"},{"id":"84913","name":"Tabuc Pontevedra","state_id":1336,"state_code":"ANT","country_id":174,"country_code":"PH","latitude":"11.48333000","longitude":"122.81667000"},{"id":"84960","name":"Talaban","state_id":1336,"state_code":"ANT","country_id":174,"country_code":"PH","latitude":"10.12540000","longitude":"122.86710000"},{"id":"84979","name":"Talisay","state_id":1336,"state_code":"ANT","country_id":174,"country_code":"PH","latitude":"10.73750000","longitude":"122.96660000"},{"id":"84989","name":"Taloc","state_id":1336,"state_code":"ANT","country_id":174,"country_code":"PH","latitude":"10.57460000","longitude":"122.89540000"},{"id":"84990","name":"Talokga\u00f1gan","state_id":1336,"state_code":"ANT","country_id":174,"country_code":"PH","latitude":"11.00778000","longitude":"122.84500000"},{"id":"84992","name":"Talon","state_id":1336,"state_code":"ANT","country_id":174,"country_code":"PH","latitude":"11.56000000","longitude":"122.68111000"},{"id":"85004","name":"Tambac","state_id":1336,"state_code":"ANT","country_id":174,"country_code":"PH","latitude":"11.67050000","longitude":"122.41120000"},{"id":"85007","name":"Tambalisa","state_id":1336,"state_code":"ANT","country_id":174,"country_code":"PH","latitude":"11.26980000","longitude":"123.16500000"},{"id":"85017","name":"Tamlang","state_id":1336,"state_code":"ANT","country_id":174,"country_code":"PH","latitude":"10.82544000","longitude":"123.45410000"},{"id":"85035","name":"Tangalan","state_id":1336,"state_code":"ANT","country_id":174,"country_code":"PH","latitude":"11.77890000","longitude":"122.26340000"},{"id":"85045","name":"Tanza","state_id":1336,"state_code":"ANT","country_id":174,"country_code":"PH","latitude":"10.83484000","longitude":"123.01100000"},{"id":"85047","name":"Tapas","state_id":1336,"state_code":"ANT","country_id":174,"country_code":"PH","latitude":"11.26130000","longitude":"122.53640000"},{"id":"85059","name":"Tarong","state_id":1336,"state_code":"ANT","country_id":174,"country_code":"PH","latitude":"11.53140000","longitude":"123.13200000"},{"id":"85095","name":"Tibiao","state_id":1336,"state_code":"ANT","country_id":174,"country_code":"PH","latitude":"11.29152000","longitude":"122.03541000"},{"id":"85105","name":"Tigbauan","state_id":1336,"state_code":"ANT","country_id":174,"country_code":"PH","latitude":"10.67466000","longitude":"122.37760000"},{"id":"85108","name":"Tiglauigan","state_id":1336,"state_code":"ANT","country_id":174,"country_code":"PH","latitude":"10.95270000","longitude":"123.35750000"},{"id":"85118","name":"Tigum","state_id":1336,"state_code":"ANT","country_id":174,"country_code":"PH","latitude":"10.78333000","longitude":"122.56667000"},{"id":"85121","name":"Tiling","state_id":1336,"state_code":"ANT","country_id":174,"country_code":"PH","latitude":"9.97360000","longitude":"122.65440000"},{"id":"85123","name":"Timpas","state_id":1336,"state_code":"ANT","country_id":174,"country_code":"PH","latitude":"11.47900000","longitude":"122.73240000"},{"id":"85138","name":"Tinogboc","state_id":1336,"state_code":"ANT","country_id":174,"country_code":"PH","latitude":"12.00737000","longitude":"121.41221000"},{"id":"85139","name":"Tinongan","state_id":1336,"state_code":"ANT","country_id":174,"country_code":"PH","latitude":"10.21500000","longitude":"123.03528000"},{"id":"85147","name":"Tiring","state_id":1336,"state_code":"ANT","country_id":174,"country_code":"PH","latitude":"10.85000000","longitude":"122.50670000"},{"id":"85150","name":"Tiwi","state_id":1336,"state_code":"ANT","country_id":174,"country_code":"PH","latitude":"10.92972000","longitude":"122.73417000"},{"id":"85151","name":"Tobias Fornier","state_id":1336,"state_code":"ANT","country_id":174,"country_code":"PH","latitude":"10.51500000","longitude":"121.94610000"},{"id":"85152","name":"Toboso","state_id":1336,"state_code":"ANT","country_id":174,"country_code":"PH","latitude":"10.71435000","longitude":"123.51620000"},{"id":"85173","name":"Tortosa","state_id":1336,"state_code":"ANT","country_id":174,"country_code":"PH","latitude":"10.93294000","longitude":"123.09000000"},{"id":"85177","name":"Trapiche","state_id":1336,"state_code":"ANT","country_id":174,"country_code":"PH","latitude":"10.68417000","longitude":"122.43222000"},{"id":"85207","name":"Tugas","state_id":1336,"state_code":"ANT","country_id":174,"country_code":"PH","latitude":"11.61300000","longitude":"122.38220000"},{"id":"85224","name":"Tumcon Ilawod","state_id":1336,"state_code":"ANT","country_id":174,"country_code":"PH","latitude":"10.91667000","longitude":"122.66667000"},{"id":"85238","name":"Tuyum","state_id":1336,"state_code":"ANT","country_id":174,"country_code":"PH","latitude":"9.97690000","longitude":"122.55820000"},{"id":"85240","name":"Ualog","state_id":1336,"state_code":"ANT","country_id":174,"country_code":"PH","latitude":"10.57396000","longitude":"123.39330000"},{"id":"85252","name":"Ungca","state_id":1336,"state_code":"ANT","country_id":174,"country_code":"PH","latitude":"10.75000000","longitude":"122.55000000"},{"id":"85255","name":"Unidos","state_id":1336,"state_code":"ANT","country_id":174,"country_code":"PH","latitude":"11.90677000","longitude":"122.00051000"},{"id":"85257","name":"Union","state_id":1336,"state_code":"ANT","country_id":174,"country_code":"PH","latitude":"11.76120000","longitude":"121.89630000"},{"id":"85275","name":"Valderrama","state_id":1336,"state_code":"ANT","country_id":174,"country_code":"PH","latitude":"11.40591000","longitude":"122.08371000"},{"id":"85278","name":"Valladolid","state_id":1336,"state_code":"ANT","country_id":174,"country_code":"PH","latitude":"10.46160000","longitude":"122.82450000"},{"id":"85286","name":"Victorias","state_id":1336,"state_code":"ANT","country_id":174,"country_code":"PH","latitude":"10.90154000","longitude":"123.07050000"},{"id":"85287","name":"Viejo Daan Banua","state_id":1336,"state_code":"ANT","country_id":174,"country_code":"PH","latitude":"10.90354000","longitude":"123.05970000"},{"id":"85307","name":"Vista Alegre","state_id":1336,"state_code":"ANT","country_id":174,"country_code":"PH","latitude":"9.99840000","longitude":"122.76630000"},{"id":"85309","name":"Vito","state_id":1336,"state_code":"ANT","country_id":174,"country_code":"PH","latitude":"10.90310000","longitude":"123.51540000"},{"id":"85318","name":"Yapak","state_id":1336,"state_code":"ANT","country_id":174,"country_code":"PH","latitude":"11.95000000","longitude":"121.93333000"},{"id":"85321","name":"Yubo","state_id":1336,"state_code":"ANT","country_id":174,"country_code":"PH","latitude":"10.38960000","longitude":"123.06900000"},{"id":"85327","name":"Zarraga","state_id":1336,"state_code":"ANT","country_id":174,"country_code":"PH","latitude":"10.81972000","longitude":"122.60806000"}]