[{"id":"81125","name":"Aanislag","state_id":1337,"state_code":"ALB","country_id":174,"country_code":"PH","latitude":"13.07480000","longitude":"123.70300000"},{"id":"81134","name":"Abucay","state_id":1337,"state_code":"ALB","country_id":174,"country_code":"PH","latitude":"12.98200000","longitude":"123.64920000"},{"id":"81139","name":"Abuyog","state_id":1337,"state_code":"ALB","country_id":174,"country_code":"PH","latitude":"12.94610000","longitude":"124.05190000"},{"id":"81164","name":"Agos","state_id":1337,"state_code":"ALB","country_id":174,"country_code":"PH","latitude":"13.34340000","longitude":"123.39830000"},{"id":"81167","name":"Aguada","state_id":1337,"state_code":"ALB","country_id":174,"country_code":"PH","latitude":"12.81667000","longitude":"123.83333000"},{"id":"81171","name":"Agupit","state_id":1337,"state_code":"ALB","country_id":174,"country_code":"PH","latitude":"13.42250000","longitude":"123.32472000"},{"id":"81191","name":"Alayao","state_id":1337,"state_code":"ALB","country_id":174,"country_code":"PH","latitude":"14.28180000","longitude":"122.55240000"},{"id":"81284","name":"Antipolo","state_id":1337,"state_code":"ALB","country_id":174,"country_code":"PH","latitude":"13.52860000","longitude":"123.16220000"},{"id":"81287","name":"Anuling","state_id":1337,"state_code":"ALB","country_id":174,"country_code":"PH","latitude":"13.20930000","longitude":"123.67610000"},{"id":"81290","name":"Apad","state_id":1337,"state_code":"ALB","country_id":174,"country_code":"PH","latitude":"13.81500000","longitude":"122.76640000"},{"id":"81299","name":"Apud","state_id":1337,"state_code":"ALB","country_id":174,"country_code":"PH","latitude":"13.13928000","longitude":"123.29164000"},{"id":"81315","name":"Armenia","state_id":1337,"state_code":"ALB","country_id":174,"country_code":"PH","latitude":"12.25324000","longitude":"123.74361000"},{"id":"81317","name":"Aroroy","state_id":1337,"state_code":"ALB","country_id":174,"country_code":"PH","latitude":"12.51110000","longitude":"123.39770000"},{"id":"81341","name":"Ayugan","state_id":1337,"state_code":"ALB","country_id":174,"country_code":"PH","latitude":"13.54690000","longitude":"123.32170000"},{"id":"81345","name":"Baao","state_id":1337,"state_code":"ALB","country_id":174,"country_code":"PH","latitude":"13.45490000","longitude":"123.36530000"},{"id":"81352","name":"Bacacay","state_id":1337,"state_code":"ALB","country_id":174,"country_code":"PH","latitude":"13.29340000","longitude":"123.79190000"},{"id":"81363","name":"Bacolod","state_id":1337,"state_code":"ALB","country_id":174,"country_code":"PH","latitude":"12.22854000","longitude":"123.50851000"},{"id":"81368","name":"Bacon","state_id":1337,"state_code":"ALB","country_id":174,"country_code":"PH","latitude":"13.03778000","longitude":"124.04111000"},{"id":"81380","name":"Badian","state_id":1337,"state_code":"ALB","country_id":174,"country_code":"PH","latitude":"13.03167000","longitude":"123.30778000"},{"id":"81387","name":"Bagacay","state_id":1337,"state_code":"ALB","country_id":174,"country_code":"PH","latitude":"12.98210000","longitude":"124.14150000"},{"id":"81388","name":"Bagahanlad","state_id":1337,"state_code":"ALB","country_id":174,"country_code":"PH","latitude":"12.57970000","longitude":"123.66880000"},{"id":"81391","name":"Bagamanoc","state_id":1337,"state_code":"ALB","country_id":174,"country_code":"PH","latitude":"13.94040000","longitude":"124.28962000"},{"id":"81411","name":"Bagumbayan","state_id":1337,"state_code":"ALB","country_id":174,"country_code":"PH","latitude":"13.45000000","longitude":"123.66667000"},{"id":"81416","name":"Bahay","state_id":1337,"state_code":"ALB","country_id":174,"country_code":"PH","latitude":"13.54370000","longitude":"123.04070000"},{"id":"81432","name":"Balading","state_id":1337,"state_code":"ALB","country_id":174,"country_code":"PH","latitude":"13.39060000","longitude":"123.71210000"},{"id":"81448","name":"Balaogan","state_id":1337,"state_code":"ALB","country_id":174,"country_code":"PH","latitude":"13.43280000","longitude":"123.28180000"},{"id":"81453","name":"Balatan","state_id":1337,"state_code":"ALB","country_id":174,"country_code":"PH","latitude":"13.32111000","longitude":"123.23333000"},{"id":"81460","name":"Baleno","state_id":1337,"state_code":"ALB","country_id":174,"country_code":"PH","latitude":"12.47390000","longitude":"123.49820000"},{"id":"81464","name":"Balete","state_id":1337,"state_code":"ALB","country_id":174,"country_code":"PH","latitude":"13.01917000","longitude":"124.03194000"},{"id":"81468","name":"Baligang","state_id":1337,"state_code":"ALB","country_id":174,"country_code":"PH","latitude":"13.15370000","longitude":"123.64320000"},{"id":"81473","name":"Balinad","state_id":1337,"state_code":"ALB","country_id":174,"country_code":"PH","latitude":"13.29260000","longitude":"123.54540000"},{"id":"81486","name":"Baliuag Nuevo","state_id":1337,"state_code":"ALB","country_id":174,"country_code":"PH","latitude":"13.52140000","longitude":"123.20160000"},{"id":"81495","name":"Balogo","state_id":1337,"state_code":"ALB","country_id":174,"country_code":"PH","latitude":"13.28710000","longitude":"123.54960000"},{"id":"81499","name":"Balucawi","state_id":1337,"state_code":"ALB","country_id":174,"country_code":"PH","latitude":"12.20130000","longitude":"123.84260000"},{"id":"81503","name":"Balud","state_id":1337,"state_code":"ALB","country_id":174,"country_code":"PH","latitude":"12.03686000","longitude":"123.19351000"},{"id":"81513","name":"Banag","state_id":1337,"state_code":"ALB","country_id":174,"country_code":"PH","latitude":"13.37889000","longitude":"123.70333000"},{"id":"81524","name":"Bangad","state_id":1337,"state_code":"ALB","country_id":174,"country_code":"PH","latitude":"12.16125000","longitude":"123.40131000"},{"id":"81532","name":"Bangkirohan","state_id":1337,"state_code":"ALB","country_id":174,"country_code":"PH","latitude":"13.05530000","longitude":"123.74680000"},{"id":"81543","name":"Banocboc","state_id":1337,"state_code":"ALB","country_id":174,"country_code":"PH","latitude":"14.30000000","longitude":"122.58333000"},{"id":"81560","name":"Bao","state_id":1337,"state_code":"ALB","country_id":174,"country_code":"PH","latitude":"13.64140000","longitude":"122.83140000"},{"id":"81566","name":"Baras","state_id":1337,"state_code":"ALB","country_id":174,"country_code":"PH","latitude":"13.65880000","longitude":"124.37000000"},{"id":"81569","name":"Barayong","state_id":1337,"state_code":"ALB","country_id":174,"country_code":"PH","latitude":"13.10000000","longitude":"123.71667000"},{"id":"81573","name":"Barcelona","state_id":1337,"state_code":"ALB","country_id":174,"country_code":"PH","latitude":"12.86830000","longitude":"124.14190000"},{"id":"81576","name":"Bariw","state_id":1337,"state_code":"ALB","country_id":174,"country_code":"PH","latitude":"13.13333000","longitude":"123.73333000"},{"id":"81586","name":"Barra","state_id":1337,"state_code":"ALB","country_id":174,"country_code":"PH","latitude":"12.07170000","longitude":"123.63950000"},{"id":"81597","name":"Bascaron","state_id":1337,"state_code":"ALB","country_id":174,"country_code":"PH","latitude":"13.10290000","longitude":"123.69990000"},{"id":"81601","name":"Basiad","state_id":1337,"state_code":"ALB","country_id":174,"country_code":"PH","latitude":"14.15617000","longitude":"122.33749000"},{"id":"81604","name":"Basicao Coastal","state_id":1337,"state_code":"ALB","country_id":174,"country_code":"PH","latitude":"13.04589000","longitude":"123.40423000"},{"id":"81608","name":"Basud","state_id":1337,"state_code":"ALB","country_id":174,"country_code":"PH","latitude":"14.06500000","longitude":"122.96420000"},{"id":"81614","name":"Batana","state_id":1337,"state_code":"ALB","country_id":174,"country_code":"PH","latitude":"13.24980000","longitude":"123.56410000"},{"id":"81625","name":"Bato","state_id":1337,"state_code":"ALB","country_id":174,"country_code":"PH","latitude":"13.35280000","longitude":"123.36770000"},{"id":"81632","name":"Batobalane","state_id":1337,"state_code":"ALB","country_id":174,"country_code":"PH","latitude":"14.23333000","longitude":"122.75000000"},{"id":"81637","name":"Batuan","state_id":1337,"state_code":"ALB","country_id":174,"country_code":"PH","latitude":"12.39760000","longitude":"123.76279000"},{"id":"81663","name":"Baybay","state_id":1337,"state_code":"ALB","country_id":174,"country_code":"PH","latitude":"13.40830000","longitude":"123.71350000"},{"id":"81672","name":"Beberon","state_id":1337,"state_code":"ALB","country_id":174,"country_code":"PH","latitude":"13.54440000","longitude":"123.14050000"},{"id":"81694","name":"Bigaa","state_id":1337,"state_code":"ALB","country_id":174,"country_code":"PH","latitude":"13.19930000","longitude":"123.75660000"},{"id":"81714","name":"Binanwanaan","state_id":1337,"state_code":"ALB","country_id":174,"country_code":"PH","latitude":"13.70000000","longitude":"123.30000000"},{"id":"81721","name":"Binitayan","state_id":1337,"state_code":"ALB","country_id":174,"country_code":"PH","latitude":"13.29450000","longitude":"123.75790000"},{"id":"81725","name":"Binodegahan","state_id":1337,"state_code":"ALB","country_id":174,"country_code":"PH","latitude":"13.06140000","longitude":"123.45790000"},{"id":"81776","name":"Bolo","state_id":1337,"state_code":"ALB","country_id":174,"country_code":"PH","latitude":"13.75300000","longitude":"122.96580000"},{"id":"81782","name":"Bombon","state_id":1337,"state_code":"ALB","country_id":174,"country_code":"PH","latitude":"13.68870000","longitude":"123.20770000"},{"id":"81787","name":"Bonga","state_id":1337,"state_code":"ALB","country_id":174,"country_code":"PH","latitude":"13.27990000","longitude":"123.75870000"},{"id":"81805","name":"Boton","state_id":1337,"state_code":"ALB","country_id":174,"country_code":"PH","latitude":"12.92870000","longitude":"124.04790000"},{"id":"81819","name":"Buang","state_id":1337,"state_code":"ALB","country_id":174,"country_code":"PH","latitude":"13.31150000","longitude":"123.64210000"},{"id":"81833","name":"Buenavista","state_id":1337,"state_code":"ALB","country_id":174,"country_code":"PH","latitude":"12.17639000","longitude":"123.79056000"},{"id":"81837","name":"Buga","state_id":1337,"state_code":"ALB","country_id":174,"country_code":"PH","latitude":"13.29660000","longitude":"123.35960000"},{"id":"81853","name":"Buhatan","state_id":1337,"state_code":"ALB","country_id":174,"country_code":"PH","latitude":"12.97550000","longitude":"124.04780000"},{"id":"81854","name":"Buhi","state_id":1337,"state_code":"ALB","country_id":174,"country_code":"PH","latitude":"13.43220000","longitude":"123.51700000"},{"id":"81860","name":"Bula","state_id":1337,"state_code":"ALB","country_id":174,"country_code":"PH","latitude":"13.47010000","longitude":"123.27800000"},{"id":"81866","name":"Bulan","state_id":1337,"state_code":"ALB","country_id":174,"country_code":"PH","latitude":"12.67139000","longitude":"123.87500000"},{"id":"81881","name":"Bulo","state_id":1337,"state_code":"ALB","country_id":174,"country_code":"PH","latitude":"12.41090000","longitude":"123.56720000"},{"id":"81887","name":"Buluang","state_id":1337,"state_code":"ALB","country_id":174,"country_code":"PH","latitude":"13.30680000","longitude":"123.34250000"},{"id":"81890","name":"Bulusan","state_id":1337,"state_code":"ALB","country_id":174,"country_code":"PH","latitude":"12.74936000","longitude":"124.12087000"},{"id":"81902","name":"Burabod","state_id":1337,"state_code":"ALB","country_id":174,"country_code":"PH","latitude":"13.26860000","longitude":"123.41620000"},{"id":"81903","name":"Buracan","state_id":1337,"state_code":"ALB","country_id":174,"country_code":"PH","latitude":"13.60000000","longitude":"123.50000000"},{"id":"81918","name":"Busing","state_id":1337,"state_code":"ALB","country_id":174,"country_code":"PH","latitude":"13.15139000","longitude":"122.97139000"},{"id":"81921","name":"Butag","state_id":1337,"state_code":"ALB","country_id":174,"country_code":"PH","latitude":"12.62920000","longitude":"123.93350000"},{"id":"81930","name":"Buyo","state_id":1337,"state_code":"ALB","country_id":174,"country_code":"PH","latitude":"13.11440000","longitude":"123.86660000"},{"id":"81963","name":"Cabcab","state_id":1337,"state_code":"ALB","country_id":174,"country_code":"PH","latitude":"13.62680000","longitude":"124.05150000"},{"id":"81966","name":"Cabiguan","state_id":1337,"state_code":"ALB","country_id":174,"country_code":"PH","latitude":"12.90583000","longitude":"123.73139000"},{"id":"81971","name":"Cabitan","state_id":1337,"state_code":"ALB","country_id":174,"country_code":"PH","latitude":"12.29434000","longitude":"123.34121000"},{"id":"81975","name":"Cabognon","state_id":1337,"state_code":"ALB","country_id":174,"country_code":"PH","latitude":"13.18290000","longitude":"123.67770000"},{"id":"81980","name":"Cabugao","state_id":1337,"state_code":"ALB","country_id":174,"country_code":"PH","latitude":"13.59620000","longitude":"124.28040000"},{"id":"81985","name":"Cabusao","state_id":1337,"state_code":"ALB","country_id":174,"country_code":"PH","latitude":"13.72270000","longitude":"123.11690000"},{"id":"81988","name":"Caditaan","state_id":1337,"state_code":"ALB","country_id":174,"country_code":"PH","latitude":"12.80528000","longitude":"123.84917000"},{"id":"81990","name":"Cadlan","state_id":1337,"state_code":"ALB","country_id":174,"country_code":"PH","latitude":"13.59710000","longitude":"123.25700000"},{"id":"81998","name":"Cagmanaba","state_id":1337,"state_code":"ALB","country_id":174,"country_code":"PH","latitude":"13.05501000","longitude":"123.29706000"},{"id":"82008","name":"Calabaca","state_id":1337,"state_code":"ALB","country_id":174,"country_code":"PH","latitude":"14.30010000","longitude":"122.43364000"},{"id":"82009","name":"Calabanga","state_id":1337,"state_code":"ALB","country_id":174,"country_code":"PH","latitude":"13.70680000","longitude":"123.20870000"},{"id":"82013","name":"Calachuchi","state_id":1337,"state_code":"ALB","country_id":174,"country_code":"PH","latitude":"12.21775000","longitude":"123.53061000"},{"id":"82033","name":"Calasgasan","state_id":1337,"state_code":"ALB","country_id":174,"country_code":"PH","latitude":"14.08333000","longitude":"122.93333000"},{"id":"82035","name":"Calatagan","state_id":1337,"state_code":"ALB","country_id":174,"country_code":"PH","latitude":"13.58850000","longitude":"124.20650000"},{"id":"82062","name":"Calolbon","state_id":1337,"state_code":"ALB","country_id":174,"country_code":"PH","latitude":"13.59600000","longitude":"124.09910000"},{"id":"82079","name":"Camalig","state_id":1337,"state_code":"ALB","country_id":174,"country_code":"PH","latitude":"13.18210000","longitude":"123.65430000"},{"id":"82080","name":"Camaligan","state_id":1337,"state_code":"ALB","country_id":174,"country_code":"PH","latitude":"13.62240000","longitude":"123.16670000"},{"id":"82100","name":"Canaman","state_id":1337,"state_code":"ALB","country_id":174,"country_code":"PH","latitude":"13.64800000","longitude":"123.16990000"},{"id":"82120","name":"Canomoy","state_id":1337,"state_code":"ALB","country_id":174,"country_code":"PH","latitude":"12.15735000","longitude":"123.27011000"},{"id":"82135","name":"Capalonga","state_id":1337,"state_code":"ALB","country_id":174,"country_code":"PH","latitude":"14.33060000","longitude":"122.49370000"},{"id":"82141","name":"Capucnasan","state_id":1337,"state_code":"ALB","country_id":174,"country_code":"PH","latitude":"13.60000000","longitude":"123.21667000"},{"id":"82145","name":"Capuy","state_id":1337,"state_code":"ALB","country_id":174,"country_code":"PH","latitude":"12.98333000","longitude":"123.93333000"},{"id":"82150","name":"Caramoan","state_id":1337,"state_code":"ALB","country_id":174,"country_code":"PH","latitude":"13.77070000","longitude":"123.86310000"},{"id":"82151","name":"Caramoran","state_id":1337,"state_code":"ALB","country_id":174,"country_code":"PH","latitude":"13.98490000","longitude":"124.13470000"},{"id":"82153","name":"Caranan","state_id":1337,"state_code":"ALB","country_id":174,"country_code":"PH","latitude":"13.51670000","longitude":"123.01560000"},{"id":"82156","name":"Caraycayon","state_id":1337,"state_code":"ALB","country_id":174,"country_code":"PH","latitude":"13.61667000","longitude":"123.48333000"},{"id":"82182","name":"Carriedo","state_id":1337,"state_code":"ALB","country_id":174,"country_code":"PH","latitude":"12.93440000","longitude":"124.10500000"},{"id":"82192","name":"Casiguran","state_id":1337,"state_code":"ALB","country_id":174,"country_code":"PH","latitude":"12.87361000","longitude":"124.00972000"},{"id":"82196","name":"Castilla","state_id":1337,"state_code":"ALB","country_id":174,"country_code":"PH","latitude":"12.94861000","longitude":"123.88222000"},{"id":"82198","name":"Castillo","state_id":1337,"state_code":"ALB","country_id":174,"country_code":"PH","latitude":"13.73130000","longitude":"123.11660000"},{"id":"82200","name":"Catabangan","state_id":1337,"state_code":"ALB","country_id":174,"country_code":"PH","latitude":"13.87770000","longitude":"122.66150000"},{"id":"82202","name":"Cataingan","state_id":1337,"state_code":"ALB","country_id":174,"country_code":"PH","latitude":"12.00300000","longitude":"123.99200000"},{"id":"82223","name":"Causip","state_id":1337,"state_code":"ALB","country_id":174,"country_code":"PH","latitude":"13.51590000","longitude":"123.28340000"},{"id":"82250","name":"Claveria","state_id":1337,"state_code":"ALB","country_id":174,"country_code":"PH","latitude":"12.90350000","longitude":"123.24570000"},{"id":"82304","name":"Cotmon","state_id":1337,"state_code":"ALB","country_id":174,"country_code":"PH","latitude":"13.11750000","longitude":"123.66370000"},{"id":"82310","name":"Culacling","state_id":1337,"state_code":"ALB","country_id":174,"country_code":"PH","latitude":"13.78150000","longitude":"122.87670000"},{"id":"82319","name":"Cumadcad","state_id":1337,"state_code":"ALB","country_id":174,"country_code":"PH","latitude":"12.98056000","longitude":"123.78917000"},{"id":"82321","name":"Curry","state_id":1337,"state_code":"ALB","country_id":174,"country_code":"PH","latitude":"13.60000000","longitude":"123.30000000"},{"id":"82331","name":"Daet","state_id":1337,"state_code":"ALB","country_id":174,"country_code":"PH","latitude":"14.11220000","longitude":"122.95530000"},{"id":"82336","name":"Daguit","state_id":1337,"state_code":"ALB","country_id":174,"country_code":"PH","latitude":"14.18950000","longitude":"122.72660000"},{"id":"82354","name":"Dalupaon","state_id":1337,"state_code":"ALB","country_id":174,"country_code":"PH","latitude":"13.55170000","longitude":"122.94570000"},{"id":"82369","name":"Dangcalan","state_id":1337,"state_code":"ALB","country_id":174,"country_code":"PH","latitude":"12.91680000","longitude":"123.58380000"},{"id":"82378","name":"Dapdap","state_id":1337,"state_code":"ALB","country_id":174,"country_code":"PH","latitude":"12.21550000","longitude":"123.76620000"},{"id":"82382","name":"Daraga","state_id":1337,"state_code":"ALB","country_id":174,"country_code":"PH","latitude":"13.14830000","longitude":"123.71240000"},{"id":"82406","name":"Del Gallego","state_id":1337,"state_code":"ALB","country_id":174,"country_code":"PH","latitude":"13.92230000","longitude":"122.59540000"},{"id":"82412","name":"Del Rosario","state_id":1337,"state_code":"ALB","country_id":174,"country_code":"PH","latitude":"13.30570000","longitude":"123.31330000"},{"id":"82429","name":"Dimasalang","state_id":1337,"state_code":"ALB","country_id":174,"country_code":"PH","latitude":"12.19230000","longitude":"123.85920000"},{"id":"82460","name":"Donsol","state_id":1337,"state_code":"ALB","country_id":174,"country_code":"PH","latitude":"12.90550000","longitude":"123.59490000"},{"id":"82471","name":"Dugcal","state_id":1337,"state_code":"ALB","country_id":174,"country_code":"PH","latitude":"13.62410000","longitude":"123.16120000"},{"id":"82472","name":"Dugongan","state_id":1337,"state_code":"ALB","country_id":174,"country_code":"PH","latitude":"14.10250000","longitude":"122.90660000"},{"id":"82522","name":"Esperanza","state_id":1337,"state_code":"ALB","country_id":174,"country_code":"PH","latitude":"11.73650000","longitude":"124.04200000"},{"id":"82528","name":"Estancia","state_id":1337,"state_code":"ALB","country_id":174,"country_code":"PH","latitude":"13.35890000","longitude":"123.67960000"},{"id":"82535","name":"Fabrica","state_id":1337,"state_code":"ALB","country_id":174,"country_code":"PH","latitude":"13.49000000","longitude":"123.29400000"},{"id":"82544","name":"Gabao","state_id":1337,"state_code":"ALB","country_id":174,"country_code":"PH","latitude":"12.99240000","longitude":"124.01690000"},{"id":"82553","name":"Gainza","state_id":1337,"state_code":"ALB","country_id":174,"country_code":"PH","latitude":"13.61650000","longitude":"123.14190000"},{"id":"82556","name":"Gambalidio","state_id":1337,"state_code":"ALB","country_id":174,"country_code":"PH","latitude":"13.62050000","longitude":"122.89130000"},{"id":"82569","name":"Garchitorena","state_id":1337,"state_code":"ALB","country_id":174,"country_code":"PH","latitude":"13.88040000","longitude":"123.69460000"},{"id":"82572","name":"Gatbo","state_id":1337,"state_code":"ALB","country_id":174,"country_code":"PH","latitude":"13.58333000","longitude":"123.38333000"},{"id":"82589","name":"Gibgos","state_id":1337,"state_code":"ALB","country_id":174,"country_code":"PH","latitude":"13.85900000","longitude":"123.76750000"},{"id":"82592","name":"Gigmoto","state_id":1337,"state_code":"ALB","country_id":174,"country_code":"PH","latitude":"13.77960000","longitude":"124.39000000"},{"id":"82604","name":"Goa","state_id":1337,"state_code":"ALB","country_id":174,"country_code":"PH","latitude":"13.69780000","longitude":"123.48920000"},{"id":"82616","name":"Gubat","state_id":1337,"state_code":"ALB","country_id":174,"country_code":"PH","latitude":"12.92056000","longitude":"124.12306000"},{"id":"82623","name":"Guijalo","state_id":1337,"state_code":"ALB","country_id":174,"country_code":"PH","latitude":"13.73730000","longitude":"123.86800000"},{"id":"82629","name":"Guinacotan","state_id":1337,"state_code":"ALB","country_id":174,"country_code":"PH","latitude":"14.15690000","longitude":"122.86800000"},{"id":"82638","name":"Guinobatan","state_id":1337,"state_code":"ALB","country_id":174,"country_code":"PH","latitude":"13.19130000","longitude":"123.59870000"},{"id":"82655","name":"Gumaus","state_id":1337,"state_code":"ALB","country_id":174,"country_code":"PH","latitude":"14.31030000","longitude":"122.72290000"},{"id":"82658","name":"Guruyan","state_id":1337,"state_code":"ALB","country_id":174,"country_code":"PH","latitude":"12.73889000","longitude":"123.93917000"},{"id":"82676","name":"Hamoraon","state_id":1337,"state_code":"ALB","country_id":174,"country_code":"PH","latitude":"12.22564000","longitude":"123.55151000"},{"id":"82682","name":"Herrera","state_id":1337,"state_code":"ALB","country_id":174,"country_code":"PH","latitude":"13.26930000","longitude":"123.57690000"},{"id":"82688","name":"Himaao","state_id":1337,"state_code":"ALB","country_id":174,"country_code":"PH","latitude":"13.54480000","longitude":"123.30050000"},{"id":"82703","name":"Hobo","state_id":1337,"state_code":"ALB","country_id":174,"country_code":"PH","latitude":"13.51010000","longitude":"123.17920000"},{"id":"82736","name":"Imelda","state_id":1337,"state_code":"ALB","country_id":174,"country_code":"PH","latitude":"14.03333000","longitude":"122.88333000"},{"id":"82742","name":"Inapatan","state_id":1337,"state_code":"ALB","country_id":174,"country_code":"PH","latitude":"13.39640000","longitude":"123.32270000"},{"id":"82764","name":"Iraya","state_id":1337,"state_code":"ALB","country_id":174,"country_code":"PH","latitude":"13.25000000","longitude":"123.51667000"},{"id":"82765","name":"Iriga City","state_id":1337,"state_code":"ALB","country_id":174,"country_code":"PH","latitude":"13.43240000","longitude":"123.41150000"},{"id":"82767","name":"Irosin","state_id":1337,"state_code":"ALB","country_id":174,"country_code":"PH","latitude":"12.70013000","longitude":"124.03221000"},{"id":"82811","name":"Joroan","state_id":1337,"state_code":"ALB","country_id":174,"country_code":"PH","latitude":"13.48850000","longitude":"123.61890000"},{"id":"82812","name":"Jose Pa\u00f1ganiban","state_id":1337,"state_code":"ALB","country_id":174,"country_code":"PH","latitude":"14.29060000","longitude":"122.69170000"},{"id":"82815","name":"Jovellar","state_id":1337,"state_code":"ALB","country_id":174,"country_code":"PH","latitude":"13.06950000","longitude":"123.59990000"},{"id":"82816","name":"Juban","state_id":1337,"state_code":"ALB","country_id":174,"country_code":"PH","latitude":"12.84778000","longitude":"123.98778000"},{"id":"82854","name":"Kaliliog","state_id":1337,"state_code":"ALB","country_id":174,"country_code":"PH","latitude":"13.90390000","longitude":"123.29250000"},{"id":"82907","name":"Kinalansan","state_id":1337,"state_code":"ALB","country_id":174,"country_code":"PH","latitude":"13.70360000","longitude":"123.55310000"},{"id":"82961","name":"Labnig","state_id":1337,"state_code":"ALB","country_id":174,"country_code":"PH","latitude":"13.37690000","longitude":"123.67880000"},{"id":"82962","name":"Labo","state_id":1337,"state_code":"ALB","country_id":174,"country_code":"PH","latitude":"14.15320000","longitude":"122.83030000"},{"id":"82968","name":"Lacag","state_id":1337,"state_code":"ALB","country_id":174,"country_code":"PH","latitude":"13.15530000","longitude":"123.68120000"},{"id":"82979","name":"Lagonoy","state_id":1337,"state_code":"ALB","country_id":174,"country_code":"PH","latitude":"13.73420000","longitude":"123.52070000"},{"id":"82985","name":"Lajong","state_id":1337,"state_code":"ALB","country_id":174,"country_code":"PH","latitude":"12.83333000","longitude":"123.96667000"},{"id":"83018","name":"Lanigay","state_id":1337,"state_code":"ALB","country_id":174,"country_code":"PH","latitude":"13.31667000","longitude":"123.50000000"},{"id":"83023","name":"Lantangan","state_id":1337,"state_code":"ALB","country_id":174,"country_code":"PH","latitude":"12.19815000","longitude":"123.27101000"},{"id":"83041","name":"Larap","state_id":1337,"state_code":"ALB","country_id":174,"country_code":"PH","latitude":"14.29900000","longitude":"122.65040000"},{"id":"83061","name":"Legaspi","state_id":1337,"state_code":"ALB","country_id":174,"country_code":"PH","latitude":"13.14125000","longitude":"123.74073000"},{"id":"83092","name":"Libmanan","state_id":1337,"state_code":"ALB","country_id":174,"country_code":"PH","latitude":"13.69280000","longitude":"123.05960000"},{"id":"83093","name":"Libog","state_id":1337,"state_code":"ALB","country_id":174,"country_code":"PH","latitude":"13.23490000","longitude":"123.77780000"},{"id":"83094","name":"Libon","state_id":1337,"state_code":"ALB","country_id":174,"country_code":"PH","latitude":"13.29970000","longitude":"123.43860000"},{"id":"83097","name":"Liboro","state_id":1337,"state_code":"ALB","country_id":174,"country_code":"PH","latitude":"13.82450000","longitude":"122.72950000"},{"id":"83104","name":"Ligao","state_id":1337,"state_code":"ALB","country_id":174,"country_code":"PH","latitude":"13.21697000","longitude":"123.51924000"},{"id":"83122","name":"Limbuhan","state_id":1337,"state_code":"ALB","country_id":174,"country_code":"PH","latitude":"11.88377000","longitude":"124.05011000"},{"id":"83188","name":"Lourdes","state_id":1337,"state_code":"ALB","country_id":174,"country_code":"PH","latitude":"13.38990000","longitude":"123.37350000"},{"id":"83194","name":"Lubigan","state_id":1337,"state_code":"ALB","country_id":174,"country_code":"PH","latitude":"13.74200000","longitude":"122.93730000"},{"id":"83207","name":"Lugui","state_id":1337,"state_code":"ALB","country_id":174,"country_code":"PH","latitude":"14.11310000","longitude":"122.79350000"},{"id":"83211","name":"Luklukan","state_id":1337,"state_code":"ALB","country_id":174,"country_code":"PH","latitude":"14.32540000","longitude":"122.71240000"},{"id":"83234","name":"Luna","state_id":1337,"state_code":"ALB","country_id":174,"country_code":"PH","latitude":"12.54920000","longitude":"123.73360000"},{"id":"83243","name":"Lupi","state_id":1337,"state_code":"ALB","country_id":174,"country_code":"PH","latitude":"13.53333000","longitude":"123.15000000"},{"id":"83244","name":"Lupi Viejo","state_id":1337,"state_code":"ALB","country_id":174,"country_code":"PH","latitude":"13.78970000","longitude":"122.90980000"},{"id":"83254","name":"Maagnas","state_id":1337,"state_code":"ALB","country_id":174,"country_code":"PH","latitude":"13.71920000","longitude":"123.66750000"},{"id":"83285","name":"Mabiton","state_id":1337,"state_code":"ALB","country_id":174,"country_code":"PH","latitude":"12.83340000","longitude":"123.26120000"},{"id":"83296","name":"Macabugos","state_id":1337,"state_code":"ALB","country_id":174,"country_code":"PH","latitude":"13.23620000","longitude":"123.30530000"},{"id":"83298","name":"Macalaya","state_id":1337,"state_code":"ALB","country_id":174,"country_code":"PH","latitude":"12.88944000","longitude":"123.77111000"},{"id":"83320","name":"Magallanes","state_id":1337,"state_code":"ALB","country_id":174,"country_code":"PH","latitude":"12.82917000","longitude":"123.83639000"},{"id":"83327","name":"Magarao","state_id":1337,"state_code":"ALB","country_id":174,"country_code":"PH","latitude":"13.66040000","longitude":"123.18690000"},{"id":"83340","name":"Magsalangi","state_id":1337,"state_code":"ALB","country_id":174,"country_code":"PH","latitude":"12.18275000","longitude":"123.56661000"},{"id":"83354","name":"Mahaba","state_id":1337,"state_code":"ALB","country_id":174,"country_code":"PH","latitude":"13.26760000","longitude":"123.55140000"},{"id":"83385","name":"Malabog","state_id":1337,"state_code":"ALB","country_id":174,"country_code":"PH","latitude":"13.17380000","longitude":"123.68650000"},{"id":"83411","name":"Malasugui","state_id":1337,"state_code":"ALB","country_id":174,"country_code":"PH","latitude":"14.14390000","longitude":"122.84710000"},{"id":"83412","name":"Malatap","state_id":1337,"state_code":"ALB","country_id":174,"country_code":"PH","latitude":"14.18710000","longitude":"122.51190000"},{"id":"83414","name":"Malawag","state_id":1337,"state_code":"ALB","country_id":174,"country_code":"PH","latitude":"13.38333000","longitude":"123.28333000"},{"id":"83421","name":"Malbug","state_id":1337,"state_code":"ALB","country_id":174,"country_code":"PH","latitude":"12.05630000","longitude":"123.64610000"},{"id":"83427","name":"Malidong","state_id":1337,"state_code":"ALB","country_id":174,"country_code":"PH","latitude":"13.01333000","longitude":"123.45962000"},{"id":"83431","name":"Malilipot","state_id":1337,"state_code":"ALB","country_id":174,"country_code":"PH","latitude":"13.31880000","longitude":"123.73850000"},{"id":"83437","name":"Malinao","state_id":1337,"state_code":"ALB","country_id":174,"country_code":"PH","latitude":"13.39920000","longitude":"123.70690000"},{"id":"83443","name":"Malinta","state_id":1337,"state_code":"ALB","country_id":174,"country_code":"PH","latitude":"12.30144000","longitude":"123.55811000"},{"id":"83476","name":"Mambulo","state_id":1337,"state_code":"ALB","country_id":174,"country_code":"PH","latitude":"13.71667000","longitude":"123.05000000"},{"id":"83480","name":"Mampurog","state_id":1337,"state_code":"ALB","country_id":174,"country_code":"PH","latitude":"14.04580000","longitude":"122.88360000"},{"id":"83489","name":"Manamrag","state_id":1337,"state_code":"ALB","country_id":174,"country_code":"PH","latitude":"13.73510000","longitude":"124.10640000"},{"id":"83503","name":"Mandaon","state_id":1337,"state_code":"ALB","country_id":174,"country_code":"PH","latitude":"12.22594000","longitude":"123.28421000"},{"id":"83507","name":"Manga","state_id":1337,"state_code":"ALB","country_id":174,"country_code":"PH","latitude":"13.27190000","longitude":"123.46230000"},{"id":"83526","name":"Manito","state_id":1337,"state_code":"ALB","country_id":174,"country_code":"PH","latitude":"13.12350000","longitude":"123.86930000"},{"id":"83533","name":"Manquiring","state_id":1337,"state_code":"ALB","country_id":174,"country_code":"PH","latitude":"13.73410000","longitude":"123.26900000"},{"id":"83547","name":"Maonon","state_id":1337,"state_code":"ALB","country_id":174,"country_code":"PH","latitude":"13.03643000","longitude":"123.37074000"},{"id":"83584","name":"Marintoc","state_id":1337,"state_code":"ALB","country_id":174,"country_code":"PH","latitude":"12.28554000","longitude":"123.72281000"},{"id":"83589","name":"Marupit","state_id":1337,"state_code":"ALB","country_id":174,"country_code":"PH","latitude":"13.62690000","longitude":"123.16630000"},{"id":"83597","name":"Masaraway","state_id":1337,"state_code":"ALB","country_id":174,"country_code":"PH","latitude":"13.22680000","longitude":"123.61480000"},{"id":"83601","name":"Masbate","state_id":1337,"state_code":"ALB","country_id":174,"country_code":"PH","latitude":"12.37169000","longitude":"123.62494000"},{"id":"83606","name":"Maslog","state_id":1337,"state_code":"ALB","country_id":174,"country_code":"PH","latitude":"13.10460000","longitude":"123.77130000"},{"id":"83608","name":"Masoli","state_id":1337,"state_code":"ALB","country_id":174,"country_code":"PH","latitude":"13.35930000","longitude":"123.38980000"},{"id":"83613","name":"Matacon","state_id":1337,"state_code":"ALB","country_id":174,"country_code":"PH","latitude":"13.32840000","longitude":"123.43560000"},{"id":"83631","name":"Matnog","state_id":1337,"state_code":"ALB","country_id":174,"country_code":"PH","latitude":"12.58780000","longitude":"124.08750000"},{"id":"83640","name":"Mauraro","state_id":1337,"state_code":"ALB","country_id":174,"country_code":"PH","latitude":"13.14940000","longitude":"123.59530000"},{"id":"83650","name":"Mayngaran","state_id":1337,"state_code":"ALB","country_id":174,"country_code":"PH","latitude":"12.34920000","longitude":"123.59960000"},{"id":"83659","name":"Mercedes","state_id":1337,"state_code":"ALB","country_id":174,"country_code":"PH","latitude":"14.10930000","longitude":"123.01090000"},{"id":"83665","name":"Miaga","state_id":1337,"state_code":"ALB","country_id":174,"country_code":"PH","latitude":"12.23760000","longitude":"123.81670000"},{"id":"83671","name":"Milagros","state_id":1337,"state_code":"ALB","country_id":174,"country_code":"PH","latitude":"12.21814000","longitude":"123.50951000"},{"id":"83672","name":"Milaor","state_id":1337,"state_code":"ALB","country_id":174,"country_code":"PH","latitude":"13.59610000","longitude":"123.17720000"},{"id":"83674","name":"Miliroc","state_id":1337,"state_code":"ALB","country_id":174,"country_code":"PH","latitude":"13.34490000","longitude":"123.70200000"},{"id":"83676","name":"Minalabac","state_id":1337,"state_code":"ALB","country_id":174,"country_code":"PH","latitude":"13.56870000","longitude":"123.18380000"},{"id":"83692","name":"Mobo","state_id":1337,"state_code":"ALB","country_id":174,"country_code":"PH","latitude":"12.33630000","longitude":"123.65740000"},{"id":"83698","name":"Monbon","state_id":1337,"state_code":"ALB","country_id":174,"country_code":"PH","latitude":"12.73070000","longitude":"124.01890000"},{"id":"83704","name":"Monreal","state_id":1337,"state_code":"ALB","country_id":174,"country_code":"PH","latitude":"12.64400000","longitude":"123.66480000"},{"id":"83720","name":"Muladbucad","state_id":1337,"state_code":"ALB","country_id":174,"country_code":"PH","latitude":"13.23890000","longitude":"123.60570000"},{"id":"83732","name":"Naagas","state_id":1337,"state_code":"ALB","country_id":174,"country_code":"PH","latitude":"13.43570000","longitude":"123.67810000"},{"id":"83734","name":"Nabangig","state_id":1337,"state_code":"ALB","country_id":174,"country_code":"PH","latitude":"12.09890000","longitude":"123.95030000"},{"id":"83737","name":"Nabua","state_id":1337,"state_code":"ALB","country_id":174,"country_code":"PH","latitude":"13.40750000","longitude":"123.37240000"},{"id":"83740","name":"Naga","state_id":1337,"state_code":"ALB","country_id":174,"country_code":"PH","latitude":"13.61917000","longitude":"123.18139000"},{"id":"83780","name":"Naro","state_id":1337,"state_code":"ALB","country_id":174,"country_code":"PH","latitude":"11.89697000","longitude":"123.67392000"},{"id":"83788","name":"Nato","state_id":1337,"state_code":"ALB","country_id":174,"country_code":"PH","latitude":"13.61050000","longitude":"123.53560000"},{"id":"83837","name":"Ocampo","state_id":1337,"state_code":"ALB","country_id":174,"country_code":"PH","latitude":"13.55940000","longitude":"123.37610000"},{"id":"83842","name":"Odicon","state_id":1337,"state_code":"ALB","country_id":174,"country_code":"PH","latitude":"13.53000000","longitude":"123.05880000"},{"id":"83847","name":"Ogod","state_id":1337,"state_code":"ALB","country_id":174,"country_code":"PH","latitude":"12.90090000","longitude":"123.61700000"},{"id":"83863","name":"Osiao","state_id":1337,"state_code":"ALB","country_id":174,"country_code":"PH","latitude":"13.09140000","longitude":"123.98110000"},{"id":"83867","name":"Osme\u00f1a","state_id":1337,"state_code":"ALB","country_id":174,"country_code":"PH","latitude":"12.73150000","longitude":"123.33180000"},{"id":"83877","name":"Padang","state_id":1337,"state_code":"ALB","country_id":174,"country_code":"PH","latitude":"13.21960000","longitude":"123.76550000"},{"id":"83910","name":"Palali","state_id":1337,"state_code":"ALB","country_id":174,"country_code":"PH","latitude":"14.30622000","longitude":"122.48571000"},{"id":"83912","name":"Palanas","state_id":1337,"state_code":"ALB","country_id":174,"country_code":"PH","latitude":"12.14580000","longitude":"123.92160000"},{"id":"83920","name":"Palestina","state_id":1337,"state_code":"ALB","country_id":174,"country_code":"PH","latitude":"13.61170000","longitude":"123.24900000"},{"id":"83930","name":"Palsong","state_id":1337,"state_code":"ALB","country_id":174,"country_code":"PH","latitude":"13.42480000","longitude":"123.29630000"},{"id":"83936","name":"Pambuhan","state_id":1337,"state_code":"ALB","country_id":174,"country_code":"PH","latitude":"13.97360000","longitude":"123.08370000"},{"id":"83939","name":"Pamplona","state_id":1337,"state_code":"ALB","country_id":174,"country_code":"PH","latitude":"13.59160000","longitude":"123.08160000"},{"id":"83960","name":"Pandan","state_id":1337,"state_code":"ALB","country_id":174,"country_code":"PH","latitude":"14.04530000","longitude":"124.16940000"},{"id":"83970","name":"Panganiban","state_id":1337,"state_code":"ALB","country_id":174,"country_code":"PH","latitude":"13.90033000","longitude":"124.29816000"},{"id":"83982","name":"Panguiranan","state_id":1337,"state_code":"ALB","country_id":174,"country_code":"PH","latitude":"12.06986000","longitude":"123.31851000"},{"id":"83989","name":"Paniqui","state_id":1337,"state_code":"ALB","country_id":174,"country_code":"PH","latitude":"12.45320000","longitude":"123.38210000"},{"id":"83999","name":"Pantao","state_id":1337,"state_code":"ALB","country_id":174,"country_code":"PH","latitude":"13.19440000","longitude":"123.32710000"},{"id":"84011","name":"Parabcan","state_id":1337,"state_code":"ALB","country_id":174,"country_code":"PH","latitude":"13.70880000","longitude":"123.74500000"},{"id":"84012","name":"Paracale","state_id":1337,"state_code":"ALB","country_id":174,"country_code":"PH","latitude":"14.28040000","longitude":"122.78810000"},{"id":"84026","name":"Pasacao","state_id":1337,"state_code":"ALB","country_id":174,"country_code":"PH","latitude":"13.51180000","longitude":"123.04260000"},{"id":"84057","name":"Paulba","state_id":1337,"state_code":"ALB","country_id":174,"country_code":"PH","latitude":"13.71360000","longitude":"123.24960000"},{"id":"84060","name":"Pawa","state_id":1337,"state_code":"ALB","country_id":174,"country_code":"PH","latitude":"13.17730000","longitude":"123.73010000"},{"id":"84062","name":"Pawican","state_id":1337,"state_code":"ALB","country_id":174,"country_code":"PH","latitude":"12.07410000","longitude":"123.97060000"},{"id":"84063","name":"Pawili","state_id":1337,"state_code":"ALB","country_id":174,"country_code":"PH","latitude":"13.51667000","longitude":"123.28333000"},{"id":"84076","name":"Pe\u00f1a","state_id":1337,"state_code":"ALB","country_id":174,"country_code":"PH","latitude":"12.08900000","longitude":"123.93840000"},{"id":"84090","name":"Pilar","state_id":1337,"state_code":"ALB","country_id":174,"country_code":"PH","latitude":"12.92310000","longitude":"123.67240000"},{"id":"84097","name":"Pili","state_id":1337,"state_code":"ALB","country_id":174,"country_code":"PH","latitude":"12.98056000","longitude":"123.86417000"},{"id":"84112","name":"Pinit","state_id":1337,"state_code":"ALB","country_id":174,"country_code":"PH","latitude":"13.56860000","longitude":"123.41400000"},{"id":"84119","name":"Pio Duran","state_id":1337,"state_code":"ALB","country_id":174,"country_code":"PH","latitude":"13.02928000","longitude":"123.44496000"},{"id":"84129","name":"Placer","state_id":1337,"state_code":"ALB","country_id":174,"country_code":"PH","latitude":"11.86870000","longitude":"123.91840000"},{"id":"84143","name":"Polangui","state_id":1337,"state_code":"ALB","country_id":174,"country_code":"PH","latitude":"13.29230000","longitude":"123.48550000"},{"id":"84160","name":"Ponso","state_id":1337,"state_code":"ALB","country_id":174,"country_code":"PH","latitude":"13.29100000","longitude":"123.51710000"},{"id":"84168","name":"Potot","state_id":1337,"state_code":"ALB","country_id":174,"country_code":"PH","latitude":"12.20345000","longitude":"123.43191000"},{"id":"84175","name":"Prieto Diaz","state_id":1337,"state_code":"ALB","country_id":174,"country_code":"PH","latitude":"13.04167000","longitude":"124.19389000"},{"id":"84185","name":"Province of Albay","state_id":1337,"state_code":"ALB","country_id":174,"country_code":"PH","latitude":"13.21667000","longitude":"123.55000000"},{"id":"84196","name":"Province of Camarines Norte","state_id":1337,"state_code":"ALB","country_id":174,"country_code":"PH","latitude":"14.16667000","longitude":"122.75000000"},{"id":"84197","name":"Province of Camarines Sur","state_id":1337,"state_code":"ALB","country_id":174,"country_code":"PH","latitude":"13.66667000","longitude":"123.33333000"},{"id":"84200","name":"Province of Catanduanes","state_id":1337,"state_code":"ALB","country_id":174,"country_code":"PH","latitude":"13.83333000","longitude":"124.25000000"},{"id":"84221","name":"Province of Masbate","state_id":1337,"state_code":"ALB","country_id":174,"country_code":"PH","latitude":"12.16667000","longitude":"123.58333000"},{"id":"84241","name":"Province of Sorsogon","state_id":1337,"state_code":"ALB","country_id":174,"country_code":"PH","latitude":"12.83333000","longitude":"123.91667000"},{"id":"84286","name":"Puro","state_id":1337,"state_code":"ALB","country_id":174,"country_code":"PH","latitude":"12.48410000","longitude":"123.38270000"},{"id":"84289","name":"Putiao","state_id":1337,"state_code":"ALB","country_id":174,"country_code":"PH","latitude":"13.01950000","longitude":"123.71480000"},{"id":"84299","name":"Quezon","state_id":1337,"state_code":"ALB","country_id":174,"country_code":"PH","latitude":"12.60000000","longitude":"123.95000000"},{"id":"84317","name":"Quitang","state_id":1337,"state_code":"ALB","country_id":174,"country_code":"PH","latitude":"13.55130000","longitude":"123.05290000"},{"id":"84320","name":"Ragay","state_id":1337,"state_code":"ALB","country_id":174,"country_code":"PH","latitude":"13.81830000","longitude":"122.79230000"},{"id":"84330","name":"Rapu-Rapu","state_id":1337,"state_code":"ALB","country_id":174,"country_code":"PH","latitude":"13.18660000","longitude":"124.12560000"},{"id":"84335","name":"Recodo","state_id":1337,"state_code":"ALB","country_id":174,"country_code":"PH","latitude":"11.94914000","longitude":"123.73695000"},{"id":"84341","name":"Rizal","state_id":1337,"state_code":"ALB","country_id":174,"country_code":"PH","latitude":"12.97722000","longitude":"123.91417000"},{"id":"84368","name":"Sabang","state_id":1337,"state_code":"ALB","country_id":174,"country_code":"PH","latitude":"12.73333000","longitude":"123.93333000"},{"id":"84371","name":"Sabang Indan","state_id":1337,"state_code":"ALB","country_id":174,"country_code":"PH","latitude":"14.21940000","longitude":"122.91510000"},{"id":"84389","name":"Sagnay","state_id":1337,"state_code":"ALB","country_id":174,"country_code":"PH","latitude":"13.60290000","longitude":"123.52250000"},{"id":"84390","name":"Sagpon","state_id":1337,"state_code":"ALB","country_id":174,"country_code":"PH","latitude":"13.15000000","longitude":"123.73333000"},{"id":"84391","name":"Sagrada","state_id":1337,"state_code":"ALB","country_id":174,"country_code":"PH","latitude":"13.53010000","longitude":"123.45270000"},{"id":"84392","name":"Sagrada Familia","state_id":1337,"state_code":"ALB","country_id":174,"country_code":"PH","latitude":"13.26900000","longitude":"123.39770000"},{"id":"84398","name":"Sagurong","state_id":1337,"state_code":"ALB","country_id":174,"country_code":"PH","latitude":"13.78050000","longitude":"122.95940000"},{"id":"84412","name":"Salingogan","state_id":1337,"state_code":"ALB","country_id":174,"country_code":"PH","latitude":"13.43330000","longitude":"123.19230000"},{"id":"84414","name":"Salogon","state_id":1337,"state_code":"ALB","country_id":174,"country_code":"PH","latitude":"13.65860000","longitude":"123.52250000"},{"id":"84419","name":"Salvacion","state_id":1337,"state_code":"ALB","country_id":174,"country_code":"PH","latitude":"13.06667000","longitude":"123.61667000"},{"id":"84436","name":"San Agustin","state_id":1337,"state_code":"ALB","country_id":174,"country_code":"PH","latitude":"13.32630000","longitude":"123.41770000"},{"id":"84442","name":"San Andres","state_id":1337,"state_code":"ALB","country_id":174,"country_code":"PH","latitude":"13.26140000","longitude":"123.77950000"},{"id":"84446","name":"San Antonio","state_id":1337,"state_code":"ALB","country_id":174,"country_code":"PH","latitude":"13.37100000","longitude":"123.42020000"},{"id":"84474","name":"San Felipe","state_id":1337,"state_code":"ALB","country_id":174,"country_code":"PH","latitude":"14.01840000","longitude":"122.92950000"},{"id":"84478","name":"San Fernando","state_id":1337,"state_code":"ALB","country_id":174,"country_code":"PH","latitude":"13.56560000","longitude":"123.14530000"},{"id":"84488","name":"San Francisco","state_id":1337,"state_code":"ALB","country_id":174,"country_code":"PH","latitude":"13.03670000","longitude":"123.78320000"},{"id":"84492","name":"San Gabriel","state_id":1337,"state_code":"ALB","country_id":174,"country_code":"PH","latitude":"13.56667000","longitude":"123.10000000"},{"id":"84500","name":"San Isidro","state_id":1337,"state_code":"ALB","country_id":174,"country_code":"PH","latitude":"12.97417000","longitude":"123.85722000"},{"id":"84508","name":"San Jacinto","state_id":1337,"state_code":"ALB","country_id":174,"country_code":"PH","latitude":"12.56770000","longitude":"123.73370000"},{"id":"84517","name":"San Jose","state_id":1337,"state_code":"ALB","country_id":174,"country_code":"PH","latitude":"13.35000000","longitude":"123.55000000"},{"id":"84537","name":"San Lucas","state_id":1337,"state_code":"ALB","country_id":174,"country_code":"PH","latitude":"13.70620000","longitude":"123.20320000"},{"id":"84560","name":"San Miguel","state_id":1337,"state_code":"ALB","country_id":174,"country_code":"PH","latitude":"13.41960000","longitude":"123.40820000"},{"id":"84579","name":"San Pascual","state_id":1337,"state_code":"ALB","country_id":174,"country_code":"PH","latitude":"13.12888000","longitude":"122.97709000"},{"id":"84585","name":"San Pedro","state_id":1337,"state_code":"ALB","country_id":174,"country_code":"PH","latitude":"12.01667000","longitude":"124.00000000"},{"id":"84595","name":"San Rafael","state_id":1337,"state_code":"ALB","country_id":174,"country_code":"PH","latitude":"13.21667000","longitude":"123.60000000"},{"id":"84599","name":"San Ramon","state_id":1337,"state_code":"ALB","country_id":174,"country_code":"PH","latitude":"13.72210000","longitude":"123.54000000"},{"id":"84607","name":"San Roque","state_id":1337,"state_code":"ALB","country_id":174,"country_code":"PH","latitude":"13.28370000","longitude":"123.74220000"},{"id":"84614","name":"San Sebastian","state_id":1337,"state_code":"ALB","country_id":174,"country_code":"PH","latitude":"13.72830000","longitude":"123.59390000"},{"id":"84623","name":"San Vicente","state_id":1337,"state_code":"ALB","country_id":174,"country_code":"PH","latitude":"14.10610000","longitude":"122.87330000"},{"id":"84658","name":"Santa Cruz","state_id":1337,"state_code":"ALB","country_id":174,"country_code":"PH","latitude":"12.87630000","longitude":"124.05660000"},{"id":"84664","name":"Santa Elena","state_id":1337,"state_code":"ALB","country_id":174,"country_code":"PH","latitude":"14.17023000","longitude":"122.38246000"},{"id":"84676","name":"Santa Justina","state_id":1337,"state_code":"ALB","country_id":174,"country_code":"PH","latitude":"13.39670000","longitude":"123.47310000"},{"id":"84680","name":"Santa Magdalena","state_id":1337,"state_code":"ALB","country_id":174,"country_code":"PH","latitude":"12.64800000","longitude":"124.10930000"},{"id":"84701","name":"Santa Rosa Sur","state_id":1337,"state_code":"ALB","country_id":174,"country_code":"PH","latitude":"14.25900000","longitude":"122.72330000"},{"id":"84706","name":"Santa Teresita","state_id":1337,"state_code":"ALB","country_id":174,"country_code":"PH","latitude":"13.47860000","longitude":"123.41910000"},{"id":"84720","name":"Santo Domingo","state_id":1337,"state_code":"ALB","country_id":174,"country_code":"PH","latitude":"13.42000000","longitude":"123.44860000"},{"id":"84724","name":"Santo Ni\u00f1o","state_id":1337,"state_code":"ALB","country_id":174,"country_code":"PH","latitude":"13.10430000","longitude":"123.96820000"},{"id":"84822","name":"Sinuknipan","state_id":1337,"state_code":"ALB","country_id":174,"country_code":"PH","latitude":"13.88940000","longitude":"122.63750000"},{"id":"84826","name":"Sipocot","state_id":1337,"state_code":"ALB","country_id":174,"country_code":"PH","latitude":"13.76800000","longitude":"122.97620000"},{"id":"84830","name":"Siruma","state_id":1337,"state_code":"ALB","country_id":174,"country_code":"PH","latitude":"14.00000000","longitude":"123.25000000"},{"id":"84836","name":"Sogod","state_id":1337,"state_code":"ALB","country_id":174,"country_code":"PH","latitude":"13.83333000","longitude":"123.31667000"},{"id":"84848","name":"Sorsogon","state_id":1337,"state_code":"ALB","country_id":174,"country_code":"PH","latitude":"12.97389000","longitude":"123.99333000"},{"id":"84860","name":"Sugcad","state_id":1337,"state_code":"ALB","country_id":174,"country_code":"PH","latitude":"13.36667000","longitude":"123.70000000"},{"id":"84861","name":"Sugod","state_id":1337,"state_code":"ALB","country_id":174,"country_code":"PH","latitude":"12.98700000","longitude":"124.08050000"},{"id":"84891","name":"Tabaco","state_id":1337,"state_code":"ALB","country_id":174,"country_code":"PH","latitude":"13.35861000","longitude":"123.73361000"},{"id":"84930","name":"Tagas","state_id":1337,"state_code":"ALB","country_id":174,"country_code":"PH","latitude":"13.16667000","longitude":"123.71667000"},{"id":"84946","name":"Tagoytoy","state_id":1337,"state_code":"ALB","country_id":174,"country_code":"PH","latitude":"13.41580000","longitude":"123.67800000"},{"id":"84980","name":"Talisay","state_id":1337,"state_code":"ALB","country_id":174,"country_code":"PH","latitude":"14.13430000","longitude":"122.92260000"},{"id":"84997","name":"Talubatib","state_id":1337,"state_code":"ALB","country_id":174,"country_code":"PH","latitude":"14.18250000","longitude":"122.78530000"},{"id":"85010","name":"Tambo","state_id":1337,"state_code":"ALB","country_id":174,"country_code":"PH","latitude":"13.54680000","longitude":"123.03580000"},{"id":"85054","name":"Tara","state_id":1337,"state_code":"ALB","country_id":174,"country_code":"PH","latitude":"13.81667000","longitude":"122.98333000"},{"id":"85057","name":"Tariric","state_id":1337,"state_code":"ALB","country_id":174,"country_code":"PH","latitude":"13.57230000","longitude":"123.22350000"},{"id":"85102","name":"Tigaon","state_id":1337,"state_code":"ALB","country_id":174,"country_code":"PH","latitude":"13.63310000","longitude":"123.49680000"},{"id":"85104","name":"Tigbao","state_id":1337,"state_code":"ALB","country_id":174,"country_code":"PH","latitude":"12.55460000","longitude":"123.33890000"},{"id":"85106","name":"Tigbaw","state_id":1337,"state_code":"ALB","country_id":174,"country_code":"PH","latitude":"12.14830000","longitude":"123.59090000"},{"id":"85107","name":"Tigbinan","state_id":1337,"state_code":"ALB","country_id":174,"country_code":"PH","latitude":"14.18648000","longitude":"122.46923000"},{"id":"85126","name":"Tinago","state_id":1337,"state_code":"ALB","country_id":174,"country_code":"PH","latitude":"13.18333000","longitude":"123.65000000"},{"id":"85127","name":"Tinalmud","state_id":1337,"state_code":"ALB","country_id":174,"country_code":"PH","latitude":"13.59410000","longitude":"122.87800000"},{"id":"85128","name":"Tinambac","state_id":1337,"state_code":"ALB","country_id":174,"country_code":"PH","latitude":"13.81640000","longitude":"123.32610000"},{"id":"85130","name":"Tinampo","state_id":1337,"state_code":"ALB","country_id":174,"country_code":"PH","latitude":"13.22825000","longitude":"123.50723000"},{"id":"85133","name":"Tinawagan","state_id":1337,"state_code":"ALB","country_id":174,"country_code":"PH","latitude":"13.65000000","longitude":"123.48333000"},{"id":"85149","name":"Tiwi","state_id":1337,"state_code":"ALB","country_id":174,"country_code":"PH","latitude":"13.45850000","longitude":"123.68050000"},{"id":"85192","name":"Tubli","state_id":1337,"state_code":"ALB","country_id":174,"country_code":"PH","latitude":"13.93180000","longitude":"124.14780000"},{"id":"85198","name":"Tuburan","state_id":1337,"state_code":"ALB","country_id":174,"country_code":"PH","latitude":"13.24170000","longitude":"123.55203000"},{"id":"85211","name":"Tugos","state_id":1337,"state_code":"ALB","country_id":174,"country_code":"PH","latitude":"14.26667000","longitude":"122.75000000"},{"id":"85216","name":"Tulay na Lupa","state_id":1337,"state_code":"ALB","country_id":174,"country_code":"PH","latitude":"14.09340000","longitude":"122.78620000"},{"id":"85219","name":"Tumalaytay","state_id":1337,"state_code":"ALB","country_id":174,"country_code":"PH","latitude":"12.27584000","longitude":"123.23201000"},{"id":"85247","name":"Umabay","state_id":1337,"state_code":"ALB","country_id":174,"country_code":"PH","latitude":"12.30954000","longitude":"123.67961000"},{"id":"85269","name":"Usab","state_id":1337,"state_code":"ALB","country_id":174,"country_code":"PH","latitude":"12.32974000","longitude":"123.58091000"},{"id":"85270","name":"Uson","state_id":1337,"state_code":"ALB","country_id":174,"country_code":"PH","latitude":"12.22530000","longitude":"123.78340000"},{"id":"85271","name":"Utabi","state_id":1337,"state_code":"ALB","country_id":174,"country_code":"PH","latitude":"12.64170000","longitude":"123.90920000"},{"id":"85288","name":"Viga","state_id":1337,"state_code":"ALB","country_id":174,"country_code":"PH","latitude":"13.87190000","longitude":"124.30910000"},{"id":"85295","name":"Villahermosa","state_id":1337,"state_code":"ALB","country_id":174,"country_code":"PH","latitude":"13.04580000","longitude":"123.71330000"},{"id":"85304","name":"Vinzons","state_id":1337,"state_code":"ALB","country_id":174,"country_code":"PH","latitude":"14.17370000","longitude":"122.90660000"},{"id":"85305","name":"Virac","state_id":1337,"state_code":"ALB","country_id":174,"country_code":"PH","latitude":"13.58480000","longitude":"124.23740000"}]