[{"id":"81137","name":"Abulug","state_id":1342,"state_code":"02","country_id":174,"country_code":"PH","latitude":"18.44528000","longitude":"121.45333000"},{"id":"81138","name":"Abut","state_id":1342,"state_code":"02","country_id":174,"country_code":"PH","latitude":"17.35423000","longitude":"121.60138000"},{"id":"81143","name":"Accusilian","state_id":1342,"state_code":"02","country_id":174,"country_code":"PH","latitude":"17.74791000","longitude":"121.46254000"},{"id":"81149","name":"Afusing Centro","state_id":1342,"state_code":"02","country_id":174,"country_code":"PH","latitude":"17.85260000","longitude":"121.62690000"},{"id":"81158","name":"Aggugaddah","state_id":1342,"state_code":"02","country_id":174,"country_code":"PH","latitude":"17.70016000","longitude":"121.80250000"},{"id":"81178","name":"Alabug","state_id":1342,"state_code":"02","country_id":174,"country_code":"PH","latitude":"17.73261000","longitude":"121.46773000"},{"id":"81190","name":"Alannay","state_id":1342,"state_code":"02","country_id":174,"country_code":"PH","latitude":"18.06114000","longitude":"121.58616000"},{"id":"81195","name":"Alcala","state_id":1342,"state_code":"02","country_id":174,"country_code":"PH","latitude":"17.90210000","longitude":"121.65595000"},{"id":"81209","name":"Alibago","state_id":1342,"state_code":"02","country_id":174,"country_code":"PH","latitude":"17.11667000","longitude":"121.86667000"},{"id":"81215","name":"Alicia","state_id":1342,"state_code":"02","country_id":174,"country_code":"PH","latitude":"16.77936000","longitude":"121.69734000"},{"id":"81222","name":"Allacapan","state_id":1342,"state_code":"02","country_id":174,"country_code":"PH","latitude":"18.22598000","longitude":"121.55615000"},{"id":"81226","name":"Almaguer North","state_id":1342,"state_code":"02","country_id":174,"country_code":"PH","latitude":"16.34970000","longitude":"121.09260000"},{"id":"81252","name":"Amulung","state_id":1342,"state_code":"02","country_id":174,"country_code":"PH","latitude":"17.83570000","longitude":"121.72375000"},{"id":"81265","name":"Angadanan","state_id":1342,"state_code":"02","country_id":174,"country_code":"PH","latitude":"16.75526000","longitude":"121.74834000"},{"id":"81278","name":"Antagan Segunda","state_id":1342,"state_code":"02","country_id":174,"country_code":"PH","latitude":"17.28268000","longitude":"121.87153000"},{"id":"81292","name":"Aparri","state_id":1342,"state_code":"02","country_id":174,"country_code":"PH","latitude":"18.35660000","longitude":"121.64060000"},{"id":"81314","name":"Aritao","state_id":1342,"state_code":"02","country_id":174,"country_code":"PH","latitude":"16.29790000","longitude":"121.03450000"},{"id":"81329","name":"Atulayan","state_id":1342,"state_code":"02","country_id":174,"country_code":"PH","latitude":"17.66480000","longitude":"121.69370000"},{"id":"81334","name":"Aurora","state_id":1342,"state_code":"02","country_id":174,"country_code":"PH","latitude":"16.99065000","longitude":"121.63664000"},{"id":"81338","name":"Awallan","state_id":1342,"state_code":"02","country_id":174,"country_code":"PH","latitude":"17.92439000","longitude":"121.91305000"},{"id":"81360","name":"Bacnor East","state_id":1342,"state_code":"02","country_id":174,"country_code":"PH","latitude":"17.03449000","longitude":"121.70375000"},{"id":"81395","name":"Baggabag B","state_id":1342,"state_code":"02","country_id":174,"country_code":"PH","latitude":"16.50588000","longitude":"121.19014000"},{"id":"81401","name":"Bagong Tanza","state_id":1342,"state_code":"02","country_id":174,"country_code":"PH","latitude":"16.98269000","longitude":"121.61109000"},{"id":"81406","name":"Bagu","state_id":1342,"state_code":"02","country_id":174,"country_code":"PH","latitude":"18.42441000","longitude":"121.35573000"},{"id":"81413","name":"Bagumbayan","state_id":1342,"state_code":"02","country_id":174,"country_code":"PH","latitude":"17.72271000","longitude":"121.44695000"},{"id":"81489","name":"Ballesteros","state_id":1342,"state_code":"02","country_id":174,"country_code":"PH","latitude":"18.41260000","longitude":"121.51520000"},{"id":"81511","name":"Bambang","state_id":1342,"state_code":"02","country_id":174,"country_code":"PH","latitude":"16.38650000","longitude":"121.10660000"},{"id":"81525","name":"Bangad","state_id":1342,"state_code":"02","country_id":174,"country_code":"PH","latitude":"17.49543000","longitude":"121.77714000"},{"id":"81528","name":"Banganan","state_id":1342,"state_code":"02","country_id":174,"country_code":"PH","latitude":"16.31440000","longitude":"121.05440000"},{"id":"81546","name":"Banquero","state_id":1342,"state_code":"02","country_id":174,"country_code":"PH","latitude":"17.02305000","longitude":"121.77834000"},{"id":"81588","name":"Barucboc Norte","state_id":1342,"state_code":"02","country_id":174,"country_code":"PH","latitude":"17.25857000","longitude":"121.60561000"},{"id":"81598","name":"Basco","state_id":1342,"state_code":"02","country_id":174,"country_code":"PH","latitude":"20.44865000","longitude":"121.97017000"},{"id":"81612","name":"Batal","state_id":1342,"state_code":"02","country_id":174,"country_code":"PH","latitude":"16.68750000","longitude":"121.60083000"},{"id":"81634","name":"Battung","state_id":1342,"state_code":"02","country_id":174,"country_code":"PH","latitude":"17.72261000","longitude":"121.45914000"},{"id":"81641","name":"Bauan","state_id":1342,"state_code":"02","country_id":174,"country_code":"PH","latitude":"17.72256000","longitude":"121.68028000"},{"id":"81667","name":"Bayombong","state_id":1342,"state_code":"02","country_id":174,"country_code":"PH","latitude":"16.48120000","longitude":"121.14970000"},{"id":"81676","name":"Belance","state_id":1342,"state_code":"02","country_id":174,"country_code":"PH","latitude":"16.18333000","longitude":"121.25000000"},{"id":"81678","name":"Benito Soliven","state_id":1342,"state_code":"02","country_id":174,"country_code":"PH","latitude":"16.98155000","longitude":"121.95994000"},{"id":"81709","name":"Binalan","state_id":1342,"state_code":"02","country_id":174,"country_code":"PH","latitude":"18.32750000","longitude":"121.54510000"},{"id":"81719","name":"Binguang","state_id":1342,"state_code":"02","country_id":174,"country_code":"PH","latitude":"17.45893000","longitude":"121.79519000"},{"id":"81729","name":"Bintawan","state_id":1342,"state_code":"02","country_id":174,"country_code":"PH","latitude":"16.57588000","longitude":"121.18764000"},{"id":"81740","name":"Bitag Grande","state_id":1342,"state_code":"02","country_id":174,"country_code":"PH","latitude":"17.90244000","longitude":"121.85013000"},{"id":"81786","name":"Bone South","state_id":1342,"state_code":"02","country_id":174,"country_code":"PH","latitude":"16.24460000","longitude":"120.99580000"},{"id":"81850","name":"Buguey","state_id":1342,"state_code":"02","country_id":174,"country_code":"PH","latitude":"18.28823000","longitude":"121.83310000"},{"id":"81880","name":"Buliwao","state_id":1342,"state_code":"02","country_id":174,"country_code":"PH","latitude":"16.48333000","longitude":"121.23333000"},{"id":"81884","name":"Bulu","state_id":1342,"state_code":"02","country_id":174,"country_code":"PH","latitude":"17.33333000","longitude":"121.76667000"},{"id":"81910","name":"Burgos","state_id":1342,"state_code":"02","country_id":174,"country_code":"PH","latitude":"17.08914000","longitude":"121.70254000"},{"id":"81917","name":"Busilak","state_id":1342,"state_code":"02","country_id":174,"country_code":"PH","latitude":"16.47750000","longitude":"121.12410000"},{"id":"81939","name":"Cabagan","state_id":1342,"state_code":"02","country_id":174,"country_code":"PH","latitude":"17.42782000","longitude":"121.76955000"},{"id":"81951","name":"Cabannungan Second","state_id":1342,"state_code":"02","country_id":174,"country_code":"PH","latitude":"17.12490000","longitude":"121.85060000"},{"id":"81953","name":"Cabaritan East","state_id":1342,"state_code":"02","country_id":174,"country_code":"PH","latitude":"18.41781000","longitude":"121.48872000"},{"id":"81954","name":"Cabarroguis","state_id":1342,"state_code":"02","country_id":174,"country_code":"PH","latitude":"16.51105000","longitude":"121.52118000"},{"id":"81958","name":"Cabatuan","state_id":1342,"state_code":"02","country_id":174,"country_code":"PH","latitude":"16.95655000","longitude":"121.66854000"},{"id":"81970","name":"Cabiraoan","state_id":1342,"state_code":"02","country_id":174,"country_code":"PH","latitude":"18.32377000","longitude":"122.08595000"},{"id":"81982","name":"Cabulay","state_id":1342,"state_code":"02","country_id":174,"country_code":"PH","latitude":"16.74556000","longitude":"121.49750000"},{"id":"82014","name":"Calamagui East","state_id":1342,"state_code":"02","country_id":174,"country_code":"PH","latitude":"17.48815000","longitude":"121.76845000"},{"id":"82025","name":"Calantac","state_id":1342,"state_code":"02","country_id":174,"country_code":"PH","latitude":"17.90904000","longitude":"121.72280000"},{"id":"82028","name":"Calaoagan","state_id":1342,"state_code":"02","country_id":174,"country_code":"PH","latitude":"18.04279000","longitude":"121.72325000"},{"id":"82053","name":"Calinaoan Malasin","state_id":1342,"state_code":"02","country_id":174,"country_code":"PH","latitude":"17.35189000","longitude":"121.74074000"},{"id":"82061","name":"Calog Norte","state_id":1342,"state_code":"02","country_id":174,"country_code":"PH","latitude":"18.36359000","longitude":"121.38533000"},{"id":"82077","name":"Camalaniugan","state_id":1342,"state_code":"02","country_id":174,"country_code":"PH","latitude":"18.27400000","longitude":"121.67480000"},{"id":"82138","name":"Capissayan Sur","state_id":1342,"state_code":"02","country_id":174,"country_code":"PH","latitude":"18.05090000","longitude":"121.81770000"},{"id":"82162","name":"Carig","state_id":1342,"state_code":"02","country_id":174,"country_code":"PH","latitude":"17.65929000","longitude":"121.74357000"},{"id":"82188","name":"Casambalangan","state_id":1342,"state_code":"02","country_id":174,"country_code":"PH","latitude":"18.37646000","longitude":"122.12745000"},{"id":"82207","name":"Catayauan","state_id":1342,"state_code":"02","country_id":174,"country_code":"PH","latitude":"18.16072000","longitude":"121.65271000"},{"id":"82251","name":"Claveria","state_id":1342,"state_code":"02","country_id":174,"country_code":"PH","latitude":"18.60742000","longitude":"121.08322000"},{"id":"82290","name":"Cordon","state_id":1342,"state_code":"02","country_id":174,"country_code":"PH","latitude":"16.67440000","longitude":"121.46580000"},{"id":"82317","name":"Cullalabo del Sur","state_id":1342,"state_code":"02","country_id":174,"country_code":"PH","latitude":"17.10267000","longitude":"121.70394000"},{"id":"82341","name":"Dagupan","state_id":1342,"state_code":"02","country_id":174,"country_code":"PH","latitude":"17.70039000","longitude":"121.50448000"},{"id":"82345","name":"Dalaoig","state_id":1342,"state_code":"02","country_id":174,"country_code":"PH","latitude":"17.94917000","longitude":"121.71480000"},{"id":"82383","name":"Daragutan","state_id":1342,"state_code":"02","country_id":174,"country_code":"PH","latitude":"17.00000000","longitude":"122.03333000"},{"id":"82389","name":"Dassun","state_id":1342,"state_code":"02","country_id":174,"country_code":"PH","latitude":"17.74517000","longitude":"121.71137000"},{"id":"82413","name":"Diadi","state_id":1342,"state_code":"02","country_id":174,"country_code":"PH","latitude":"16.72620000","longitude":"121.35890000"},{"id":"82414","name":"Diamantina","state_id":1342,"state_code":"02","country_id":174,"country_code":"PH","latitude":"16.91795000","longitude":"121.62674000"},{"id":"82417","name":"Dibuluan","state_id":1342,"state_code":"02","country_id":174,"country_code":"PH","latitude":"16.51907000","longitude":"121.76472000"},{"id":"82418","name":"Dicabisagan","state_id":1342,"state_code":"02","country_id":174,"country_code":"PH","latitude":"17.08184000","longitude":"122.41574000"},{"id":"82419","name":"Dicamay","state_id":1342,"state_code":"02","country_id":174,"country_code":"PH","latitude":"16.75606000","longitude":"122.00374000"},{"id":"82421","name":"Diffun","state_id":1342,"state_code":"02","country_id":174,"country_code":"PH","latitude":"16.59000000","longitude":"121.50570000"},{"id":"82446","name":"Divisoria","state_id":1342,"state_code":"02","country_id":174,"country_code":"PH","latitude":"17.52268000","longitude":"121.77421000"},{"id":"82448","name":"Dodan","state_id":1342,"state_code":"02","country_id":174,"country_code":"PH","latitude":"17.64107000","longitude":"121.79449000"},{"id":"82480","name":"Dumabato","state_id":1342,"state_code":"02","country_id":174,"country_code":"PH","latitude":"16.31667000","longitude":"121.70000000"},{"id":"82501","name":"Echague","state_id":1342,"state_code":"02","country_id":174,"country_code":"PH","latitude":"16.70509000","longitude":"121.67633000"},{"id":"82502","name":"Eden","state_id":1342,"state_code":"02","country_id":174,"country_code":"PH","latitude":"17.03809000","longitude":"121.59799000"},{"id":"82508","name":"Enrile","state_id":1342,"state_code":"02","country_id":174,"country_code":"PH","latitude":"17.55960000","longitude":"121.69740000"},{"id":"82523","name":"Esperanza East","state_id":1342,"state_code":"02","country_id":174,"country_code":"PH","latitude":"17.02327000","longitude":"121.68402000"},{"id":"82529","name":"Estefania","state_id":1342,"state_code":"02","country_id":174,"country_code":"PH","latitude":"17.79952000","longitude":"121.72310000"},{"id":"82542","name":"Furao","state_id":1342,"state_code":"02","country_id":174,"country_code":"PH","latitude":"17.03466000","longitude":"121.79689000"},{"id":"82551","name":"Gadu","state_id":1342,"state_code":"02","country_id":174,"country_code":"PH","latitude":"17.62920000","longitude":"121.61050000"},{"id":"82558","name":"Gammad","state_id":1342,"state_code":"02","country_id":174,"country_code":"PH","latitude":"17.71040000","longitude":"121.74370000"},{"id":"82559","name":"Gamu","state_id":1342,"state_code":"02","country_id":174,"country_code":"PH","latitude":"17.04975000","longitude":"121.83604000"},{"id":"82561","name":"Ganapi","state_id":1342,"state_code":"02","country_id":174,"country_code":"PH","latitude":"17.20174000","longitude":"121.86524000"},{"id":"82568","name":"Gappal","state_id":1342,"state_code":"02","country_id":174,"country_code":"PH","latitude":"16.83646000","longitude":"121.82184000"},{"id":"82573","name":"Gattaran","state_id":1342,"state_code":"02","country_id":174,"country_code":"PH","latitude":"18.06157000","longitude":"121.64410000"},{"id":"82607","name":"Gonzaga","state_id":1342,"state_code":"02","country_id":174,"country_code":"PH","latitude":"18.25937000","longitude":"121.99495000"},{"id":"82619","name":"Guiddam","state_id":1342,"state_code":"02","country_id":174,"country_code":"PH","latitude":"18.33493000","longitude":"121.46617000"},{"id":"82711","name":"Ibung","state_id":1342,"state_code":"02","country_id":174,"country_code":"PH","latitude":"16.60938000","longitude":"121.18614000"},{"id":"82722","name":"Iguig","state_id":1342,"state_code":"02","country_id":174,"country_code":"PH","latitude":"17.75060000","longitude":"121.73645000"},{"id":"82723","name":"Ilagan","state_id":1342,"state_code":"02","country_id":174,"country_code":"PH","latitude":"17.14854000","longitude":"121.88924000"},{"id":"82748","name":"Ineangan","state_id":1342,"state_code":"02","country_id":174,"country_code":"PH","latitude":"16.31810000","longitude":"121.09300000"},{"id":"82760","name":"Iraga","state_id":1342,"state_code":"02","country_id":174,"country_code":"PH","latitude":"17.70150000","longitude":"121.65460000"},{"id":"82774","name":"Itbayat","state_id":1342,"state_code":"02","country_id":174,"country_code":"PH","latitude":"20.78733000","longitude":"121.84177000"},{"id":"82776","name":"Ivana","state_id":1342,"state_code":"02","country_id":174,"country_code":"PH","latitude":"20.37005000","longitude":"121.91457000"},{"id":"82809","name":"Jones","state_id":1342,"state_code":"02","country_id":174,"country_code":"PH","latitude":"16.55710000","longitude":"121.70290000"},{"id":"82875","name":"Kasibu","state_id":1342,"state_code":"02","country_id":174,"country_code":"PH","latitude":"16.31670000","longitude":"121.29650000"},{"id":"82950","name":"La Paz","state_id":1342,"state_code":"02","country_id":174,"country_code":"PH","latitude":"16.91075000","longitude":"121.66824000"},{"id":"82992","name":"Lallayug","state_id":1342,"state_code":"02","country_id":174,"country_code":"PH","latitude":"17.70684000","longitude":"121.44175000"},{"id":"83020","name":"Lanna","state_id":1342,"state_code":"02","country_id":174,"country_code":"PH","latitude":"17.69600000","longitude":"121.70014000"},{"id":"83032","name":"Lapi","state_id":1342,"state_code":"02","country_id":174,"country_code":"PH","latitude":"17.71600000","longitude":"121.89775000"},{"id":"83043","name":"Larion Alto","state_id":1342,"state_code":"02","country_id":174,"country_code":"PH","latitude":"17.63082000","longitude":"121.76062000"},{"id":"83046","name":"Lasam","state_id":1342,"state_code":"02","country_id":174,"country_code":"PH","latitude":"18.06519000","longitude":"121.60065000"},{"id":"83199","name":"Lucban","state_id":1342,"state_code":"02","country_id":174,"country_code":"PH","latitude":"18.33644000","longitude":"121.43082000"},{"id":"83229","name":"Luna","state_id":1342,"state_code":"02","country_id":174,"country_code":"PH","latitude":"16.96975000","longitude":"121.72924000"},{"id":"83267","name":"Mabasa","state_id":1342,"state_code":"02","country_id":174,"country_code":"PH","latitude":"16.32100000","longitude":"121.12620000"},{"id":"83281","name":"Mabini","state_id":1342,"state_code":"02","country_id":174,"country_code":"PH","latitude":"17.09936000","longitude":"121.73454000"},{"id":"83291","name":"Mabuttal East","state_id":1342,"state_code":"02","country_id":174,"country_code":"PH","latitude":"18.37620000","longitude":"121.51470000"},{"id":"83311","name":"Maddarulug Norte","state_id":1342,"state_code":"02","country_id":174,"country_code":"PH","latitude":"17.60732000","longitude":"121.67670000"},{"id":"83312","name":"Maddela","state_id":1342,"state_code":"02","country_id":174,"country_code":"PH","latitude":"16.34140000","longitude":"121.68490000"},{"id":"83317","name":"Magalalag","state_id":1342,"state_code":"02","country_id":174,"country_code":"PH","latitude":"17.57732000","longitude":"121.73497000"},{"id":"83325","name":"Magapit","state_id":1342,"state_code":"02","country_id":174,"country_code":"PH","latitude":"18.13741000","longitude":"121.66942000"},{"id":"83326","name":"Magapit, Aguiguican","state_id":1342,"state_code":"02","country_id":174,"country_code":"PH","latitude":"18.10788000","longitude":"121.67705000"},{"id":"83333","name":"Magdalena","state_id":1342,"state_code":"02","country_id":174,"country_code":"PH","latitude":"16.95225000","longitude":"121.66548000"},{"id":"83344","name":"Magsaysay","state_id":1342,"state_code":"02","country_id":174,"country_code":"PH","latitude":"17.30813000","longitude":"121.77755000"},{"id":"83350","name":"Maguilling","state_id":1342,"state_code":"02","country_id":174,"country_code":"PH","latitude":"17.76982000","longitude":"121.49778000"},{"id":"83359","name":"Mahatao","state_id":1342,"state_code":"02","country_id":174,"country_code":"PH","latitude":"20.41585000","longitude":"121.94707000"},{"id":"83409","name":"Malasin","state_id":1342,"state_code":"02","country_id":174,"country_code":"PH","latitude":"16.30450000","longitude":"121.10620000"},{"id":"83450","name":"Mallig","state_id":1342,"state_code":"02","country_id":174,"country_code":"PH","latitude":"17.21284000","longitude":"121.61074000"},{"id":"83460","name":"Maluno Sur","state_id":1342,"state_code":"02","country_id":174,"country_code":"PH","latitude":"16.99885000","longitude":"121.96434000"},{"id":"83494","name":"Manaring","state_id":1342,"state_code":"02","country_id":174,"country_code":"PH","latitude":"17.17294000","longitude":"121.90254000"},{"id":"83509","name":"Manga","state_id":1342,"state_code":"02","country_id":174,"country_code":"PH","latitude":"17.70123000","longitude":"121.86048000"},{"id":"83600","name":"Masaya Sur","state_id":1342,"state_code":"02","country_id":174,"country_code":"PH","latitude":"16.50017000","longitude":"121.74743000"},{"id":"83604","name":"Masipi West","state_id":1342,"state_code":"02","country_id":174,"country_code":"PH","latitude":"17.37933000","longitude":"121.83861000"},{"id":"83642","name":"Maxingal","state_id":1342,"state_code":"02","country_id":174,"country_code":"PH","latitude":"18.21488000","longitude":"121.66815000"},{"id":"83678","name":"Minallo","state_id":1342,"state_code":"02","country_id":174,"country_code":"PH","latitude":"16.98685000","longitude":"121.85394000"},{"id":"83679","name":"Minanga Norte","state_id":1342,"state_code":"02","country_id":174,"country_code":"PH","latitude":"17.45233000","longitude":"121.78533000"},{"id":"83680","name":"Minante Segundo","state_id":1342,"state_code":"02","country_id":174,"country_code":"PH","latitude":"16.90220000","longitude":"121.76191000"},{"id":"83688","name":"Minuri","state_id":1342,"state_code":"02","country_id":174,"country_code":"PH","latitude":"16.53233000","longitude":"121.85532000"},{"id":"83719","name":"Mozzozzin Sur","state_id":1342,"state_code":"02","country_id":174,"country_code":"PH","latitude":"17.45685000","longitude":"121.74607000"},{"id":"83730","name":"Mu\u00f1oz East","state_id":1342,"state_code":"02","country_id":174,"country_code":"PH","latitude":"17.15754000","longitude":"121.61354000"},{"id":"83724","name":"Mungo","state_id":1342,"state_code":"02","country_id":174,"country_code":"PH","latitude":"17.72412000","longitude":"121.47096000"},{"id":"83735","name":"Nabannagan West","state_id":1342,"state_code":"02","country_id":174,"country_code":"PH","latitude":"18.07156000","longitude":"121.53630000"},{"id":"83749","name":"Nagrumbuan","state_id":1342,"state_code":"02","country_id":174,"country_code":"PH","latitude":"16.89955000","longitude":"121.70974000"},{"id":"83751","name":"Nagtipunan","state_id":1342,"state_code":"02","country_id":174,"country_code":"PH","latitude":"16.21667000","longitude":"121.60000000"},{"id":"83755","name":"Naguilian","state_id":1342,"state_code":"02","country_id":174,"country_code":"PH","latitude":"17.02315000","longitude":"121.83704000"},{"id":"83768","name":"Namuac","state_id":1342,"state_code":"02","country_id":174,"country_code":"PH","latitude":"18.61090000","longitude":"121.16570000"},{"id":"83790","name":"Nattapian","state_id":1342,"state_code":"02","country_id":174,"country_code":"PH","latitude":"17.67536000","longitude":"121.70296000"},{"id":"83879","name":"Paddaya","state_id":1342,"state_code":"02","country_id":174,"country_code":"PH","latitude":"18.32361000","longitude":"121.73866000"},{"id":"83908","name":"Palagao Norte","state_id":1342,"state_code":"02","country_id":174,"country_code":"PH","latitude":"18.04406000","longitude":"121.71871000"},{"id":"83940","name":"Pamplona","state_id":1342,"state_code":"02","country_id":174,"country_code":"PH","latitude":"18.46639000","longitude":"121.34111000"},{"id":"83969","name":"Pangal Sur","state_id":1342,"state_code":"02","country_id":174,"country_code":"PH","latitude":"16.60036000","longitude":"121.66979000"},{"id":"84037","name":"Pata","state_id":1342,"state_code":"02","country_id":174,"country_code":"PH","latitude":"17.71520000","longitude":"121.50180000"},{"id":"84054","name":"Pattao","state_id":1342,"state_code":"02","country_id":174,"country_code":"PH","latitude":"18.24694000","longitude":"121.81470000"},{"id":"84077","name":"Pe\u00f1ablanca","state_id":1342,"state_code":"02","country_id":174,"country_code":"PH","latitude":"17.63342000","longitude":"121.78117000"},{"id":"84082","name":"Piat","state_id":1342,"state_code":"02","country_id":174,"country_code":"PH","latitude":"17.79050000","longitude":"121.47800000"},{"id":"84098","name":"Pilig","state_id":1342,"state_code":"02","country_id":174,"country_code":"PH","latitude":"17.34278000","longitude":"121.77389000"},{"id":"84114","name":"Pinoma","state_id":1342,"state_code":"02","country_id":174,"country_code":"PH","latitude":"16.87421000","longitude":"121.70669000"},{"id":"84190","name":"Province of Batanes","state_id":1342,"state_code":"02","country_id":174,"country_code":"PH","latitude":"20.45798000","longitude":"121.99410000"},{"id":"84195","name":"Province of Cagayan","state_id":1342,"state_code":"02","country_id":174,"country_code":"PH","latitude":"18.00000000","longitude":"121.83333000"},{"id":"84213","name":"Province of Isabela","state_id":1342,"state_code":"02","country_id":174,"country_code":"PH","latitude":"17.00000000","longitude":"122.00000000"},{"id":"84230","name":"Province of Nueva Vizcaya","state_id":1342,"state_code":"02","country_id":174,"country_code":"PH","latitude":"16.33333000","longitude":"121.33333000"},{"id":"84235","name":"Province of Quirino","state_id":1342,"state_code":"02","country_id":174,"country_code":"PH","latitude":"16.28333000","longitude":"121.58333000"},{"id":"84298","name":"Quezon","state_id":1342,"state_code":"02","country_id":174,"country_code":"PH","latitude":"17.31303000","longitude":"121.60654000"},{"id":"84303","name":"Quibal","state_id":1342,"state_code":"02","country_id":174,"country_code":"PH","latitude":"17.71590000","longitude":"121.81135000"},{"id":"84314","name":"Quirino","state_id":1342,"state_code":"02","country_id":174,"country_code":"PH","latitude":"17.13333000","longitude":"121.70000000"},{"id":"84318","name":"Ragan Norte","state_id":1342,"state_code":"02","country_id":174,"country_code":"PH","latitude":"17.32318000","longitude":"121.77428000"},{"id":"84323","name":"Ramon","state_id":1342,"state_code":"02","country_id":174,"country_code":"PH","latitude":"16.78416000","longitude":"121.53504000"},{"id":"84326","name":"Ramos West","state_id":1342,"state_code":"02","country_id":174,"country_code":"PH","latitude":"16.69840000","longitude":"121.61360000"},{"id":"84336","name":"Reina Mercedes","state_id":1342,"state_code":"02","country_id":174,"country_code":"PH","latitude":"16.98545000","longitude":"121.82664000"},{"id":"84344","name":"Rizal","state_id":1342,"state_code":"02","country_id":174,"country_code":"PH","latitude":"16.71861000","longitude":"121.55528000"},{"id":"84361","name":"Roxas","state_id":1342,"state_code":"02","country_id":174,"country_code":"PH","latitude":"17.11894000","longitude":"121.62014000"},{"id":"84375","name":"Sabtang","state_id":1342,"state_code":"02","country_id":174,"country_code":"PH","latitude":"20.33566000","longitude":"121.87157000"},{"id":"84394","name":"Saguday","state_id":1342,"state_code":"02","country_id":174,"country_code":"PH","latitude":"16.54280000","longitude":"121.56380000"},{"id":"84411","name":"Salinas","state_id":1342,"state_code":"02","country_id":174,"country_code":"PH","latitude":"16.36950000","longitude":"121.01880000"},{"id":"84413","name":"Salinungan Proper","state_id":1342,"state_code":"02","country_id":174,"country_code":"PH","latitude":"16.86906000","longitude":"121.61454000"},{"id":"84450","name":"San Antonio","state_id":1342,"state_code":"02","country_id":174,"country_code":"PH","latitude":"17.27329000","longitude":"121.79121000"},{"id":"84457","name":"San Bernardo","state_id":1342,"state_code":"02","country_id":174,"country_code":"PH","latitude":"17.40481000","longitude":"121.75155000"},{"id":"84483","name":"San Fernando","state_id":1342,"state_code":"02","country_id":174,"country_code":"PH","latitude":"16.38920000","longitude":"121.13240000"},{"id":"84495","name":"San Guillermo","state_id":1342,"state_code":"02","country_id":174,"country_code":"PH","latitude":"16.72540000","longitude":"121.80980000"},{"id":"84513","name":"San Jose","state_id":1342,"state_code":"02","country_id":174,"country_code":"PH","latitude":"17.15000000","longitude":"121.60000000"},{"id":"84531","name":"San Juan","state_id":1342,"state_code":"02","country_id":174,"country_code":"PH","latitude":"17.40562000","longitude":"121.74745000"},{"id":"84542","name":"San Luis","state_id":1342,"state_code":"02","country_id":174,"country_code":"PH","latitude":"16.96455000","longitude":"121.82784000"},{"id":"84545","name":"San Manuel","state_id":1342,"state_code":"02","country_id":174,"country_code":"PH","latitude":"17.02375000","longitude":"121.63574000"},{"id":"84550","name":"San Mariano","state_id":1342,"state_code":"02","country_id":174,"country_code":"PH","latitude":"16.98265000","longitude":"122.01404000"},{"id":"84554","name":"San Mateo","state_id":1342,"state_code":"02","country_id":174,"country_code":"PH","latitude":"17.13754000","longitude":"121.74534000"},{"id":"84582","name":"San Pedro","state_id":1342,"state_code":"02","country_id":174,"country_code":"PH","latitude":"17.20000000","longitude":"121.88333000"},{"id":"84625","name":"San Vicente","state_id":1342,"state_code":"02","country_id":174,"country_code":"PH","latitude":"18.50746000","longitude":"122.15035000"},{"id":"84628","name":"Sandiat Centro","state_id":1342,"state_code":"02","country_id":174,"country_code":"PH","latitude":"17.07295000","longitude":"121.63752000"},{"id":"84639","name":"Santa Ana","state_id":1342,"state_code":"02","country_id":174,"country_code":"PH","latitude":"18.46986000","longitude":"122.14775000"},{"id":"84655","name":"Santa Cruz","state_id":1342,"state_code":"02","country_id":174,"country_code":"PH","latitude":"18.51646000","longitude":"121.31052000"},{"id":"84669","name":"Santa Fe","state_id":1342,"state_code":"02","country_id":174,"country_code":"PH","latitude":"16.15950000","longitude":"120.93810000"},{"id":"84689","name":"Santa Maria","state_id":1342,"state_code":"02","country_id":174,"country_code":"PH","latitude":"18.14140000","longitude":"121.66473000"},{"id":"84695","name":"Santa Praxedes","state_id":1342,"state_code":"02","country_id":174,"country_code":"PH","latitude":"18.56667000","longitude":"121.00000000"},{"id":"84705","name":"Santa Teresita","state_id":1342,"state_code":"02","country_id":174,"country_code":"PH","latitude":"18.24720000","longitude":"121.91270000"},{"id":"84715","name":"Santiago","state_id":1342,"state_code":"02","country_id":174,"country_code":"PH","latitude":"16.68808000","longitude":"121.54870000"},{"id":"84721","name":"Santo Domingo","state_id":1342,"state_code":"02","country_id":174,"country_code":"PH","latitude":"17.15999000","longitude":"121.75183000"},{"id":"84726","name":"Santo Ni\u00f1o","state_id":1342,"state_code":"02","country_id":174,"country_code":"PH","latitude":"17.88610000","longitude":"121.56910000"},{"id":"84733","name":"Santo Tomas","state_id":1342,"state_code":"02","country_id":174,"country_code":"PH","latitude":"17.39972000","longitude":"121.76455000"},{"id":"84782","name":"Siempre Viva","state_id":1342,"state_code":"02","country_id":174,"country_code":"PH","latitude":"17.22874000","longitude":"121.63294000"},{"id":"84794","name":"Sillawit","state_id":1342,"state_code":"02","country_id":174,"country_code":"PH","latitude":"16.87316000","longitude":"121.75924000"},{"id":"84800","name":"Simanu Sur","state_id":1342,"state_code":"02","country_id":174,"country_code":"PH","latitude":"17.48523000","longitude":"121.83426000"},{"id":"84802","name":"Simimbaan","state_id":1342,"state_code":"02","country_id":174,"country_code":"PH","latitude":"17.11856000","longitude":"121.58138000"},{"id":"84810","name":"Sinamar","state_id":1342,"state_code":"02","country_id":174,"country_code":"PH","latitude":"16.90000000","longitude":"121.56667000"},{"id":"84814","name":"Sindon","state_id":1342,"state_code":"02","country_id":174,"country_code":"PH","latitude":"17.06034000","longitude":"122.01514000"},{"id":"84840","name":"Solana","state_id":1342,"state_code":"02","country_id":174,"country_code":"PH","latitude":"17.65280000","longitude":"121.69100000"},{"id":"84842","name":"Solano","state_id":1342,"state_code":"02","country_id":174,"country_code":"PH","latitude":"16.51918000","longitude":"121.18124000"},{"id":"84850","name":"Soyung","state_id":1342,"state_code":"02","country_id":174,"country_code":"PH","latitude":"16.70010000","longitude":"121.66550000"},{"id":"84949","name":"Taguing","state_id":1342,"state_code":"02","country_id":174,"country_code":"PH","latitude":"17.94636000","longitude":"121.75521000"},{"id":"85049","name":"Tapel","state_id":1342,"state_code":"02","country_id":174,"country_code":"PH","latitude":"18.28907000","longitude":"122.02915000"},{"id":"85180","name":"Tuao","state_id":1342,"state_code":"02","country_id":174,"country_code":"PH","latitude":"16.58833000","longitude":"121.25778000"},{"id":"85212","name":"Tuguegarao","state_id":1342,"state_code":"02","country_id":174,"country_code":"PH","latitude":"17.61577000","longitude":"121.72285000"},{"id":"85222","name":"Tumauini","state_id":1342,"state_code":"02","country_id":174,"country_code":"PH","latitude":"17.27663000","longitude":"121.80854000"},{"id":"85231","name":"Tupang","state_id":1342,"state_code":"02","country_id":174,"country_code":"PH","latitude":"17.90483000","longitude":"121.64099000"},{"id":"85242","name":"Uddiawan","state_id":1342,"state_code":"02","country_id":174,"country_code":"PH","latitude":"16.55888000","longitude":"121.15124000"},{"id":"85243","name":"Ugac Sur","state_id":1342,"state_code":"02","country_id":174,"country_code":"PH","latitude":"17.61325000","longitude":"121.71583000"},{"id":"85244","name":"Ugad","state_id":1342,"state_code":"02","country_id":174,"country_code":"PH","latitude":"17.30750000","longitude":"121.80042000"},{"id":"85263","name":"Upi","state_id":1342,"state_code":"02","country_id":174,"country_code":"PH","latitude":"17.08262000","longitude":"121.83453000"},{"id":"85274","name":"Uyugan","state_id":1342,"state_code":"02","country_id":174,"country_code":"PH","latitude":"20.35045000","longitude":"121.93777000"},{"id":"85319","name":"Yeban Norte","state_id":1342,"state_code":"02","country_id":174,"country_code":"PH","latitude":"17.02195000","longitude":"121.94194000"}]