[{"id":"81132","name":"Aborlan","state_id":1354,"state_code":"MDR","country_id":174,"country_code":"PH","latitude":"9.43361000","longitude":"118.54879000"},{"id":"81133","name":"Abra de Ilog","state_id":1354,"state_code":"MDR","country_id":174,"country_code":"PH","latitude":"13.44370000","longitude":"120.72910000"},{"id":"81145","name":"Adela","state_id":1354,"state_code":"MDR","country_id":174,"country_code":"PH","latitude":"12.44164000","longitude":"120.97291000"},{"id":"81156","name":"Agcogon","state_id":1354,"state_code":"MDR","country_id":174,"country_code":"PH","latitude":"12.06146000","longitude":"121.95911000"},{"id":"81173","name":"Agutaya","state_id":1354,"state_code":"MDR","country_id":174,"country_code":"PH","latitude":"11.14800000","longitude":"120.94170000"},{"id":"81181","name":"Alad","state_id":1354,"state_code":"MDR","country_id":174,"country_code":"PH","latitude":"12.61682000","longitude":"122.24751000"},{"id":"81197","name":"Alcantara","state_id":1354,"state_code":"MDR","country_id":174,"country_code":"PH","latitude":"12.25890000","longitude":"122.05440000"},{"id":"81204","name":"Alemanguan","state_id":1354,"state_code":"MDR","country_id":174,"country_code":"PH","latitude":"10.61177000","longitude":"119.32680000"},{"id":"81206","name":"Algeciras","state_id":1354,"state_code":"MDR","country_id":174,"country_code":"PH","latitude":"11.41540000","longitude":"120.81680000"},{"id":"81210","name":"Alibug","state_id":1354,"state_code":"MDR","country_id":174,"country_code":"PH","latitude":"12.22906000","longitude":"121.22811000"},{"id":"81272","name":"Anilao","state_id":1354,"state_code":"MDR","country_id":174,"country_code":"PH","latitude":"12.71402000","longitude":"121.51242000"},{"id":"81295","name":"Apitong","state_id":1354,"state_code":"MDR","country_id":174,"country_code":"PH","latitude":"13.23910000","longitude":"121.20750000"},{"id":"81300","name":"Apurawan","state_id":1354,"state_code":"MDR","country_id":174,"country_code":"PH","latitude":"9.59940000","longitude":"118.34890000"},{"id":"81303","name":"Araceli","state_id":1354,"state_code":"MDR","country_id":174,"country_code":"PH","latitude":"10.55290000","longitude":"119.99130000"},{"id":"81304","name":"Aramawayan","state_id":1354,"state_code":"MDR","country_id":174,"country_code":"PH","latitude":"9.34247000","longitude":"118.16230000"},{"id":"81305","name":"Aramayuan","state_id":1354,"state_code":"MDR","country_id":174,"country_code":"PH","latitude":"9.17008000","longitude":"118.18720000"},{"id":"81333","name":"Aurora","state_id":1354,"state_code":"MDR","country_id":174,"country_code":"PH","latitude":"13.23220000","longitude":"121.12030000"},{"id":"81350","name":"Babug","state_id":1354,"state_code":"MDR","country_id":174,"country_code":"PH","latitude":"12.37325000","longitude":"121.04171000"},{"id":"81362","name":"Baco","state_id":1354,"state_code":"MDR","country_id":174,"country_code":"PH","latitude":"13.35730000","longitude":"121.09830000"},{"id":"81377","name":"Bacungan","state_id":1354,"state_code":"MDR","country_id":174,"country_code":"PH","latitude":"9.91056000","longitude":"118.70222000"},{"id":"81400","name":"Bagong Sikat","state_id":1354,"state_code":"MDR","country_id":174,"country_code":"PH","latitude":"12.36745000","longitude":"121.06171000"},{"id":"81418","name":"Baheli","state_id":1354,"state_code":"MDR","country_id":174,"country_code":"PH","latitude":"10.01369000","longitude":"118.77294000"},{"id":"81429","name":"Balabac","state_id":1354,"state_code":"MDR","country_id":174,"country_code":"PH","latitude":"7.98363000","longitude":"117.04868000"},{"id":"81440","name":"Balanacan","state_id":1354,"state_code":"MDR","country_id":174,"country_code":"PH","latitude":"13.52890000","longitude":"121.86770000"},{"id":"81454","name":"Balatero","state_id":1354,"state_code":"MDR","country_id":174,"country_code":"PH","latitude":"13.50210000","longitude":"120.92440000"},{"id":"81504","name":"Balugo","state_id":1354,"state_code":"MDR","country_id":174,"country_code":"PH","latitude":"12.57923000","longitude":"121.43931000"},{"id":"81545","name":"Banos","state_id":1354,"state_code":"MDR","country_id":174,"country_code":"PH","latitude":"12.64553000","longitude":"120.90972000"},{"id":"81548","name":"Bansud","state_id":1354,"state_code":"MDR","country_id":174,"country_code":"PH","latitude":"12.86500000","longitude":"121.45639000"},{"id":"81564","name":"Barahan","state_id":1354,"state_code":"MDR","country_id":174,"country_code":"PH","latitude":"13.01210000","longitude":"120.76200000"},{"id":"81581","name":"Barong Barong","state_id":1354,"state_code":"MDR","country_id":174,"country_code":"PH","latitude":"8.85350000","longitude":"117.89390000"},{"id":"81617","name":"Batarasa","state_id":1354,"state_code":"MDR","country_id":174,"country_code":"PH","latitude":"8.67335000","longitude":"117.62795000"},{"id":"81620","name":"Batasan","state_id":1354,"state_code":"MDR","country_id":174,"country_code":"PH","latitude":"12.76667000","longitude":"120.78333000"},{"id":"81627","name":"Bato","state_id":1354,"state_code":"MDR","country_id":174,"country_code":"PH","latitude":"10.82500000","longitude":"119.47100000"},{"id":"81669","name":"Bayuin","state_id":1354,"state_code":"MDR","country_id":174,"country_code":"PH","latitude":"13.04110000","longitude":"121.38852000"},{"id":"81728","name":"Bintacay","state_id":1354,"state_code":"MDR","country_id":174,"country_code":"PH","latitude":"13.49860000","longitude":"121.87680000"},{"id":"81752","name":"Boac","state_id":1354,"state_code":"MDR","country_id":174,"country_code":"PH","latitude":"13.44630000","longitude":"121.84000000"},{"id":"81828","name":"Buenavista","state_id":1354,"state_code":"MDR","country_id":174,"country_code":"PH","latitude":"13.25511000","longitude":"121.94149000"},{"id":"81865","name":"Bulalacao","state_id":1354,"state_code":"MDR","country_id":174,"country_code":"PH","latitude":"12.32535000","longitude":"121.34351000"},{"id":"81888","name":"Buluang","state_id":1354,"state_code":"MDR","country_id":174,"country_code":"PH","latitude":"12.23336000","longitude":"119.87581000"},{"id":"81900","name":"Bunog","state_id":1354,"state_code":"MDR","country_id":174,"country_code":"PH","latitude":"9.14028000","longitude":"117.78167000"},{"id":"81913","name":"Burirao","state_id":1354,"state_code":"MDR","country_id":174,"country_code":"PH","latitude":"9.20000000","longitude":"118.10000000"},{"id":"81929","name":"Buyabod","state_id":1354,"state_code":"MDR","country_id":174,"country_code":"PH","latitude":"13.46660000","longitude":"122.05260000"},{"id":"81934","name":"Cabacao","state_id":1354,"state_code":"MDR","country_id":174,"country_code":"PH","latitude":"13.33560000","longitude":"120.65880000"},{"id":"81976","name":"Cabra","state_id":1354,"state_code":"MDR","country_id":174,"country_code":"PH","latitude":"13.88833000","longitude":"120.04944000"},{"id":"81993","name":"Cagayan","state_id":1354,"state_code":"MDR","country_id":174,"country_code":"PH","latitude":"6.97470000","longitude":"118.51440000"},{"id":"81995","name":"Cagayancillo","state_id":1354,"state_code":"MDR","country_id":174,"country_code":"PH","latitude":"9.57694000","longitude":"121.20722000"},{"id":"82002","name":"Caigangan","state_id":1354,"state_code":"MDR","country_id":174,"country_code":"PH","latitude":"13.25811000","longitude":"121.93363000"},{"id":"82004","name":"Cajidiocan","state_id":1354,"state_code":"MDR","country_id":174,"country_code":"PH","latitude":"12.36696000","longitude":"122.68141000"},{"id":"82005","name":"Cajimos","state_id":1354,"state_code":"MDR","country_id":174,"country_code":"PH","latitude":"12.59463000","longitude":"122.27531000"},{"id":"82020","name":"Calamundingan","state_id":1354,"state_code":"MDR","country_id":174,"country_code":"PH","latitude":"12.93101000","longitude":"121.47062000"},{"id":"82029","name":"Calapan","state_id":1354,"state_code":"MDR","country_id":174,"country_code":"PH","latitude":"13.41170000","longitude":"121.18030000"},{"id":"82038","name":"Calatrava","state_id":1354,"state_code":"MDR","country_id":174,"country_code":"PH","latitude":"12.61980000","longitude":"122.07140000"},{"id":"82039","name":"Calatugas","state_id":1354,"state_code":"MDR","country_id":174,"country_code":"PH","latitude":"9.16898000","longitude":"118.22350000"},{"id":"82040","name":"Calauag","state_id":1354,"state_code":"MDR","country_id":174,"country_code":"PH","latitude":"10.66817000","longitude":"119.57050000"},{"id":"82056","name":"Calintaan","state_id":1354,"state_code":"MDR","country_id":174,"country_code":"PH","latitude":"12.56667000","longitude":"120.93333000"},{"id":"82090","name":"Caminauit","state_id":1354,"state_code":"MDR","country_id":174,"country_code":"PH","latitude":"12.33135000","longitude":"121.08251000"},{"id":"82127","name":"Cantel","state_id":1354,"state_code":"MDR","country_id":174,"country_code":"PH","latitude":"12.61760000","longitude":"121.51360000"},{"id":"82131","name":"Canubing No 2","state_id":1354,"state_code":"MDR","country_id":174,"country_code":"PH","latitude":"13.35000000","longitude":"121.13333000"},{"id":"82149","name":"Caramay","state_id":1354,"state_code":"MDR","country_id":174,"country_code":"PH","latitude":"10.18150000","longitude":"119.23600000"},{"id":"82168","name":"Carmen","state_id":1354,"state_code":"MDR","country_id":174,"country_code":"PH","latitude":"12.61710000","longitude":"122.12110000"},{"id":"82185","name":"Caruray","state_id":1354,"state_code":"MDR","country_id":174,"country_code":"PH","latitude":"10.30940000","longitude":"119.01280000"},{"id":"82191","name":"Casian","state_id":1354,"state_code":"MDR","country_id":174,"country_code":"PH","latitude":"11.03500000","longitude":"119.71360000"},{"id":"82230","name":"Cawayan","state_id":1354,"state_code":"MDR","country_id":174,"country_code":"PH","latitude":"12.65570000","longitude":"121.54560000"},{"id":"82271","name":"Concepcion","state_id":1354,"state_code":"MDR","country_id":174,"country_code":"PH","latitude":"12.39750000","longitude":"122.09361000"},{"id":"82278","name":"Conduaga","state_id":1354,"state_code":"MDR","country_id":174,"country_code":"PH","latitude":"8.86200000","longitude":"117.48930000"},{"id":"82289","name":"Corcuera","state_id":1354,"state_code":"MDR","country_id":174,"country_code":"PH","latitude":"12.78331000","longitude":"122.04851000"},{"id":"82295","name":"Coron","state_id":1354,"state_code":"MDR","country_id":174,"country_code":"PH","latitude":"11.99860000","longitude":"120.20430000"},{"id":"82325","name":"Cuyo","state_id":1354,"state_code":"MDR","country_id":174,"country_code":"PH","latitude":"10.85250000","longitude":"121.00861000"},{"id":"82376","name":"Dapawan","state_id":1354,"state_code":"MDR","country_id":174,"country_code":"PH","latitude":"12.40694000","longitude":"122.02778000"},{"id":"82401","name":"Daykitin","state_id":1354,"state_code":"MDR","country_id":174,"country_code":"PH","latitude":"13.27073000","longitude":"121.91086000"},{"id":"82447","name":"Dobdoban","state_id":1354,"state_code":"MDR","country_id":174,"country_code":"PH","latitude":"12.57470000","longitude":"122.11380000"},{"id":"82476","name":"Dulangan","state_id":1354,"state_code":"MDR","country_id":174,"country_code":"PH","latitude":"13.30510000","longitude":"121.11290000"},{"id":"82490","name":"Dumaran","state_id":1354,"state_code":"MDR","country_id":174,"country_code":"PH","latitude":"10.52500000","longitude":"119.76710000"},{"id":"82505","name":"El Nido","state_id":1354,"state_code":"MDR","country_id":174,"country_code":"PH","latitude":"11.18583000","longitude":"119.39556000"},{"id":"82511","name":"Eraan","state_id":1354,"state_code":"MDR","country_id":174,"country_code":"PH","latitude":"9.06289000","longitude":"117.70160000"},{"id":"82516","name":"Espa\u00f1a","state_id":1354,"state_code":"MDR","country_id":174,"country_code":"PH","latitude":"12.38414000","longitude":"122.49901000"},{"id":"82532","name":"Estrella","state_id":1354,"state_code":"MDR","country_id":174,"country_code":"PH","latitude":"13.32898000","longitude":"121.31092000"},{"id":"82534","name":"Evangelista","state_id":1354,"state_code":"MDR","country_id":174,"country_code":"PH","latitude":"13.33350000","longitude":"121.09720000"},{"id":"82538","name":"Ferrol","state_id":1354,"state_code":"MDR","country_id":174,"country_code":"PH","latitude":"12.33833000","longitude":"121.94139000"},{"id":"82546","name":"Gabawan","state_id":1354,"state_code":"MDR","country_id":174,"country_code":"PH","latitude":"12.42714000","longitude":"122.01332000"},{"id":"82571","name":"Gasan","state_id":1354,"state_code":"MDR","country_id":174,"country_code":"PH","latitude":"13.32372000","longitude":"121.84675000"},{"id":"82603","name":"Gloria","state_id":1354,"state_code":"MDR","country_id":174,"country_code":"PH","latitude":"12.98333000","longitude":"121.46667000"},{"id":"82636","name":"Guinlo","state_id":1354,"state_code":"MDR","country_id":174,"country_code":"PH","latitude":"10.80090000","longitude":"119.43830000"},{"id":"82679","name":"Harrison","state_id":1354,"state_code":"MDR","country_id":174,"country_code":"PH","latitude":"13.45000000","longitude":"120.43333000"},{"id":"82757","name":"Ipil","state_id":1354,"state_code":"MDR","country_id":174,"country_code":"PH","latitude":"13.51320000","longitude":"121.98410000"},{"id":"82759","name":"Ipilan","state_id":1354,"state_code":"MDR","country_id":174,"country_code":"PH","latitude":"8.84306000","longitude":"117.90333000"},{"id":"82761","name":"Irahuan","state_id":1354,"state_code":"MDR","country_id":174,"country_code":"PH","latitude":"9.80798000","longitude":"118.69191000"},{"id":"82762","name":"Iraray","state_id":1354,"state_code":"MDR","country_id":174,"country_code":"PH","latitude":"8.99361000","longitude":"118.05111000"},{"id":"82766","name":"Irirum","state_id":1354,"state_code":"MDR","country_id":174,"country_code":"PH","latitude":"12.61603000","longitude":"120.93061000"},{"id":"82772","name":"Isugod","state_id":1354,"state_code":"MDR","country_id":174,"country_code":"PH","latitude":"9.34077000","longitude":"118.11960000"},{"id":"82938","name":"La Curva","state_id":1354,"state_code":"MDR","country_id":174,"country_code":"PH","latitude":"12.40484000","longitude":"121.04591000"},{"id":"82957","name":"Labasan","state_id":1354,"state_code":"MDR","country_id":174,"country_code":"PH","latitude":"12.77732000","longitude":"121.46922000"},{"id":"82963","name":"Labog","state_id":1354,"state_code":"MDR","country_id":174,"country_code":"PH","latitude":"9.05580000","longitude":"118.04950000"},{"id":"83008","name":"Lanas","state_id":1354,"state_code":"MDR","country_id":174,"country_code":"PH","latitude":"12.04946000","longitude":"121.91851000"},{"id":"83056","name":"Laylay","state_id":1354,"state_code":"MDR","country_id":174,"country_code":"PH","latitude":"13.43910000","longitude":"121.82020000"},{"id":"83071","name":"Leuteboro","state_id":1354,"state_code":"MDR","country_id":174,"country_code":"PH","latitude":"13.06100000","longitude":"121.37472000"},{"id":"83079","name":"Libas","state_id":1354,"state_code":"MDR","country_id":174,"country_code":"PH","latitude":"13.24167000","longitude":"121.95555000"},{"id":"83085","name":"Libertad","state_id":1354,"state_code":"MDR","country_id":174,"country_code":"PH","latitude":"12.45412000","longitude":"122.00828000"},{"id":"83105","name":"Ligaya","state_id":1354,"state_code":"MDR","country_id":174,"country_code":"PH","latitude":"12.65993000","longitude":"120.89231000"},{"id":"83115","name":"Limanancong","state_id":1354,"state_code":"MDR","country_id":174,"country_code":"PH","latitude":"10.98930000","longitude":"119.35930000"},{"id":"83124","name":"Limon","state_id":1354,"state_code":"MDR","country_id":174,"country_code":"PH","latitude":"12.30000000","longitude":"122.01667000"},{"id":"83171","name":"Looc","state_id":1354,"state_code":"MDR","country_id":174,"country_code":"PH","latitude":"12.26050000","longitude":"121.99260000"},{"id":"83192","name":"Lubang","state_id":1354,"state_code":"MDR","country_id":174,"country_code":"PH","latitude":"13.85835000","longitude":"120.12402000"},{"id":"83213","name":"Lumangbayan","state_id":1354,"state_code":"MDR","country_id":174,"country_code":"PH","latitude":"13.04830000","longitude":"121.49872000"},{"id":"83330","name":"Magbay","state_id":1354,"state_code":"MDR","country_id":174,"country_code":"PH","latitude":"12.41014000","longitude":"121.08991000"},{"id":"83334","name":"Magdiwang","state_id":1354,"state_code":"MDR","country_id":174,"country_code":"PH","latitude":"12.48372000","longitude":"122.51472000"},{"id":"83341","name":"Magsaysay","state_id":1354,"state_code":"MDR","country_id":174,"country_code":"PH","latitude":"12.33333000","longitude":"121.15000000"},{"id":"83371","name":"Mainit","state_id":1354,"state_code":"MDR","country_id":174,"country_code":"PH","latitude":"8.84360000","longitude":"117.81830000"},{"id":"83398","name":"Malamig","state_id":1354,"state_code":"MDR","country_id":174,"country_code":"PH","latitude":"12.95000000","longitude":"121.36667000"},{"id":"83424","name":"Malibago","state_id":1354,"state_code":"MDR","country_id":174,"country_code":"PH","latitude":"13.27830000","longitude":"122.02280000"},{"id":"83429","name":"Maliig","state_id":1354,"state_code":"MDR","country_id":174,"country_code":"PH","latitude":"13.84556000","longitude":"120.15032000"},{"id":"83447","name":"Malitbog","state_id":1354,"state_code":"MDR","country_id":174,"country_code":"PH","latitude":"12.75212000","longitude":"121.46591000"},{"id":"83457","name":"Maluanluan","state_id":1354,"state_code":"MDR","country_id":174,"country_code":"PH","latitude":"13.09670000","longitude":"121.42352000"},{"id":"83477","name":"Mamburao","state_id":1354,"state_code":"MDR","country_id":174,"country_code":"PH","latitude":"13.22330000","longitude":"120.59600000"},{"id":"83497","name":"Manaul","state_id":1354,"state_code":"MDR","country_id":174,"country_code":"PH","latitude":"12.45300000","longitude":"121.41070000"},{"id":"83511","name":"Mangarine","state_id":1354,"state_code":"MDR","country_id":174,"country_code":"PH","latitude":"12.35115000","longitude":"121.09801000"},{"id":"83534","name":"Mansalay","state_id":1354,"state_code":"MDR","country_id":174,"country_code":"PH","latitude":"12.52044000","longitude":"121.43851000"},{"id":"83591","name":"Masaguisi","state_id":1354,"state_code":"MDR","country_id":174,"country_code":"PH","latitude":"12.75452000","longitude":"121.44841000"},{"id":"83602","name":"Masiga","state_id":1354,"state_code":"MDR","country_id":174,"country_code":"PH","latitude":"13.36070000","longitude":"121.82780000"},{"id":"83638","name":"Mauhao","state_id":1354,"state_code":"MDR","country_id":174,"country_code":"PH","latitude":"12.29015000","longitude":"121.30071000"},{"id":"83693","name":"Mogpog","state_id":1354,"state_code":"MDR","country_id":174,"country_code":"PH","latitude":"13.47444000","longitude":"121.86139000"},{"id":"83747","name":"Nagiba","state_id":1354,"state_code":"MDR","country_id":174,"country_code":"PH","latitude":"13.33018000","longitude":"121.27432000"},{"id":"83781","name":"Narra","state_id":1354,"state_code":"MDR","country_id":174,"country_code":"PH","latitude":"9.26877000","longitude":"118.40430000"},{"id":"83792","name":"Naujan","state_id":1354,"state_code":"MDR","country_id":174,"country_code":"PH","latitude":"13.32328000","longitude":"121.30282000"},{"id":"83800","name":"New Agutaya","state_id":1354,"state_code":"MDR","country_id":174,"country_code":"PH","latitude":"10.56139000","longitude":"119.30778000"},{"id":"83841","name":"Odala","state_id":1354,"state_code":"MDR","country_id":174,"country_code":"PH","latitude":"13.47760000","longitude":"120.82230000"},{"id":"83844","name":"Odiong","state_id":1354,"state_code":"MDR","country_id":174,"country_code":"PH","latitude":"12.59310000","longitude":"121.50320000"},{"id":"83845","name":"Odiongan","state_id":1354,"state_code":"MDR","country_id":174,"country_code":"PH","latitude":"12.40167000","longitude":"121.99194000"},{"id":"83866","name":"Osme\u00f1a","state_id":1354,"state_code":"MDR","country_id":174,"country_code":"PH","latitude":"10.52083000","longitude":"119.92583000"},{"id":"84072","name":"Pa\u00f1gobilian","state_id":1354,"state_code":"MDR","country_id":174,"country_code":"PH","latitude":"8.80111000","longitude":"117.85944000"},{"id":"83873","name":"Paclolo","state_id":1354,"state_code":"MDR","country_id":174,"country_code":"PH","latitude":"12.37675000","longitude":"121.17351000"},{"id":"83931","name":"Paluan","state_id":1354,"state_code":"MDR","country_id":174,"country_code":"PH","latitude":"13.41600000","longitude":"120.46230000"},{"id":"83935","name":"Pambisan","state_id":1354,"state_code":"MDR","country_id":174,"country_code":"PH","latitude":"13.01370000","longitude":"121.41282000"},{"id":"83945","name":"Panacan","state_id":1354,"state_code":"MDR","country_id":174,"country_code":"PH","latitude":"9.24627000","longitude":"118.40820000"},{"id":"83948","name":"Panalingaan","state_id":1354,"state_code":"MDR","country_id":174,"country_code":"PH","latitude":"8.78417000","longitude":"117.42306000"},{"id":"83957","name":"Pancol","state_id":1354,"state_code":"MDR","country_id":174,"country_code":"PH","latitude":"10.87150000","longitude":"119.41570000"},{"id":"83983","name":"Pangulayan","state_id":1354,"state_code":"MDR","country_id":174,"country_code":"PH","latitude":"13.03980000","longitude":"121.44792000"},{"id":"83988","name":"Panique","state_id":1354,"state_code":"MDR","country_id":174,"country_code":"PH","latitude":"12.48025000","longitude":"122.01462000"},{"id":"83992","name":"Panitian","state_id":1354,"state_code":"MDR","country_id":174,"country_code":"PH","latitude":"9.09650000","longitude":"118.08640000"},{"id":"83993","name":"Panlaitan","state_id":1354,"state_code":"MDR","country_id":174,"country_code":"PH","latitude":"12.11907000","longitude":"119.84861000"},{"id":"84048","name":"Pato-o","state_id":1354,"state_code":"MDR","country_id":174,"country_code":"PH","latitude":"12.43025000","longitude":"122.06640000"},{"id":"84096","name":"Pili","state_id":1354,"state_code":"MDR","country_id":174,"country_code":"PH","latitude":"13.06640000","longitude":"121.52032000"},{"id":"84101","name":"Pinagsabangan","state_id":1354,"state_code":"MDR","country_id":174,"country_code":"PH","latitude":"13.26559000","longitude":"121.26812000"},{"id":"84103","name":"Pinamalayan","state_id":1354,"state_code":"MDR","country_id":174,"country_code":"PH","latitude":"13.04603000","longitude":"121.46205000"},{"id":"84124","name":"Pitogo","state_id":1354,"state_code":"MDR","country_id":174,"country_code":"PH","latitude":"12.50744000","longitude":"121.09041000"},{"id":"84135","name":"Plaridel","state_id":1354,"state_code":"MDR","country_id":174,"country_code":"PH","latitude":"9.37860000","longitude":"118.50174000"},{"id":"84140","name":"Pola","state_id":1354,"state_code":"MDR","country_id":174,"country_code":"PH","latitude":"13.14379000","longitude":"121.44152000"},{"id":"84167","name":"Port Barton","state_id":1354,"state_code":"MDR","country_id":174,"country_code":"PH","latitude":"10.47556000","longitude":"119.24722000"},{"id":"84220","name":"Province of Marinduque","state_id":1354,"state_code":"MDR","country_id":174,"country_code":"PH","latitude":"13.41667000","longitude":"121.95000000"},{"id":"84222","name":"Province of Mindoro Occidental","state_id":1354,"state_code":"MDR","country_id":174,"country_code":"PH","latitude":"13.00000000","longitude":"120.91667000"},{"id":"84223","name":"Province of Mindoro Oriental","state_id":1354,"state_code":"MDR","country_id":174,"country_code":"PH","latitude":"13.15555000","longitude":"121.26803000"},{"id":"84231","name":"Province of Palawan","state_id":1354,"state_code":"MDR","country_id":174,"country_code":"PH","latitude":"10.00000000","longitude":"118.75000000"},{"id":"84237","name":"Province of Romblon","state_id":1354,"state_code":"MDR","country_id":174,"country_code":"PH","latitude":"12.55499000","longitude":"122.28206000"},{"id":"84259","name":"Puerto Galera","state_id":1354,"state_code":"MDR","country_id":174,"country_code":"PH","latitude":"13.50223000","longitude":"120.95166000"},{"id":"84260","name":"Puerto Princesa","state_id":1354,"state_code":"MDR","country_id":174,"country_code":"PH","latitude":"9.73917000","longitude":"118.73528000"},{"id":"84273","name":"Punang","state_id":1354,"state_code":"MDR","country_id":174,"country_code":"PH","latitude":"9.01690000","longitude":"118.04950000"},{"id":"84281","name":"Punta","state_id":1354,"state_code":"MDR","country_id":174,"country_code":"PH","latitude":"12.24410000","longitude":"122.00970000"},{"id":"84300","name":"Quezon","state_id":1354,"state_code":"MDR","country_id":174,"country_code":"PH","latitude":"9.24111000","longitude":"118.03139000"},{"id":"84306","name":"Quinabigan","state_id":1354,"state_code":"MDR","country_id":174,"country_code":"PH","latitude":"12.99360000","longitude":"121.47812000"},{"id":"84329","name":"Ransang","state_id":1354,"state_code":"MDR","country_id":174,"country_code":"PH","latitude":"8.96028000","longitude":"117.58278000"},{"id":"84339","name":"Rio Tuba","state_id":1354,"state_code":"MDR","country_id":174,"country_code":"PH","latitude":"8.50613000","longitude":"117.43169000"},{"id":"84343","name":"Rizal","state_id":1354,"state_code":"MDR","country_id":174,"country_code":"PH","latitude":"12.46667000","longitude":"120.96667000"},{"id":"84352","name":"Romblon","state_id":1354,"state_code":"MDR","country_id":174,"country_code":"PH","latitude":"12.57513000","longitude":"122.27081000"},{"id":"84362","name":"Roxas","state_id":1354,"state_code":"MDR","country_id":174,"country_code":"PH","latitude":"10.32150000","longitude":"119.34510000"},{"id":"84364","name":"Saaban","state_id":1354,"state_code":"MDR","country_id":174,"country_code":"PH","latitude":"13.13049000","longitude":"121.36872000"},{"id":"84370","name":"Sabang","state_id":1354,"state_code":"MDR","country_id":174,"country_code":"PH","latitude":"13.50920000","longitude":"120.97370000"},{"id":"84373","name":"Sablayan","state_id":1354,"state_code":"MDR","country_id":174,"country_code":"PH","latitude":"12.83460000","longitude":"120.76900000"},{"id":"84382","name":"Sagana","state_id":1354,"state_code":"MDR","country_id":174,"country_code":"PH","latitude":"12.72252000","longitude":"121.48672000"},{"id":"84405","name":"Salcedo","state_id":1354,"state_code":"MDR","country_id":174,"country_code":"PH","latitude":"12.81052000","longitude":"121.46742000"},{"id":"84418","name":"Salvacion","state_id":1354,"state_code":"MDR","country_id":174,"country_code":"PH","latitude":"12.13287000","longitude":"119.93281000"},{"id":"84437","name":"San Agustin","state_id":1354,"state_code":"MDR","country_id":174,"country_code":"PH","latitude":"12.41984000","longitude":"120.98931000"},{"id":"84453","name":"San Aquilino","state_id":1354,"state_code":"MDR","country_id":174,"country_code":"PH","latitude":"12.59743000","longitude":"121.48671000"},{"id":"84479","name":"San Fernando","state_id":1354,"state_code":"MDR","country_id":174,"country_code":"PH","latitude":"12.30364000","longitude":"122.60041000"},{"id":"84519","name":"San Jose","state_id":1354,"state_code":"MDR","country_id":174,"country_code":"PH","latitude":"12.35275000","longitude":"121.06761000"},{"id":"84549","name":"San Mariano","state_id":1354,"state_code":"MDR","country_id":174,"country_code":"PH","latitude":"12.64143000","longitude":"121.43791000"},{"id":"84567","name":"San Miguel","state_id":1354,"state_code":"MDR","country_id":174,"country_code":"PH","latitude":"11.49240000","longitude":"119.87030000"},{"id":"84588","name":"San Pedro","state_id":1354,"state_code":"MDR","country_id":174,"country_code":"PH","latitude":"12.46084000","longitude":"121.01041000"},{"id":"84616","name":"San Teodoro","state_id":1354,"state_code":"MDR","country_id":174,"country_code":"PH","latitude":"13.43354000","longitude":"121.01440000"},{"id":"84620","name":"San Vicente","state_id":1354,"state_code":"MDR","country_id":174,"country_code":"PH","latitude":"10.53033000","longitude":"119.25423000"},{"id":"84646","name":"Santa Brigida","state_id":1354,"state_code":"MDR","country_id":174,"country_code":"PH","latitude":"12.56783000","longitude":"121.48901000"},{"id":"84661","name":"Santa Cruz","state_id":1354,"state_code":"MDR","country_id":174,"country_code":"PH","latitude":"13.47580000","longitude":"122.02750000"},{"id":"84670","name":"Santa Fe","state_id":1354,"state_code":"MDR","country_id":174,"country_code":"PH","latitude":"12.15656000","longitude":"121.99411000"},{"id":"84687","name":"Santa Maria","state_id":1354,"state_code":"MDR","country_id":174,"country_code":"PH","latitude":"12.57883000","longitude":"121.46041000"},{"id":"84702","name":"Santa Teresa","state_id":1354,"state_code":"MDR","country_id":174,"country_code":"PH","latitude":"12.25186000","longitude":"121.11251000"},{"id":"84751","name":"Saraza","state_id":1354,"state_code":"MDR","country_id":174,"country_code":"PH","latitude":"8.73556000","longitude":"117.78000000"},{"id":"84834","name":"Socorro","state_id":1354,"state_code":"MDR","country_id":174,"country_code":"PH","latitude":"13.06690000","longitude":"121.39858000"},{"id":"84839","name":"Sogod","state_id":1354,"state_code":"MDR","country_id":174,"country_code":"PH","latitude":"12.37635000","longitude":"122.66368000"},{"id":"84853","name":"Suba","state_id":1354,"state_code":"MDR","country_id":174,"country_code":"PH","latitude":"10.82512000","longitude":"121.00690000"},{"id":"84875","name":"Sumagui","state_id":1354,"state_code":"MDR","country_id":174,"country_code":"PH","latitude":"12.79532000","longitude":"121.47401000"},{"id":"84897","name":"Tabinay","state_id":1354,"state_code":"MDR","country_id":174,"country_code":"PH","latitude":"13.48710000","longitude":"120.95660000"},{"id":"84905","name":"Tabon","state_id":1354,"state_code":"MDR","country_id":174,"country_code":"PH","latitude":"9.23877000","longitude":"117.99460000"},{"id":"84919","name":"Tacligan","state_id":1354,"state_code":"MDR","country_id":174,"country_code":"PH","latitude":"13.39750000","longitude":"121.06260000"},{"id":"84921","name":"Taclobo","state_id":1354,"state_code":"MDR","country_id":174,"country_code":"PH","latitude":"12.30744000","longitude":"122.58601000"},{"id":"84934","name":"Tagbak","state_id":1354,"state_code":"MDR","country_id":174,"country_code":"PH","latitude":"13.84166000","longitude":"120.08872000"},{"id":"84937","name":"Tagbita","state_id":1354,"state_code":"MDR","country_id":174,"country_code":"PH","latitude":"8.71331000","longitude":"117.35046000"},{"id":"84939","name":"Tagburos","state_id":1354,"state_code":"MDR","country_id":174,"country_code":"PH","latitude":"9.82861000","longitude":"118.73194000"},{"id":"84953","name":"Tagusao","state_id":1354,"state_code":"MDR","country_id":174,"country_code":"PH","latitude":"9.19238000","longitude":"117.81410000"},{"id":"85012","name":"Tambong","state_id":1354,"state_code":"MDR","country_id":174,"country_code":"PH","latitude":"12.96391000","longitude":"121.48462000"},{"id":"85024","name":"Tampayan","state_id":1354,"state_code":"MDR","country_id":174,"country_code":"PH","latitude":"12.49411000","longitude":"122.53309000"},{"id":"85034","name":"Tangal","state_id":1354,"state_code":"MDR","country_id":174,"country_code":"PH","latitude":"13.84536000","longitude":"120.10082000"},{"id":"85062","name":"Tarusan","state_id":1354,"state_code":"MDR","country_id":174,"country_code":"PH","latitude":"8.65461000","longitude":"117.51040000"},{"id":"85071","name":"Tayaman","state_id":1354,"state_code":"MDR","country_id":174,"country_code":"PH","latitude":"13.22950000","longitude":"120.57260000"},{"id":"85076","name":"Taytay","state_id":1354,"state_code":"MDR","country_id":174,"country_code":"PH","latitude":"10.81788000","longitude":"119.49851000"},{"id":"85114","name":"Tigui","state_id":1354,"state_code":"MDR","country_id":174,"country_code":"PH","latitude":"13.26810000","longitude":"122.04150000"},{"id":"85116","name":"Tiguion","state_id":1354,"state_code":"MDR","country_id":174,"country_code":"PH","latitude":"13.33470000","longitude":"121.86100000"},{"id":"85117","name":"Tiguisan","state_id":1354,"state_code":"MDR","country_id":174,"country_code":"PH","latitude":"12.83941000","longitude":"121.46052000"},{"id":"85120","name":"Tilik","state_id":1354,"state_code":"MDR","country_id":174,"country_code":"PH","latitude":"13.81436000","longitude":"120.20022000"},{"id":"85137","name":"Tiniguiban","state_id":1354,"state_code":"MDR","country_id":174,"country_code":"PH","latitude":"11.35740000","longitude":"119.50490000"},{"id":"85164","name":"Tomingad","state_id":1354,"state_code":"MDR","country_id":174,"country_code":"PH","latitude":"12.44311000","longitude":"122.02106000"},{"id":"85172","name":"Torrijos","state_id":1354,"state_code":"MDR","country_id":174,"country_code":"PH","latitude":"13.31676000","longitude":"122.08205000"},{"id":"85183","name":"Tuban","state_id":1354,"state_code":"MDR","country_id":174,"country_code":"PH","latitude":"12.81220000","longitude":"120.83230000"},{"id":"85210","name":"Tugdan","state_id":1354,"state_code":"MDR","country_id":174,"country_code":"PH","latitude":"12.31340000","longitude":"122.08530000"},{"id":"85221","name":"Tumarbong","state_id":1354,"state_code":"MDR","country_id":174,"country_code":"PH","latitude":"10.37659000","longitude":"119.45790000"},{"id":"85285","name":"Victoria","state_id":1354,"state_code":"MDR","country_id":174,"country_code":"PH","latitude":"13.17722000","longitude":"121.27806000"},{"id":"85291","name":"Vigo","state_id":1354,"state_code":"MDR","country_id":174,"country_code":"PH","latitude":"13.82666000","longitude":"120.17922000"},{"id":"85313","name":"Wawa","state_id":1354,"state_code":"MDR","country_id":174,"country_code":"PH","latitude":"13.46320000","longitude":"120.74410000"},{"id":"85320","name":"Yook","state_id":1354,"state_code":"MDR","country_id":174,"country_code":"PH","latitude":"13.22608000","longitude":"121.96400000"}]