[{"id":"81142","name":"Acao","state_id":1355,"state_code":"01","country_id":174,"country_code":"PH","latitude":"16.52556000","longitude":"120.37639000"},{"id":"81161","name":"Agno","state_id":1355,"state_code":"01","country_id":174,"country_code":"PH","latitude":"16.11610000","longitude":"119.79930000"},{"id":"81163","name":"Agoo","state_id":1355,"state_code":"01","country_id":174,"country_code":"PH","latitude":"16.08333000","longitude":"120.10000000"},{"id":"81168","name":"Aguilar","state_id":1355,"state_code":"01","country_id":174,"country_code":"PH","latitude":"15.88840000","longitude":"120.23780000"},{"id":"81179","name":"Alac","state_id":1355,"state_code":"01","country_id":174,"country_code":"PH","latitude":"15.98770000","longitude":"120.80650000"},{"id":"81185","name":"Alaminos","state_id":1355,"state_code":"01","country_id":174,"country_code":"PH","latitude":"16.15611000","longitude":"119.98111000"},{"id":"81194","name":"Alcala","state_id":1355,"state_code":"01","country_id":174,"country_code":"PH","latitude":"15.84722000","longitude":"120.52417000"},{"id":"81217","name":"Alilem","state_id":1355,"state_code":"01","country_id":174,"country_code":"PH","latitude":"16.88610000","longitude":"120.53040000"},{"id":"81223","name":"Allangigan Primero","state_id":1355,"state_code":"01","country_id":174,"country_code":"PH","latitude":"17.17393000","longitude":"120.49195000"},{"id":"81230","name":"Aloleng","state_id":1355,"state_code":"01","country_id":174,"country_code":"PH","latitude":"16.13070000","longitude":"119.78240000"},{"id":"81241","name":"Amagbagan","state_id":1355,"state_code":"01","country_id":174,"country_code":"PH","latitude":"16.09140000","longitude":"120.52320000"},{"id":"81256","name":"Anambongan","state_id":1355,"state_code":"01","country_id":174,"country_code":"PH","latitude":"15.86634000","longitude":"120.38858000"},{"id":"81259","name":"Anda","state_id":1355,"state_code":"01","country_id":174,"country_code":"PH","latitude":"16.28920000","longitude":"119.95000000"},{"id":"81267","name":"Angatel","state_id":1355,"state_code":"01","country_id":174,"country_code":"PH","latitude":"15.80589000","longitude":"120.34326000"},{"id":"81286","name":"Anulid","state_id":1355,"state_code":"01","country_id":174,"country_code":"PH","latitude":"15.82563000","longitude":"120.48834000"},{"id":"81313","name":"Aringay","state_id":1355,"state_code":"01","country_id":174,"country_code":"PH","latitude":"16.39400000","longitude":"120.35450000"},{"id":"81320","name":"Asingan","state_id":1355,"state_code":"01","country_id":174,"country_code":"PH","latitude":"16.00510000","longitude":"120.66950000"},{"id":"81346","name":"Baay","state_id":1355,"state_code":"01","country_id":174,"country_code":"PH","latitude":"18.11880000","longitude":"120.57530000"},{"id":"81353","name":"Bacag","state_id":1355,"state_code":"01","country_id":174,"country_code":"PH","latitude":"15.93000000","longitude":"120.58222000"},{"id":"81355","name":"Bacarra","state_id":1355,"state_code":"01","country_id":174,"country_code":"PH","latitude":"18.25290000","longitude":"120.61250000"},{"id":"81359","name":"Bacnar","state_id":1355,"state_code":"01","country_id":174,"country_code":"PH","latitude":"15.88641000","longitude":"120.34419000"},{"id":"81361","name":"Bacnotan","state_id":1355,"state_code":"01","country_id":174,"country_code":"PH","latitude":"16.72222000","longitude":"120.35250000"},{"id":"81372","name":"Bactad Proper","state_id":1355,"state_code":"01","country_id":174,"country_code":"PH","latitude":"15.97842000","longitude":"120.61026000"},{"id":"81376","name":"Bacundao Weste","state_id":1355,"state_code":"01","country_id":174,"country_code":"PH","latitude":"15.91536000","longitude":"120.47668000"},{"id":"81384","name":"Badoc","state_id":1355,"state_code":"01","country_id":174,"country_code":"PH","latitude":"17.92650000","longitude":"120.47640000"},{"id":"81410","name":"Bagulin","state_id":1355,"state_code":"01","country_id":174,"country_code":"PH","latitude":"16.60833000","longitude":"120.43944000"},{"id":"81420","name":"Bail","state_id":1355,"state_code":"01","country_id":174,"country_code":"PH","latitude":"16.28670000","longitude":"120.40040000"},{"id":"81446","name":"Balaoan","state_id":1355,"state_code":"01","country_id":174,"country_code":"PH","latitude":"16.82190000","longitude":"120.40450000"},{"id":"81476","name":"Balingasay","state_id":1355,"state_code":"01","country_id":174,"country_code":"PH","latitude":"16.35730000","longitude":"119.85640000"},{"id":"81479","name":"Balingueo","state_id":1355,"state_code":"01","country_id":174,"country_code":"PH","latitude":"15.95830000","longitude":"120.40973000"},{"id":"81494","name":"Balogo","state_id":1355,"state_code":"01","country_id":174,"country_code":"PH","latitude":"15.99032000","longitude":"120.28302000"},{"id":"81505","name":"Balungao","state_id":1355,"state_code":"01","country_id":174,"country_code":"PH","latitude":"15.89806000","longitude":"120.68833000"},{"id":"81509","name":"Baluyot","state_id":1355,"state_code":"01","country_id":174,"country_code":"PH","latitude":"15.79586000","longitude":"120.46088000"},{"id":"81519","name":"Banayoyo","state_id":1355,"state_code":"01","country_id":174,"country_code":"PH","latitude":"17.23333000","longitude":"120.48333000"},{"id":"81527","name":"Bangan-Oda","state_id":1355,"state_code":"01","country_id":174,"country_code":"PH","latitude":"16.10870000","longitude":"119.83070000"},{"id":"81530","name":"Bangar","state_id":1355,"state_code":"01","country_id":174,"country_code":"PH","latitude":"16.89360000","longitude":"120.42430000"},{"id":"81535","name":"Bangui","state_id":1355,"state_code":"01","country_id":174,"country_code":"PH","latitude":"18.53760000","longitude":"120.76710000"},{"id":"81538","name":"Bani","state_id":1355,"state_code":"01","country_id":174,"country_code":"PH","latitude":"16.18500000","longitude":"119.86130000"},{"id":"81544","name":"Banog Sur","state_id":1355,"state_code":"01","country_id":174,"country_code":"PH","latitude":"16.16542000","longitude":"119.89802000"},{"id":"81550","name":"Bantay","state_id":1355,"state_code":"01","country_id":174,"country_code":"PH","latitude":"17.58472000","longitude":"120.38917000"},{"id":"81556","name":"Bantog","state_id":1355,"state_code":"01","country_id":174,"country_code":"PH","latitude":"16.00910000","longitude":"120.69290000"},{"id":"81565","name":"Barangobong","state_id":1355,"state_code":"01","country_id":174,"country_code":"PH","latitude":"15.87778000","longitude":"120.54833000"},{"id":"81578","name":"Baro","state_id":1355,"state_code":"01","country_id":174,"country_code":"PH","latitude":"15.99895000","longitude":"120.67350000"},{"id":"81580","name":"Barong","state_id":1355,"state_code":"01","country_id":174,"country_code":"PH","latitude":"18.05760000","longitude":"120.73400000"},{"id":"81606","name":"Basing","state_id":1355,"state_code":"01","country_id":174,"country_code":"PH","latitude":"15.98505000","longitude":"120.26831000"},{"id":"81607","name":"Basista","state_id":1355,"state_code":"01","country_id":174,"country_code":"PH","latitude":"15.85240000","longitude":"120.39760000"},{"id":"81610","name":"Batac City","state_id":1355,"state_code":"01","country_id":174,"country_code":"PH","latitude":"18.05540000","longitude":"120.56489000"},{"id":"81616","name":"Bataquil","state_id":1355,"state_code":"01","country_id":174,"country_code":"PH","latitude":"16.15528000","longitude":"120.52750000"},{"id":"81642","name":"Bauang","state_id":1355,"state_code":"01","country_id":174,"country_code":"PH","latitude":"16.53083000","longitude":"120.33306000"},{"id":"81648","name":"Bautista","state_id":1355,"state_code":"01","country_id":174,"country_code":"PH","latitude":"15.78362000","longitude":"120.49848000"},{"id":"81654","name":"Bayambang","state_id":1355,"state_code":"01","country_id":174,"country_code":"PH","latitude":"15.81270000","longitude":"120.45570000"},{"id":"81658","name":"Bayaoas","state_id":1355,"state_code":"01","country_id":174,"country_code":"PH","latitude":"15.83404000","longitude":"120.26478000"},{"id":"81688","name":"Bical Norte","state_id":1355,"state_code":"01","country_id":174,"country_code":"PH","latitude":"15.81471000","longitude":"120.43509000"},{"id":"81698","name":"Bil-Loca","state_id":1355,"state_code":"01","country_id":174,"country_code":"PH","latitude":"18.08750000","longitude":"120.56870000"},{"id":"81707","name":"Binabalian","state_id":1355,"state_code":"01","country_id":174,"country_code":"PH","latitude":"16.42020000","longitude":"119.92790000"},{"id":"81711","name":"Binalonan","state_id":1355,"state_code":"01","country_id":174,"country_code":"PH","latitude":"16.05030000","longitude":"120.59260000"},{"id":"81717","name":"Binday","state_id":1355,"state_code":"01","country_id":174,"country_code":"PH","latitude":"16.12812000","longitude":"120.45238000"},{"id":"81724","name":"Binmaley","state_id":1355,"state_code":"01","country_id":174,"country_code":"PH","latitude":"16.03232000","longitude":"120.26904000"},{"id":"81806","name":"Bo\u00f1galon","state_id":1355,"state_code":"01","country_id":174,"country_code":"PH","latitude":"16.00022000","longitude":"120.15904000"},{"id":"81756","name":"Bobonan","state_id":1355,"state_code":"01","country_id":174,"country_code":"PH","latitude":"16.13480000","longitude":"120.52710000"},{"id":"81762","name":"Bogtong","state_id":1355,"state_code":"01","country_id":174,"country_code":"PH","latitude":"15.75536000","longitude":"120.32899000"},{"id":"81766","name":"Bolaoit","state_id":1355,"state_code":"01","country_id":174,"country_code":"PH","latitude":"15.93218000","longitude":"120.43073000"},{"id":"81771","name":"Bolingit","state_id":1355,"state_code":"01","country_id":174,"country_code":"PH","latitude":"15.95873000","longitude":"120.34960000"},{"id":"81778","name":"Bolo","state_id":1355,"state_code":"01","country_id":174,"country_code":"PH","latitude":"15.99480000","longitude":"120.16470000"},{"id":"81802","name":"Botao","state_id":1355,"state_code":"01","country_id":174,"country_code":"PH","latitude":"15.91667000","longitude":"120.41667000"},{"id":"81827","name":"Bued","state_id":1355,"state_code":"01","country_id":174,"country_code":"PH","latitude":"16.16086000","longitude":"119.99880000"},{"id":"81835","name":"Buenlag","state_id":1355,"state_code":"01","country_id":174,"country_code":"PH","latitude":"15.82976000","longitude":"120.51139000"},{"id":"81840","name":"Bugallon","state_id":1355,"state_code":"01","country_id":174,"country_code":"PH","latitude":"15.95280000","longitude":"120.21550000"},{"id":"81883","name":"Bulog","state_id":1355,"state_code":"01","country_id":174,"country_code":"PH","latitude":"15.96020000","longitude":"120.40170000"},{"id":"81909","name":"Burgos","state_id":1355,"state_code":"01","country_id":174,"country_code":"PH","latitude":"18.51658000","longitude":"120.64492000"},{"id":"81926","name":"Butubut Norte","state_id":1355,"state_code":"01","country_id":174,"country_code":"PH","latitude":"16.80340000","longitude":"120.43440000"},{"id":"81932","name":"Caabiangan","state_id":1355,"state_code":"01","country_id":174,"country_code":"PH","latitude":"16.08740000","longitude":"119.92450000"},{"id":"81933","name":"Caba","state_id":1355,"state_code":"01","country_id":174,"country_code":"PH","latitude":"16.43160000","longitude":"120.34460000"},{"id":"81940","name":"Cabalaoangan","state_id":1355,"state_code":"01","country_id":174,"country_code":"PH","latitude":"15.98333000","longitude":"120.78333000"},{"id":"81942","name":"Cabalitian","state_id":1355,"state_code":"01","country_id":174,"country_code":"PH","latitude":"16.08830000","longitude":"120.79220000"},{"id":"81972","name":"Cabittaogan","state_id":1355,"state_code":"01","country_id":174,"country_code":"PH","latitude":"17.57788000","longitude":"120.35914000"},{"id":"81979","name":"Cabugao","state_id":1355,"state_code":"01","country_id":174,"country_code":"PH","latitude":"17.79310000","longitude":"120.45780000"},{"id":"81983","name":"Cabungan","state_id":1355,"state_code":"01","country_id":174,"country_code":"PH","latitude":"16.33999000","longitude":"119.99490000"},{"id":"82034","name":"Calasiao","state_id":1355,"state_code":"01","country_id":174,"country_code":"PH","latitude":"16.01110000","longitude":"120.36000000"},{"id":"82047","name":"Calepaan","state_id":1355,"state_code":"01","country_id":174,"country_code":"PH","latitude":"16.01950000","longitude":"120.61900000"},{"id":"82059","name":"Callaguip","state_id":1355,"state_code":"01","country_id":174,"country_code":"PH","latitude":"18.07139000","longitude":"120.48667000"},{"id":"82063","name":"Calomboyan","state_id":1355,"state_code":"01","country_id":174,"country_code":"PH","latitude":"15.94652000","longitude":"120.30348000"},{"id":"82064","name":"Calongbuyan","state_id":1355,"state_code":"01","country_id":174,"country_code":"PH","latitude":"17.16478000","longitude":"120.42716000"},{"id":"82066","name":"Calsib","state_id":1355,"state_code":"01","country_id":174,"country_code":"PH","latitude":"15.84711000","longitude":"120.26412000"},{"id":"82078","name":"Camaley","state_id":1355,"state_code":"01","country_id":174,"country_code":"PH","latitude":"15.99724000","longitude":"120.30107000"},{"id":"82101","name":"Canan Norte","state_id":1355,"state_code":"01","country_id":174,"country_code":"PH","latitude":"15.90986000","longitude":"120.47763000"},{"id":"82102","name":"Canaoalan","state_id":1355,"state_code":"01","country_id":174,"country_code":"PH","latitude":"16.02902000","longitude":"120.29641000"},{"id":"82112","name":"Candon","state_id":1355,"state_code":"01","country_id":174,"country_code":"PH","latitude":"17.19472000","longitude":"120.45167000"},{"id":"82129","name":"Cantoria","state_id":1355,"state_code":"01","country_id":174,"country_code":"PH","latitude":"16.84410000","longitude":"120.40450000"},{"id":"82132","name":"Caoayan","state_id":1355,"state_code":"01","country_id":174,"country_code":"PH","latitude":"17.56194000","longitude":"120.39750000"},{"id":"82136","name":"Capandanan","state_id":1355,"state_code":"01","country_id":174,"country_code":"PH","latitude":"15.95943000","longitude":"120.69519000"},{"id":"82143","name":"Capulaan","state_id":1355,"state_code":"01","country_id":174,"country_code":"PH","latitude":"15.90497000","longitude":"120.53719000"},{"id":"82152","name":"Caramutan","state_id":1355,"state_code":"01","country_id":174,"country_code":"PH","latitude":"15.92074000","longitude":"120.61012000"},{"id":"82154","name":"Carasi","state_id":1355,"state_code":"01","country_id":174,"country_code":"PH","latitude":"18.19889000","longitude":"120.86833000"},{"id":"82167","name":"Carmen","state_id":1355,"state_code":"01","country_id":174,"country_code":"PH","latitude":"15.88642000","longitude":"120.59984000"},{"id":"82177","name":"Caronoan West","state_id":1355,"state_code":"01","country_id":174,"country_code":"PH","latitude":"16.26330000","longitude":"120.44630000"},{"id":"82178","name":"Carot","state_id":1355,"state_code":"01","country_id":174,"country_code":"PH","latitude":"16.34468000","longitude":"119.98005000"},{"id":"82183","name":"Carriedo","state_id":1355,"state_code":"01","country_id":174,"country_code":"PH","latitude":"16.03100000","longitude":"120.75490000"},{"id":"82186","name":"Carusucan","state_id":1355,"state_code":"01","country_id":174,"country_code":"PH","latitude":"15.96589000","longitude":"120.63598000"},{"id":"82201","name":"Catablan","state_id":1355,"state_code":"01","country_id":174,"country_code":"PH","latitude":"15.97570000","longitude":"120.49530000"},{"id":"82210","name":"Caterman","state_id":1355,"state_code":"01","country_id":174,"country_code":"PH","latitude":"17.21738000","longitude":"120.42442000"},{"id":"82217","name":"Cato","state_id":1355,"state_code":"01","country_id":174,"country_code":"PH","latitude":"15.83620000","longitude":"119.91510000"},{"id":"82219","name":"Catuday","state_id":1355,"state_code":"01","country_id":174,"country_code":"PH","latitude":"16.29230000","longitude":"119.80620000"},{"id":"82234","name":"Cayanga","state_id":1355,"state_code":"01","country_id":174,"country_code":"PH","latitude":"16.11508000","longitude":"120.39875000"},{"id":"82237","name":"Cayungnan","state_id":1355,"state_code":"01","country_id":174,"country_code":"PH","latitude":"16.13320000","longitude":"119.83750000"},{"id":"82242","name":"Cervantes","state_id":1355,"state_code":"01","country_id":174,"country_code":"PH","latitude":"16.99090000","longitude":"120.73590000"},{"id":"82266","name":"Comillas Norte","state_id":1355,"state_code":"01","country_id":174,"country_code":"PH","latitude":"16.95900000","longitude":"120.74690000"},{"id":"82297","name":"Corrooy","state_id":1355,"state_code":"01","country_id":174,"country_code":"PH","latitude":"16.79620000","longitude":"120.44530000"},{"id":"82320","name":"Currimao","state_id":1355,"state_code":"01","country_id":174,"country_code":"PH","latitude":"18.01820000","longitude":"120.48760000"},{"id":"82339","name":"Dagup","state_id":1355,"state_code":"01","country_id":174,"country_code":"PH","latitude":"16.63722000","longitude":"120.44556000"},{"id":"82340","name":"Dagupan","state_id":1355,"state_code":"01","country_id":174,"country_code":"PH","latitude":"16.04313000","longitude":"120.33325000"},{"id":"82363","name":"Damortis","state_id":1355,"state_code":"01","country_id":174,"country_code":"PH","latitude":"16.24051000","longitude":"120.40565000"},{"id":"82386","name":"Darapidap","state_id":1355,"state_code":"01","country_id":174,"country_code":"PH","latitude":"17.20007000","longitude":"120.41802000"},{"id":"82388","name":"Dasol","state_id":1355,"state_code":"01","country_id":174,"country_code":"PH","latitude":"15.99020000","longitude":"119.88280000"},{"id":"82397","name":"Davila","state_id":1355,"state_code":"01","country_id":174,"country_code":"PH","latitude":"18.47260000","longitude":"120.57630000"},{"id":"82416","name":"Diaz","state_id":1355,"state_code":"01","country_id":174,"country_code":"PH","latitude":"15.84630000","longitude":"120.83470000"},{"id":"82426","name":"Dilan","state_id":1355,"state_code":"01","country_id":174,"country_code":"PH","latitude":"16.08790000","longitude":"120.52070000"},{"id":"82441","name":"Dingras","state_id":1355,"state_code":"01","country_id":174,"country_code":"PH","latitude":"18.10320000","longitude":"120.69670000"},{"id":"82456","name":"Domalanoan","state_id":1355,"state_code":"01","country_id":174,"country_code":"PH","latitude":"16.00292000","longitude":"120.21154000"},{"id":"82457","name":"Domampot","state_id":1355,"state_code":"01","country_id":174,"country_code":"PH","latitude":"16.00000000","longitude":"120.65000000"},{"id":"82459","name":"Don Pedro","state_id":1355,"state_code":"01","country_id":174,"country_code":"PH","latitude":"15.88518000","longitude":"120.43036000"},{"id":"82463","name":"Dorongan Punta","state_id":1355,"state_code":"01","country_id":174,"country_code":"PH","latitude":"15.81476000","longitude":"120.32266000"},{"id":"82466","name":"Doyong","state_id":1355,"state_code":"01","country_id":174,"country_code":"PH","latitude":"15.97224000","longitude":"120.35386000"},{"id":"82479","name":"Dulig","state_id":1355,"state_code":"01","country_id":174,"country_code":"PH","latitude":"16.00212000","longitude":"120.16864000"},{"id":"82486","name":"Dumalneg","state_id":1355,"state_code":"01","country_id":174,"country_code":"PH","latitude":"18.52540000","longitude":"120.80940000"},{"id":"82494","name":"Dumpay","state_id":1355,"state_code":"01","country_id":174,"country_code":"PH","latitude":"15.88295000","longitude":"120.38899000"},{"id":"82504","name":"Eguia","state_id":1355,"state_code":"01","country_id":174,"country_code":"PH","latitude":"15.90650000","longitude":"119.88580000"},{"id":"82515","name":"Esmeralda","state_id":1355,"state_code":"01","country_id":174,"country_code":"PH","latitude":"15.86722000","longitude":"120.71500000"},{"id":"82524","name":"Espiritu","state_id":1355,"state_code":"01","country_id":174,"country_code":"PH","latitude":"17.98090000","longitude":"120.65690000"},{"id":"82541","name":"Fuerte","state_id":1355,"state_code":"01","country_id":174,"country_code":"PH","latitude":"17.53418000","longitude":"120.36950000"},{"id":"82554","name":"Galimuyod","state_id":1355,"state_code":"01","country_id":174,"country_code":"PH","latitude":"17.18444000","longitude":"120.47194000"},{"id":"82574","name":"Gayaman","state_id":1355,"state_code":"01","country_id":174,"country_code":"PH","latitude":"16.01402000","longitude":"120.30757000"},{"id":"82609","name":"Gregorio del Pilar","state_id":1355,"state_code":"01","country_id":174,"country_code":"PH","latitude":"17.13028000","longitude":"120.61194000"},{"id":"82624","name":"Guiling","state_id":1355,"state_code":"01","country_id":174,"country_code":"PH","latitude":"15.84295000","longitude":"120.61513000"},{"id":"82646","name":"Guiset East","state_id":1355,"state_code":"01","country_id":174,"country_code":"PH","latitude":"16.06667000","longitude":"120.68333000"},{"id":"82663","name":"Hacienda","state_id":1355,"state_code":"01","country_id":174,"country_code":"PH","latitude":"15.93600000","longitude":"120.17860000"},{"id":"82675","name":"Halog West","state_id":1355,"state_code":"01","country_id":174,"country_code":"PH","latitude":"16.36680000","longitude":"120.41470000"},{"id":"82730","name":"Ilioilio","state_id":1355,"state_code":"01","country_id":174,"country_code":"PH","latitude":"15.96160000","longitude":"119.76580000"},{"id":"82739","name":"Inabaan Sur","state_id":1355,"state_code":"01","country_id":174,"country_code":"PH","latitude":"16.26300000","longitude":"120.47810000"},{"id":"82749","name":"Infanta","state_id":1355,"state_code":"01","country_id":174,"country_code":"PH","latitude":"15.82640000","longitude":"119.90770000"},{"id":"82771","name":"Isla","state_id":1355,"state_code":"01","country_id":174,"country_code":"PH","latitude":"15.89507000","longitude":"120.30137000"},{"id":"82959","name":"Labayug","state_id":1355,"state_code":"01","country_id":174,"country_code":"PH","latitude":"16.15280000","longitude":"120.56610000"},{"id":"82960","name":"Labney","state_id":1355,"state_code":"01","country_id":174,"country_code":"PH","latitude":"16.10280000","longitude":"120.46550000"},{"id":"82964","name":"Labrador","state_id":1355,"state_code":"01","country_id":174,"country_code":"PH","latitude":"16.02812000","longitude":"120.14424000"},{"id":"82974","name":"Lagasit","state_id":1355,"state_code":"01","country_id":174,"country_code":"PH","latitude":"15.99340000","longitude":"120.79400000"},{"id":"82981","name":"Laguit Centro","state_id":1355,"state_code":"01","country_id":174,"country_code":"PH","latitude":"15.94720000","longitude":"120.19040000"},{"id":"83027","name":"Laoag","state_id":1355,"state_code":"01","country_id":174,"country_code":"PH","latitude":"18.19780000","longitude":"120.59570000"},{"id":"83068","name":"Leones East","state_id":1355,"state_code":"01","country_id":174,"country_code":"PH","latitude":"16.36330000","longitude":"120.39190000"},{"id":"83069","name":"Lepa","state_id":1355,"state_code":"01","country_id":174,"country_code":"PH","latitude":"15.88438000","longitude":"120.45089000"},{"id":"83080","name":"Libas","state_id":1355,"state_code":"01","country_id":174,"country_code":"PH","latitude":"15.87789000","longitude":"120.31633000"},{"id":"83103","name":"Lidlidda","state_id":1355,"state_code":"01","country_id":174,"country_code":"PH","latitude":"17.26930000","longitude":"120.52130000"},{"id":"83139","name":"Lingayen","state_id":1355,"state_code":"01","country_id":174,"country_code":"PH","latitude":"16.02182000","longitude":"120.23194000"},{"id":"83142","name":"Linmansangan","state_id":1355,"state_code":"01","country_id":174,"country_code":"PH","latitude":"15.82980000","longitude":"120.29593000"},{"id":"83154","name":"Lloren","state_id":1355,"state_code":"01","country_id":174,"country_code":"PH","latitude":"16.33310000","longitude":"120.43290000"},{"id":"83160","name":"Lobong","state_id":1355,"state_code":"01","country_id":174,"country_code":"PH","latitude":"16.08150000","longitude":"120.47040000"},{"id":"83167","name":"Longos","state_id":1355,"state_code":"01","country_id":174,"country_code":"PH","latitude":"16.10734000","longitude":"120.39658000"},{"id":"83181","name":"Loqueb Este","state_id":1355,"state_code":"01","country_id":174,"country_code":"PH","latitude":"15.94481000","longitude":"120.44607000"},{"id":"83196","name":"Lucap","state_id":1355,"state_code":"01","country_id":174,"country_code":"PH","latitude":"16.19038000","longitude":"120.00221000"},{"id":"83202","name":"Lucero","state_id":1355,"state_code":"01","country_id":174,"country_code":"PH","latitude":"16.40510000","longitude":"119.91240000"},{"id":"83233","name":"Luna","state_id":1355,"state_code":"01","country_id":174,"country_code":"PH","latitude":"16.85280000","longitude":"120.37610000"},{"id":"83237","name":"Lunec","state_id":1355,"state_code":"01","country_id":174,"country_code":"PH","latitude":"15.95395000","longitude":"120.48949000"},{"id":"83240","name":"Lungog","state_id":1355,"state_code":"01","country_id":174,"country_code":"PH","latitude":"17.46450000","longitude":"120.47840000"},{"id":"83249","name":"Lusong","state_id":1355,"state_code":"01","country_id":174,"country_code":"PH","latitude":"16.86700000","longitude":"120.44200000"},{"id":"83271","name":"Mabilao","state_id":1355,"state_code":"01","country_id":174,"country_code":"PH","latitude":"16.15351000","longitude":"120.42494000"},{"id":"83272","name":"Mabilbila Sur","state_id":1355,"state_code":"01","country_id":174,"country_code":"PH","latitude":"17.50709000","longitude":"120.44100000"},{"id":"83278","name":"Mabini","state_id":1355,"state_code":"01","country_id":174,"country_code":"PH","latitude":"16.06990000","longitude":"119.93910000"},{"id":"83290","name":"Mabusag","state_id":1355,"state_code":"01","country_id":174,"country_code":"PH","latitude":"17.92610000","longitude":"120.49760000"},{"id":"83295","name":"Macabuboni","state_id":1355,"state_code":"01","country_id":174,"country_code":"PH","latitude":"16.19090000","longitude":"119.78020000"},{"id":"83300","name":"Macalong","state_id":1355,"state_code":"01","country_id":174,"country_code":"PH","latitude":"16.01370000","longitude":"120.65860000"},{"id":"83301","name":"Macalva Norte","state_id":1355,"state_code":"01","country_id":174,"country_code":"PH","latitude":"16.34850000","longitude":"120.38660000"},{"id":"83305","name":"Macayug","state_id":1355,"state_code":"01","country_id":174,"country_code":"PH","latitude":"16.09376000","longitude":"120.43201000"},{"id":"83321","name":"Magallanes","state_id":1355,"state_code":"01","country_id":174,"country_code":"PH","latitude":"16.01960000","longitude":"120.73900000"},{"id":"83346","name":"Magsingal","state_id":1355,"state_code":"01","country_id":174,"country_code":"PH","latitude":"17.68500000","longitude":"120.42444000"},{"id":"83347","name":"Magtaking","state_id":1355,"state_code":"01","country_id":174,"country_code":"PH","latitude":"15.98540000","longitude":"120.18320000"},{"id":"83381","name":"Malabago","state_id":1355,"state_code":"01","country_id":174,"country_code":"PH","latitude":"15.98154000","longitude":"120.35913000"},{"id":"83400","name":"Malanay","state_id":1355,"state_code":"01","country_id":174,"country_code":"PH","latitude":"16.00865000","longitude":"120.40940000"},{"id":"83410","name":"Malasiqui","state_id":1355,"state_code":"01","country_id":174,"country_code":"PH","latitude":"15.92010000","longitude":"120.41400000"},{"id":"83413","name":"Malawa","state_id":1355,"state_code":"01","country_id":174,"country_code":"PH","latitude":"15.95804000","longitude":"120.27782000"},{"id":"83425","name":"Malibong East","state_id":1355,"state_code":"01","country_id":174,"country_code":"PH","latitude":"15.84660000","longitude":"120.32690000"},{"id":"83491","name":"Manaoag","state_id":1355,"state_code":"01","country_id":174,"country_code":"PH","latitude":"16.04380000","longitude":"120.48610000"},{"id":"83510","name":"Mangaldan","state_id":1355,"state_code":"01","country_id":174,"country_code":"PH","latitude":"16.07000000","longitude":"120.40250000"},{"id":"83513","name":"Mangatarem","state_id":1355,"state_code":"01","country_id":174,"country_code":"PH","latitude":"15.78740000","longitude":"120.29210000"},{"id":"83551","name":"Mapandan","state_id":1355,"state_code":"01","country_id":174,"country_code":"PH","latitude":"16.02480000","longitude":"120.45470000"},{"id":"83554","name":"Mapolopolo","state_id":1355,"state_code":"01","country_id":174,"country_code":"PH","latitude":"15.88087000","longitude":"120.37422000"},{"id":"83570","name":"Marcos","state_id":1355,"state_code":"01","country_id":174,"country_code":"PH","latitude":"18.05200000","longitude":"120.68980000"},{"id":"83627","name":"Maticmatic","state_id":1355,"state_code":"01","country_id":174,"country_code":"PH","latitude":"15.98630000","longitude":"120.45192000"},{"id":"83685","name":"Minien East","state_id":1355,"state_code":"01","country_id":174,"country_code":"PH","latitude":"15.97723000","longitude":"120.48127000"},{"id":"83743","name":"Nagbacalan","state_id":1355,"state_code":"01","country_id":174,"country_code":"PH","latitude":"18.11590000","longitude":"120.52350000"},{"id":"83750","name":"Nagsaing","state_id":1355,"state_code":"01","country_id":174,"country_code":"PH","latitude":"15.98069000","longitude":"120.33787000"},{"id":"83752","name":"Naguelguel","state_id":1355,"state_code":"01","country_id":174,"country_code":"PH","latitude":"16.00585000","longitude":"120.26351000"},{"id":"83753","name":"Naguilayan","state_id":1355,"state_code":"01","country_id":174,"country_code":"PH","latitude":"16.00304000","longitude":"120.29108000"},{"id":"83754","name":"Naguilian","state_id":1355,"state_code":"01","country_id":174,"country_code":"PH","latitude":"16.53389000","longitude":"120.39667000"},{"id":"83761","name":"Nalsian Norte","state_id":1355,"state_code":"01","country_id":174,"country_code":"PH","latitude":"15.84476000","longitude":"120.45084000"},{"id":"83764","name":"Nama","state_id":1355,"state_code":"01","country_id":174,"country_code":"PH","latitude":"16.14120000","longitude":"120.54260000"},{"id":"83766","name":"Namboongan","state_id":1355,"state_code":"01","country_id":174,"country_code":"PH","latitude":"16.30330000","longitude":"120.37580000"},{"id":"83769","name":"Nancalobasaan","state_id":1355,"state_code":"01","country_id":174,"country_code":"PH","latitude":"15.93420000","longitude":"120.84260000"},{"id":"83782","name":"Narvacan","state_id":1355,"state_code":"01","country_id":174,"country_code":"PH","latitude":"17.41750000","longitude":"120.47530000"},{"id":"83786","name":"Natividad","state_id":1355,"state_code":"01","country_id":174,"country_code":"PH","latitude":"16.04430000","longitude":"120.79870000"},{"id":"83794","name":"Navatat","state_id":1355,"state_code":"01","country_id":174,"country_code":"PH","latitude":"15.84971000","longitude":"120.39054000"},{"id":"83814","name":"Nibaliw Central","state_id":1355,"state_code":"01","country_id":174,"country_code":"PH","latitude":"16.12750000","longitude":"120.40270000"},{"id":"83816","name":"Nilombot","state_id":1355,"state_code":"01","country_id":174,"country_code":"PH","latitude":"16.03060000","longitude":"120.43685000"},{"id":"83817","name":"Ninoy","state_id":1355,"state_code":"01","country_id":174,"country_code":"PH","latitude":"15.85960000","longitude":"120.24780000"},{"id":"83825","name":"Nueva Era","state_id":1355,"state_code":"01","country_id":174,"country_code":"PH","latitude":"17.91630000","longitude":"120.66410000"},{"id":"83834","name":"Oaqui","state_id":1355,"state_code":"01","country_id":174,"country_code":"PH","latitude":"16.85830000","longitude":"120.41240000"},{"id":"83850","name":"Olea","state_id":1355,"state_code":"01","country_id":174,"country_code":"PH","latitude":"15.86237000","longitude":"120.49366000"},{"id":"83880","name":"Padong","state_id":1355,"state_code":"01","country_id":174,"country_code":"PH","latitude":"18.05435000","longitude":"120.75427000"},{"id":"83895","name":"Pagsanahan Norte","state_id":1355,"state_code":"01","country_id":174,"country_code":"PH","latitude":"17.91930000","longitude":"120.44580000"},{"id":"83899","name":"Pagudpud","state_id":1355,"state_code":"01","country_id":174,"country_code":"PH","latitude":"18.56160000","longitude":"120.78680000"},{"id":"83902","name":"Paitan Este","state_id":1355,"state_code":"01","country_id":174,"country_code":"PH","latitude":"16.08532000","longitude":"120.03164000"},{"id":"83907","name":"Palacpalac","state_id":1355,"state_code":"01","country_id":174,"country_code":"PH","latitude":"16.13120000","longitude":"120.53050000"},{"id":"83919","name":"Paldit","state_id":1355,"state_code":"01","country_id":174,"country_code":"PH","latitude":"16.16667000","longitude":"120.53333000"},{"id":"83921","name":"Palguyod","state_id":1355,"state_code":"01","country_id":174,"country_code":"PH","latitude":"16.12270000","longitude":"120.52000000"},{"id":"83971","name":"Panganiban","state_id":1355,"state_code":"01","country_id":174,"country_code":"PH","latitude":"16.00750000","longitude":"120.77520000"},{"id":"83973","name":"Pangapisan","state_id":1355,"state_code":"01","country_id":174,"country_code":"PH","latitude":"16.21600000","longitude":"119.95700000"},{"id":"83974","name":"Pangascasan","state_id":1355,"state_code":"01","country_id":174,"country_code":"PH","latitude":"16.11691000","longitude":"120.08664000"},{"id":"83980","name":"Pangpang","state_id":1355,"state_code":"01","country_id":174,"country_code":"PH","latitude":"15.93875000","longitude":"120.30939000"},{"id":"84008","name":"Paoay","state_id":1355,"state_code":"01","country_id":174,"country_code":"PH","latitude":"18.06160000","longitude":"120.52210000"},{"id":"84022","name":"Paringao","state_id":1355,"state_code":"01","country_id":174,"country_code":"PH","latitude":"16.57167000","longitude":"120.32417000"},{"id":"84023","name":"Parioc Segundo","state_id":1355,"state_code":"01","country_id":174,"country_code":"PH","latitude":"17.17503000","longitude":"120.46576000"},{"id":"84029","name":"Pasibi West","state_id":1355,"state_code":"01","country_id":174,"country_code":"PH","latitude":"15.85870000","longitude":"120.37935000"},{"id":"84036","name":"Pasuquin","state_id":1355,"state_code":"01","country_id":174,"country_code":"PH","latitude":"18.33280000","longitude":"120.61770000"},{"id":"84041","name":"Patayac","state_id":1355,"state_code":"01","country_id":174,"country_code":"PH","latitude":"15.96300000","longitude":"120.42251000"},{"id":"84051","name":"Patpata Segundo","state_id":1355,"state_code":"01","country_id":174,"country_code":"PH","latitude":"17.18333000","longitude":"120.43333000"},{"id":"84069","name":"Payocpoc Sur","state_id":1355,"state_code":"01","country_id":174,"country_code":"PH","latitude":"16.49444000","longitude":"120.32806000"},{"id":"84083","name":"Piddig","state_id":1355,"state_code":"01","country_id":174,"country_code":"PH","latitude":"18.16550000","longitude":"120.71750000"},{"id":"84109","name":"Pindangan Centro","state_id":1355,"state_code":"01","country_id":174,"country_code":"PH","latitude":"15.86056000","longitude":"120.55139000"},{"id":"84111","name":"Pinili","state_id":1355,"state_code":"01","country_id":174,"country_code":"PH","latitude":"17.95170000","longitude":"120.52780000"},{"id":"84139","name":"Pogonsili","state_id":1355,"state_code":"01","country_id":174,"country_code":"PH","latitude":"15.82048000","longitude":"120.26017000"},{"id":"84147","name":"Polo","state_id":1355,"state_code":"01","country_id":174,"country_code":"PH","latitude":"16.19630000","longitude":"119.94910000"},{"id":"84152","name":"Polong","state_id":1355,"state_code":"01","country_id":174,"country_code":"PH","latitude":"15.97710000","longitude":"120.20090000"},{"id":"84153","name":"Polong Norte","state_id":1355,"state_code":"01","country_id":174,"country_code":"PH","latitude":"15.90300000","longitude":"120.42149000"},{"id":"84170","name":"Pozorrubio","state_id":1355,"state_code":"01","country_id":174,"country_code":"PH","latitude":"16.11100000","longitude":"120.54400000"},{"id":"84210","name":"Province of Ilocos Norte","state_id":1355,"state_code":"01","country_id":174,"country_code":"PH","latitude":"18.16667000","longitude":"120.75000000"},{"id":"84211","name":"Province of Ilocos Sur","state_id":1355,"state_code":"01","country_id":174,"country_code":"PH","latitude":"17.19852000","longitude":"120.54199000"},{"id":"84214","name":"Province of La Union","state_id":1355,"state_code":"01","country_id":174,"country_code":"PH","latitude":"16.50000000","longitude":"120.41667000"},{"id":"84233","name":"Province of Pangasinan","state_id":1355,"state_code":"01","country_id":174,"country_code":"PH","latitude":"15.91667000","longitude":"120.33333000"},{"id":"84255","name":"Pudoc","state_id":1355,"state_code":"01","country_id":174,"country_code":"PH","latitude":"16.92150000","longitude":"120.42350000"},{"id":"84256","name":"Pudoc North","state_id":1355,"state_code":"01","country_id":174,"country_code":"PH","latitude":"17.60960000","longitude":"120.36852000"},{"id":"84257","name":"Puelay","state_id":1355,"state_code":"01","country_id":174,"country_code":"PH","latitude":"15.88683000","longitude":"120.57358000"},{"id":"84261","name":"Pugo","state_id":1355,"state_code":"01","country_id":174,"country_code":"PH","latitude":"16.32210000","longitude":"120.46700000"},{"id":"84287","name":"Puro Pinget","state_id":1355,"state_code":"01","country_id":174,"country_code":"PH","latitude":"17.67967000","longitude":"120.35883000"},{"id":"84304","name":"Quiling","state_id":1355,"state_code":"01","country_id":174,"country_code":"PH","latitude":"18.06833000","longitude":"120.54389000"},{"id":"84309","name":"Quinarayan","state_id":1355,"state_code":"01","country_id":174,"country_code":"PH","latitude":"17.44410000","longitude":"120.47220000"},{"id":"84311","name":"Quintong","state_id":1355,"state_code":"01","country_id":174,"country_code":"PH","latitude":"15.95581000","longitude":"120.32171000"},{"id":"84315","name":"Quirino","state_id":1355,"state_code":"01","country_id":174,"country_code":"PH","latitude":"17.15556000","longitude":"120.67000000"},{"id":"84327","name":"Ranao","state_id":1355,"state_code":"01","country_id":174,"country_code":"PH","latitude":"16.20760000","longitude":"119.81550000"},{"id":"84332","name":"Real","state_id":1355,"state_code":"01","country_id":174,"country_code":"PH","latitude":"15.80890000","longitude":"120.34549000"},{"id":"84338","name":"Rimus","state_id":1355,"state_code":"01","country_id":174,"country_code":"PH","latitude":"16.87640000","longitude":"120.39660000"},{"id":"84340","name":"Rissing","state_id":1355,"state_code":"01","country_id":174,"country_code":"PH","latitude":"16.87520000","longitude":"120.43450000"},{"id":"84355","name":"Rosales","state_id":1355,"state_code":"01","country_id":174,"country_code":"PH","latitude":"15.89444000","longitude":"120.63278000"},{"id":"84359","name":"Rosario","state_id":1355,"state_code":"01","country_id":174,"country_code":"PH","latitude":"16.23040000","longitude":"120.48630000"},{"id":"84374","name":"Sablig","state_id":1355,"state_code":"01","country_id":174,"country_code":"PH","latitude":"16.26887000","longitude":"119.98770000"},{"id":"84393","name":"Sagud-Bahley","state_id":1355,"state_code":"01","country_id":174,"country_code":"PH","latitude":"16.11693000","longitude":"120.39105000"},{"id":"84397","name":"Sagunto","state_id":1355,"state_code":"01","country_id":174,"country_code":"PH","latitude":"16.20070000","longitude":"120.51490000"},{"id":"84408","name":"Salcedo","state_id":1355,"state_code":"01","country_id":174,"country_code":"PH","latitude":"17.15472000","longitude":"120.53944000"},{"id":"84429","name":"Samon","state_id":1355,"state_code":"01","country_id":174,"country_code":"PH","latitude":"15.93495000","longitude":"120.65074000"},{"id":"84468","name":"San Emilio","state_id":1355,"state_code":"01","country_id":174,"country_code":"PH","latitude":"17.22611000","longitude":"120.61167000"},{"id":"84470","name":"San Esteban","state_id":1355,"state_code":"01","country_id":174,"country_code":"PH","latitude":"17.32990000","longitude":"120.44510000"},{"id":"84471","name":"San Eugenio","state_id":1355,"state_code":"01","country_id":174,"country_code":"PH","latitude":"16.35980000","longitude":"120.35700000"},{"id":"84473","name":"San Fabian","state_id":1355,"state_code":"01","country_id":174,"country_code":"PH","latitude":"16.12310000","longitude":"120.40560000"},{"id":"84480","name":"San Fernando","state_id":1355,"state_code":"01","country_id":174,"country_code":"PH","latitude":"16.61591000","longitude":"120.31663000"},{"id":"84491","name":"San Gabriel","state_id":1355,"state_code":"01","country_id":174,"country_code":"PH","latitude":"16.67556000","longitude":"120.40306000"},{"id":"84493","name":"San Gabriel First","state_id":1355,"state_code":"01","country_id":174,"country_code":"PH","latitude":"15.76650000","longitude":"120.45655000"},{"id":"84498","name":"San Ildefonso","state_id":1355,"state_code":"01","country_id":174,"country_code":"PH","latitude":"17.62222000","longitude":"120.39667000"},{"id":"84507","name":"San Jacinto","state_id":1355,"state_code":"01","country_id":174,"country_code":"PH","latitude":"16.07260000","longitude":"120.43830000"},{"id":"84525","name":"San Juan","state_id":1355,"state_code":"01","country_id":174,"country_code":"PH","latitude":"17.74222000","longitude":"120.45833000"},{"id":"84535","name":"San Lorenzo","state_id":1355,"state_code":"01","country_id":174,"country_code":"PH","latitude":"18.13230000","longitude":"120.63050000"},{"id":"84544","name":"San Manuel","state_id":1355,"state_code":"01","country_id":174,"country_code":"PH","latitude":"16.06470000","longitude":"120.66870000"},{"id":"84572","name":"San Nicolas","state_id":1355,"state_code":"01","country_id":174,"country_code":"PH","latitude":"18.17250000","longitude":"120.59530000"},{"id":"84589","name":"San Pedro Apartado","state_id":1355,"state_code":"01","country_id":174,"country_code":"PH","latitude":"15.83702000","longitude":"120.56521000"},{"id":"84593","name":"San Quintin","state_id":1355,"state_code":"01","country_id":174,"country_code":"PH","latitude":"15.98540000","longitude":"120.81320000"},{"id":"84613","name":"San Sebastian","state_id":1355,"state_code":"01","country_id":174,"country_code":"PH","latitude":"17.62327000","longitude":"120.36352000"},{"id":"84617","name":"San Vicente","state_id":1355,"state_code":"01","country_id":174,"country_code":"PH","latitude":"17.59694000","longitude":"120.37361000"},{"id":"84636","name":"Sanlibo","state_id":1355,"state_code":"01","country_id":174,"country_code":"PH","latitude":"15.91667000","longitude":"120.55000000"},{"id":"84637","name":"Santa","state_id":1355,"state_code":"01","country_id":174,"country_code":"PH","latitude":"17.48600000","longitude":"120.43480000"},{"id":"84645","name":"Santa Barbara","state_id":1355,"state_code":"01","country_id":174,"country_code":"PH","latitude":"16.00090000","longitude":"120.40230000"},{"id":"84648","name":"Santa Catalina","state_id":1355,"state_code":"01","country_id":174,"country_code":"PH","latitude":"17.59667000","longitude":"120.35917000"},{"id":"84662","name":"Santa Cruz","state_id":1355,"state_code":"01","country_id":174,"country_code":"PH","latitude":"17.08556000","longitude":"120.45222000"},{"id":"84678","name":"Santa Lucia","state_id":1355,"state_code":"01","country_id":174,"country_code":"PH","latitude":"17.11750000","longitude":"120.45306000"},{"id":"84683","name":"Santa Maria","state_id":1355,"state_code":"01","country_id":174,"country_code":"PH","latitude":"16.95180000","longitude":"120.44450000"},{"id":"84709","name":"Santiago","state_id":1355,"state_code":"01","country_id":174,"country_code":"PH","latitude":"17.29390000","longitude":"120.44490000"},{"id":"84718","name":"Santo Domingo","state_id":1355,"state_code":"01","country_id":174,"country_code":"PH","latitude":"17.63528000","longitude":"120.41083000"},{"id":"84732","name":"Santo Tomas","state_id":1355,"state_code":"01","country_id":174,"country_code":"PH","latitude":"16.27980000","longitude":"120.37920000"},{"id":"84735","name":"Santol","state_id":1355,"state_code":"01","country_id":174,"country_code":"PH","latitude":"16.77200000","longitude":"120.46040000"},{"id":"84753","name":"Sarrat","state_id":1355,"state_code":"01","country_id":174,"country_code":"PH","latitude":"18.15740000","longitude":"120.64700000"},{"id":"84785","name":"Sigay","state_id":1355,"state_code":"01","country_id":174,"country_code":"PH","latitude":"17.08333000","longitude":"120.60000000"},{"id":"84807","name":"Sinait","state_id":1355,"state_code":"01","country_id":174,"country_code":"PH","latitude":"17.86640000","longitude":"120.45830000"},{"id":"84831","name":"Sison","state_id":1355,"state_code":"01","country_id":174,"country_code":"PH","latitude":"16.17389000","longitude":"120.51528000"},{"id":"84845","name":"Solsona","state_id":1355,"state_code":"01","country_id":174,"country_code":"PH","latitude":"18.09333000","longitude":"120.76972000"},{"id":"84847","name":"Sonquil","state_id":1355,"state_code":"01","country_id":174,"country_code":"PH","latitude":"15.98814000","longitude":"120.39057000"},{"id":"84851","name":"Sual","state_id":1355,"state_code":"01","country_id":174,"country_code":"PH","latitude":"16.06682000","longitude":"120.09414000"},{"id":"84856","name":"Subusub","state_id":1355,"state_code":"01","country_id":174,"country_code":"PH","latitude":"16.22689000","longitude":"120.49513000"},{"id":"84857","name":"Sudipen","state_id":1355,"state_code":"01","country_id":174,"country_code":"PH","latitude":"16.90560000","longitude":"120.46170000"},{"id":"84862","name":"Sugpon","state_id":1355,"state_code":"01","country_id":174,"country_code":"PH","latitude":"16.84340000","longitude":"120.51570000"},{"id":"84873","name":"Sumabnit","state_id":1355,"state_code":"01","country_id":174,"country_code":"PH","latitude":"16.03030000","longitude":"120.58320000"},{"id":"84884","name":"Suso","state_id":1355,"state_code":"01","country_id":174,"country_code":"PH","latitude":"17.35940000","longitude":"120.46110000"},{"id":"84886","name":"Suyo","state_id":1355,"state_code":"01","country_id":174,"country_code":"PH","latitude":"16.97620000","longitude":"120.52540000"},{"id":"84900","name":"Tablac","state_id":1355,"state_code":"01","country_id":174,"country_code":"PH","latitude":"17.21568000","longitude":"120.45428000"},{"id":"84915","name":"Tabug","state_id":1355,"state_code":"01","country_id":174,"country_code":"PH","latitude":"18.03430000","longitude":"120.54880000"},{"id":"84947","name":"Tagudin","state_id":1355,"state_code":"01","country_id":174,"country_code":"PH","latitude":"16.93550000","longitude":"120.44420000"},{"id":"84993","name":"Talospatang","state_id":1355,"state_code":"01","country_id":174,"country_code":"PH","latitude":"15.91701000","longitude":"120.44141000"},{"id":"84995","name":"Taloy","state_id":1355,"state_code":"01","country_id":174,"country_code":"PH","latitude":"15.92410000","longitude":"120.39649000"},{"id":"85002","name":"Tamayo","state_id":1355,"state_code":"01","country_id":174,"country_code":"PH","latitude":"15.87746000","longitude":"120.28455000"},{"id":"85020","name":"Tamorong","state_id":1355,"state_code":"01","country_id":174,"country_code":"PH","latitude":"17.33333000","longitude":"120.43333000"},{"id":"85033","name":"Tandoc","state_id":1355,"state_code":"01","country_id":174,"country_code":"PH","latitude":"15.95929000","longitude":"120.32914000"},{"id":"85041","name":"Tanolong","state_id":1355,"state_code":"01","country_id":174,"country_code":"PH","latitude":"15.80411000","longitude":"120.41409000"},{"id":"85081","name":"Tayug","state_id":1355,"state_code":"01","country_id":174,"country_code":"PH","latitude":"16.02740000","longitude":"120.74340000"},{"id":"85085","name":"Tebag East","state_id":1355,"state_code":"01","country_id":174,"country_code":"PH","latitude":"15.98123000","longitude":"120.46740000"},{"id":"85088","name":"Telbang","state_id":1355,"state_code":"01","country_id":174,"country_code":"PH","latitude":"16.17241000","longitude":"120.06074000"},{"id":"85100","name":"Tiep","state_id":1355,"state_code":"01","country_id":174,"country_code":"PH","latitude":"16.23820000","longitude":"119.86090000"},{"id":"85153","name":"Toboy","state_id":1355,"state_code":"01","country_id":174,"country_code":"PH","latitude":"16.02710000","longitude":"120.63690000"},{"id":"85154","name":"Tobuan","state_id":1355,"state_code":"01","country_id":174,"country_code":"PH","latitude":"16.05562000","longitude":"120.11024000"},{"id":"85155","name":"Tococ East","state_id":1355,"state_code":"01","country_id":174,"country_code":"PH","latitude":"15.82498000","longitude":"120.42605000"},{"id":"85156","name":"Tocok","state_id":1355,"state_code":"01","country_id":174,"country_code":"PH","latitude":"15.75000000","longitude":"120.30000000"},{"id":"85162","name":"Tombod","state_id":1355,"state_code":"01","country_id":174,"country_code":"PH","latitude":"15.93168000","longitude":"120.56721000"},{"id":"85167","name":"Tondol","state_id":1355,"state_code":"01","country_id":174,"country_code":"PH","latitude":"16.31040000","longitude":"120.01310000"},{"id":"85171","name":"Toritori","state_id":1355,"state_code":"01","country_id":174,"country_code":"PH","latitude":"16.23827000","longitude":"119.99561000"},{"id":"85186","name":"Tubao","state_id":1355,"state_code":"01","country_id":174,"country_code":"PH","latitude":"16.34820000","longitude":"120.41220000"},{"id":"85249","name":"Umanday Centro","state_id":1355,"state_code":"01","country_id":174,"country_code":"PH","latitude":"15.93800000","longitude":"120.21530000"},{"id":"85250","name":"Umingan","state_id":1355,"state_code":"01","country_id":174,"country_code":"PH","latitude":"15.90021000","longitude":"120.79841000"},{"id":"85261","name":"Unzad","state_id":1355,"state_code":"01","country_id":174,"country_code":"PH","latitude":"15.91889000","longitude":"120.53917000"},{"id":"85267","name":"Urbiztondo","state_id":1355,"state_code":"01","country_id":174,"country_code":"PH","latitude":"15.82270000","longitude":"120.32950000"},{"id":"85268","name":"Urdaneta","state_id":1355,"state_code":"01","country_id":174,"country_code":"PH","latitude":"15.97611000","longitude":"120.57111000"},{"id":"85273","name":"Uyong","state_id":1355,"state_code":"01","country_id":174,"country_code":"PH","latitude":"16.05002000","longitude":"120.12074000"},{"id":"85290","name":"Vigan","state_id":1355,"state_code":"01","country_id":174,"country_code":"PH","latitude":"17.57472000","longitude":"120.38694000"},{"id":"85297","name":"Villanueva","state_id":1355,"state_code":"01","country_id":174,"country_code":"PH","latitude":"15.79841000","longitude":"120.54654000"},{"id":"85301","name":"Villasis","state_id":1355,"state_code":"01","country_id":174,"country_code":"PH","latitude":"15.90167000","longitude":"120.58833000"},{"id":"85303","name":"Vintar","state_id":1355,"state_code":"01","country_id":174,"country_code":"PH","latitude":"18.22840000","longitude":"120.64750000"},{"id":"85326","name":"Zaragoza","state_id":1355,"state_code":"01","country_id":174,"country_code":"PH","latitude":"16.38710000","longitude":"119.94430000"}]