[{"id":"81141","name":"Abuyon","state_id":1356,"state_code":"MDC","country_id":174,"country_code":"PH","latitude":"13.62260000","longitude":"122.51910000"},{"id":"81151","name":"Aga","state_id":1356,"state_code":"MDC","country_id":174,"country_code":"PH","latitude":"14.09650000","longitude":"120.80217000"},{"id":"81157","name":"Agdangan","state_id":1356,"state_code":"MDC","country_id":174,"country_code":"PH","latitude":"13.87710000","longitude":"121.91305000"},{"id":"81162","name":"Agoncillo","state_id":1356,"state_code":"MDC","country_id":174,"country_code":"PH","latitude":"13.93556000","longitude":"120.93261000"},{"id":"81176","name":"Alabat","state_id":1356,"state_code":"MDC","country_id":174,"country_code":"PH","latitude":"14.10100000","longitude":"122.01250000"},{"id":"81184","name":"Alaminos","state_id":1356,"state_code":"MDC","country_id":174,"country_code":"PH","latitude":"14.06391000","longitude":"121.24649000"},{"id":"81205","name":"Alfonso","state_id":1356,"state_code":"MDC","country_id":174,"country_code":"PH","latitude":"14.14083000","longitude":"120.85389000"},{"id":"81208","name":"Aliang","state_id":1356,"state_code":"MDC","country_id":174,"country_code":"PH","latitude":"14.28333000","longitude":"120.88333000"},{"id":"81221","name":"Alitagtag","state_id":1356,"state_code":"MDC","country_id":174,"country_code":"PH","latitude":"13.86450000","longitude":"121.00410000"},{"id":"81237","name":"Alupay","state_id":1356,"state_code":"MDC","country_id":174,"country_code":"PH","latitude":"13.84696000","longitude":"121.30719000"},{"id":"81239","name":"Amadeo","state_id":1356,"state_code":"MDC","country_id":174,"country_code":"PH","latitude":"14.17056000","longitude":"120.92361000"},{"id":"81244","name":"Ambulong","state_id":1356,"state_code":"MDC","country_id":174,"country_code":"PH","latitude":"14.08804000","longitude":"121.06127000"},{"id":"81269","name":"Angono","state_id":1356,"state_code":"MDC","country_id":174,"country_code":"PH","latitude":"14.52660000","longitude":"121.15360000"},{"id":"81283","name":"Antipolo","state_id":1356,"state_code":"MDC","country_id":174,"country_code":"PH","latitude":"14.62578000","longitude":"121.12251000"},{"id":"81288","name":"Anuling","state_id":1356,"state_code":"MDC","country_id":174,"country_code":"PH","latitude":"14.12388000","longitude":"120.89220000"},{"id":"81297","name":"Aplaya","state_id":1356,"state_code":"MDC","country_id":174,"country_code":"PH","latitude":"14.32106000","longitude":"121.11369000"},{"id":"81325","name":"Atimonan","state_id":1356,"state_code":"MDC","country_id":174,"country_code":"PH","latitude":"14.00270000","longitude":"121.92078000"},{"id":"81332","name":"Aurora","state_id":1356,"state_code":"MDC","country_id":174,"country_code":"PH","latitude":"13.34760000","longitude":"122.51950000"},{"id":"81340","name":"Aya","state_id":1356,"state_code":"MDC","country_id":174,"country_code":"PH","latitude":"13.89450000","longitude":"121.11390000"},{"id":"81343","name":"Ayusan Uno","state_id":1356,"state_code":"MDC","country_id":174,"country_code":"PH","latitude":"13.95609000","longitude":"121.30765000"},{"id":"81370","name":"Bacoor","state_id":1356,"state_code":"MDC","country_id":174,"country_code":"PH","latitude":"14.45896000","longitude":"120.93851000"},{"id":"81390","name":"Bagalangit","state_id":1356,"state_code":"MDC","country_id":174,"country_code":"PH","latitude":"13.71041000","longitude":"120.88467000"},{"id":"81397","name":"Bagombong","state_id":1356,"state_code":"MDC","country_id":174,"country_code":"PH","latitude":"14.34130000","longitude":"121.37750000"},{"id":"81399","name":"Bagong Pagasa","state_id":1356,"state_code":"MDC","country_id":174,"country_code":"PH","latitude":"14.66270000","longitude":"121.03280000"},{"id":"81414","name":"Bagupaye","state_id":1356,"state_code":"MDC","country_id":174,"country_code":"PH","latitude":"13.56500000","longitude":"122.39020000"},{"id":"81436","name":"Balagtasin","state_id":1356,"state_code":"MDC","country_id":174,"country_code":"PH","latitude":"13.90180000","longitude":"121.08890000"},{"id":"81455","name":"Balayan","state_id":1356,"state_code":"MDC","country_id":174,"country_code":"PH","latitude":"13.93714000","longitude":"120.73224000"},{"id":"81459","name":"Balele","state_id":1356,"state_code":"MDC","country_id":174,"country_code":"PH","latitude":"14.06532000","longitude":"121.09363000"},{"id":"81463","name":"Balete","state_id":1356,"state_code":"MDC","country_id":174,"country_code":"PH","latitude":"14.01983000","longitude":"121.09506000"},{"id":"81467","name":"Balibago","state_id":1356,"state_code":"MDC","country_id":174,"country_code":"PH","latitude":"13.92572000","longitude":"120.62556000"},{"id":"81482","name":"Balite Segundo","state_id":1356,"state_code":"MDC","country_id":174,"country_code":"PH","latitude":"14.18320000","longitude":"120.97433000"},{"id":"81483","name":"Balitoc","state_id":1356,"state_code":"MDC","country_id":174,"country_code":"PH","latitude":"13.86269000","longitude":"120.63554000"},{"id":"81512","name":"Banaba","state_id":1356,"state_code":"MDC","country_id":174,"country_code":"PH","latitude":"14.21667000","longitude":"120.85000000"},{"id":"81514","name":"Banalo","state_id":1356,"state_code":"MDC","country_id":174,"country_code":"PH","latitude":"13.64640000","longitude":"121.18170000"},{"id":"81518","name":"Banaybanay","state_id":1356,"state_code":"MDC","country_id":174,"country_code":"PH","latitude":"13.93310000","longitude":"121.11510000"},{"id":"81540","name":"Banilad","state_id":1356,"state_code":"MDC","country_id":174,"country_code":"PH","latitude":"14.06670000","longitude":"120.73470000"},{"id":"81554","name":"Bantilan","state_id":1356,"state_code":"MDC","country_id":174,"country_code":"PH","latitude":"14.75814000","longitude":"121.66902000"},{"id":"81559","name":"Banugao","state_id":1356,"state_code":"MDC","country_id":174,"country_code":"PH","latitude":"14.74825000","longitude":"121.61840000"},{"id":"81568","name":"Baras","state_id":1356,"state_code":"MDC","country_id":174,"country_code":"PH","latitude":"14.51691000","longitude":"121.26580000"},{"id":"81615","name":"Batangas","state_id":1356,"state_code":"MDC","country_id":174,"country_code":"PH","latitude":"13.75670000","longitude":"121.05840000"},{"id":"81618","name":"Batas","state_id":1356,"state_code":"MDC","country_id":174,"country_code":"PH","latitude":"14.20000000","longitude":"120.81667000"},{"id":"81640","name":"Bauan","state_id":1356,"state_code":"MDC","country_id":174,"country_code":"PH","latitude":"13.79170000","longitude":"121.00850000"},{"id":"81647","name":"Bautista","state_id":1356,"state_code":"MDC","country_id":174,"country_code":"PH","latitude":"13.99444000","longitude":"121.27778000"},{"id":"81650","name":"Bay","state_id":1356,"state_code":"MDC","country_id":174,"country_code":"PH","latitude":"14.18368000","longitude":"121.28554000"},{"id":"81664","name":"Baybayin","state_id":1356,"state_code":"MDC","country_id":174,"country_code":"PH","latitude":"13.82083000","longitude":"121.26992000"},{"id":"81749","name":"Bi\u00f1an","state_id":1356,"state_code":"MDC","country_id":174,"country_code":"PH","latitude":"14.34267000","longitude":"121.08071000"},{"id":"81691","name":"Biga","state_id":1356,"state_code":"MDC","country_id":174,"country_code":"PH","latitude":"14.25759000","longitude":"120.97195000"},{"id":"81696","name":"Bignay Uno","state_id":1356,"state_code":"MDC","country_id":174,"country_code":"PH","latitude":"13.86445000","longitude":"121.48792000"},{"id":"81702","name":"Bilaran","state_id":1356,"state_code":"MDC","country_id":174,"country_code":"PH","latitude":"14.03528000","longitude":"120.71028000"},{"id":"81704","name":"Bilog-Bilog","state_id":1356,"state_code":"MDC","country_id":174,"country_code":"PH","latitude":"14.11361000","longitude":"121.08861000"},{"id":"81708","name":"Binahaan","state_id":1356,"state_code":"MDC","country_id":174,"country_code":"PH","latitude":"13.99170000","longitude":"121.75391000"},{"id":"81712","name":"Binangonan","state_id":1356,"state_code":"MDC","country_id":174,"country_code":"PH","latitude":"14.46460000","longitude":"121.19290000"},{"id":"81715","name":"Binay","state_id":1356,"state_code":"MDC","country_id":174,"country_code":"PH","latitude":"13.50190000","longitude":"122.59830000"},{"id":"81733","name":"Binubusan","state_id":1356,"state_code":"MDC","country_id":174,"country_code":"PH","latitude":"13.96947000","longitude":"120.63572000"},{"id":"81735","name":"Binulasan","state_id":1356,"state_code":"MDC","country_id":174,"country_code":"PH","latitude":"14.73159000","longitude":"121.69781000"},{"id":"81741","name":"Bitangan","state_id":1356,"state_code":"MDC","country_id":174,"country_code":"PH","latitude":"14.25389000","longitude":"120.87833000"},{"id":"81744","name":"Bitin","state_id":1356,"state_code":"MDC","country_id":174,"country_code":"PH","latitude":"14.11647000","longitude":"121.22194000"},{"id":"81767","name":"Bolboc","state_id":1356,"state_code":"MDC","country_id":174,"country_code":"PH","latitude":"14.02074000","longitude":"120.75595000"},{"id":"81775","name":"Bolo","state_id":1356,"state_code":"MDC","country_id":174,"country_code":"PH","latitude":"13.78991000","longitude":"120.98173000"},{"id":"81795","name":"Boot","state_id":1356,"state_code":"MDC","country_id":174,"country_code":"PH","latitude":"14.04556000","longitude":"121.07722000"},{"id":"81800","name":"Bosdak","state_id":1356,"state_code":"MDC","country_id":174,"country_code":"PH","latitude":"13.40000000","longitude":"122.50000000"},{"id":"81839","name":"Bugaan","state_id":1356,"state_code":"MDC","country_id":174,"country_code":"PH","latitude":"14.03987000","longitude":"120.93609000"},{"id":"81855","name":"Bukal","state_id":1356,"state_code":"MDC","country_id":174,"country_code":"PH","latitude":"13.91320000","longitude":"121.52640000"},{"id":"81856","name":"Bukal Sur","state_id":1356,"state_code":"MDC","country_id":174,"country_code":"PH","latitude":"13.93806000","longitude":"121.38556000"},{"id":"81862","name":"Bulacnin","state_id":1356,"state_code":"MDC","country_id":174,"country_code":"PH","latitude":"13.99030000","longitude":"121.13900000"},{"id":"81875","name":"Bulihan","state_id":1356,"state_code":"MDC","country_id":174,"country_code":"PH","latitude":"14.27820000","longitude":"120.99503000"},{"id":"81896","name":"Bungahan","state_id":1356,"state_code":"MDC","country_id":174,"country_code":"PH","latitude":"13.94286000","longitude":"120.66178000"},{"id":"81897","name":"Bungoy","state_id":1356,"state_code":"MDC","country_id":174,"country_code":"PH","latitude":"13.99779000","longitude":"121.36564000"},{"id":"81906","name":"Burdeos","state_id":1356,"state_code":"MDC","country_id":174,"country_code":"PH","latitude":"14.84302000","longitude":"121.96906000"},{"id":"81945","name":"Cabanbanan","state_id":1356,"state_code":"MDC","country_id":174,"country_code":"PH","latitude":"14.24040000","longitude":"121.43410000"},{"id":"81955","name":"Cabatang","state_id":1356,"state_code":"MDC","country_id":174,"country_code":"PH","latitude":"13.96690000","longitude":"121.36680000"},{"id":"81959","name":"Cabay","state_id":1356,"state_code":"MDC","country_id":174,"country_code":"PH","latitude":"13.87080000","longitude":"121.37992000"},{"id":"81986","name":"Cabuyao","state_id":1356,"state_code":"MDC","country_id":174,"country_code":"PH","latitude":"14.27260000","longitude":"121.12620000"},{"id":"81999","name":"Cagsiay","state_id":1356,"state_code":"MDC","country_id":174,"country_code":"PH","latitude":"14.21667000","longitude":"121.75000000"},{"id":"82003","name":"Cainta","state_id":1356,"state_code":"MDC","country_id":174,"country_code":"PH","latitude":"14.57860000","longitude":"121.12220000"},{"id":"82012","name":"Calaca","state_id":1356,"state_code":"MDC","country_id":174,"country_code":"PH","latitude":"13.93244000","longitude":"120.81327000"},{"id":"82018","name":"Calamba","state_id":1356,"state_code":"MDC","country_id":174,"country_code":"PH","latitude":"14.21167000","longitude":"121.16528000"},{"id":"82027","name":"Calantas","state_id":1356,"state_code":"MDC","country_id":174,"country_code":"PH","latitude":"13.97202000","longitude":"120.77456000"},{"id":"82036","name":"Calatagan","state_id":1356,"state_code":"MDC","country_id":174,"country_code":"PH","latitude":"13.83224000","longitude":"120.63219000"},{"id":"82041","name":"Calauag","state_id":1356,"state_code":"MDC","country_id":174,"country_code":"PH","latitude":"13.95750000","longitude":"122.28800000"},{"id":"82042","name":"Calauan","state_id":1356,"state_code":"MDC","country_id":174,"country_code":"PH","latitude":"14.14989000","longitude":"121.31520000"},{"id":"82052","name":"Calilayan","state_id":1356,"state_code":"MDC","country_id":174,"country_code":"PH","latitude":"13.85030000","longitude":"121.93000000"},{"id":"82067","name":"Calubcub Dos","state_id":1356,"state_code":"MDC","country_id":174,"country_code":"PH","latitude":"13.73930000","longitude":"121.42193000"},{"id":"82070","name":"Calumpang","state_id":1356,"state_code":"MDC","country_id":174,"country_code":"PH","latitude":"14.19660000","longitude":"121.40200000"},{"id":"82087","name":"Cambuga","state_id":1356,"state_code":"MDC","country_id":174,"country_code":"PH","latitude":"13.61667000","longitude":"122.45000000"},{"id":"82093","name":"Camohaguin","state_id":1356,"state_code":"MDC","country_id":174,"country_code":"PH","latitude":"13.90890000","longitude":"122.16660000"},{"id":"82094","name":"Camp Flora","state_id":1356,"state_code":"MDC","country_id":174,"country_code":"PH","latitude":"13.35080000","longitude":"122.66410000"},{"id":"82108","name":"Candelaria","state_id":1356,"state_code":"MDC","country_id":174,"country_code":"PH","latitude":"13.93111000","longitude":"121.42333000"},{"id":"82144","name":"Capuluan","state_id":1356,"state_code":"MDC","country_id":174,"country_code":"PH","latitude":"13.81620000","longitude":"122.51580000"},{"id":"82158","name":"Cardona","state_id":1356,"state_code":"MDC","country_id":174,"country_code":"PH","latitude":"14.48646000","longitude":"121.22752000"},{"id":"82175","name":"Carmona","state_id":1356,"state_code":"MDC","country_id":174,"country_code":"PH","latitude":"14.31320000","longitude":"121.05760000"},{"id":"82190","name":"Casay","state_id":1356,"state_code":"MDC","country_id":174,"country_code":"PH","latitude":"13.26320000","longitude":"122.52170000"},{"id":"82195","name":"Casta\u00f1as","state_id":1356,"state_code":"MDC","country_id":174,"country_code":"PH","latitude":"13.87440000","longitude":"121.55330000"},{"id":"82199","name":"Casuguran","state_id":1356,"state_code":"MDC","country_id":174,"country_code":"PH","latitude":"14.71670000","longitude":"122.37422000"},{"id":"82203","name":"Catanauan","state_id":1356,"state_code":"MDC","country_id":174,"country_code":"PH","latitude":"13.59260000","longitude":"122.32150000"},{"id":"82225","name":"Cavinti","state_id":1356,"state_code":"MDC","country_id":174,"country_code":"PH","latitude":"14.24482000","longitude":"121.50797000"},{"id":"82227","name":"Cavite City","state_id":1356,"state_code":"MDC","country_id":174,"country_code":"PH","latitude":"14.48369000","longitude":"120.89878000"},{"id":"82231","name":"Cawayan","state_id":1356,"state_code":"MDC","country_id":174,"country_code":"PH","latitude":"13.36720000","longitude":"122.50940000"},{"id":"82244","name":"Cigaras","state_id":1356,"state_code":"MDC","country_id":174,"country_code":"PH","latitude":"14.22660000","longitude":"121.42980000"},{"id":"82276","name":"Concepcion Ibaba","state_id":1356,"state_code":"MDC","country_id":174,"country_code":"PH","latitude":"13.92309000","longitude":"121.46099000"},{"id":"82307","name":"Cuenca","state_id":1356,"state_code":"MDC","country_id":174,"country_code":"PH","latitude":"13.90200000","longitude":"121.05210000"},{"id":"82333","name":"Dagatan","state_id":1356,"state_code":"MDC","country_id":174,"country_code":"PH","latitude":"14.00170000","longitude":"121.37670000"},{"id":"82384","name":"Daraitan","state_id":1356,"state_code":"MDC","country_id":174,"country_code":"PH","latitude":"14.60280000","longitude":"121.43190000"},{"id":"82387","name":"Dasmari\u00f1as","state_id":1356,"state_code":"MDC","country_id":174,"country_code":"PH","latitude":"14.32944000","longitude":"120.93667000"},{"id":"82399","name":"Dayap","state_id":1356,"state_code":"MDC","country_id":174,"country_code":"PH","latitude":"14.18014000","longitude":"121.33335000"},{"id":"82400","name":"Dayapan","state_id":1356,"state_code":"MDC","country_id":174,"country_code":"PH","latitude":"13.93723000","longitude":"120.91620000"},{"id":"82407","name":"Del Monte","state_id":1356,"state_code":"MDC","country_id":174,"country_code":"PH","latitude":"14.64180000","longitude":"121.01770000"},{"id":"82435","name":"Dinahican","state_id":1356,"state_code":"MDC","country_id":174,"country_code":"PH","latitude":"14.71667000","longitude":"121.71667000"},{"id":"82453","name":"Dolores","state_id":1356,"state_code":"MDC","country_id":174,"country_code":"PH","latitude":"14.02265000","longitude":"121.41008000"},{"id":"82536","name":"Famy","state_id":1356,"state_code":"MDC","country_id":174,"country_code":"PH","latitude":"14.43760000","longitude":"121.44820000"},{"id":"82575","name":"General Emilio Aguinaldo","state_id":1356,"state_code":"MDC","country_id":174,"country_code":"PH","latitude":"14.18417000","longitude":"120.79583000"},{"id":"82577","name":"General Luna","state_id":1356,"state_code":"MDC","country_id":174,"country_code":"PH","latitude":"13.68660000","longitude":"122.17090000"},{"id":"82581","name":"General Nakar","state_id":1356,"state_code":"MDC","country_id":174,"country_code":"PH","latitude":"14.76365000","longitude":"121.63559000"},{"id":"82584","name":"General Trias","state_id":1356,"state_code":"MDC","country_id":174,"country_code":"PH","latitude":"14.38694000","longitude":"120.88167000"},{"id":"82630","name":"Guinayangan, Fourth District of Quezon","state_id":1356,"state_code":"MDC","country_id":174,"country_code":"PH","latitude":"13.90020000","longitude":"122.44808000"},{"id":"82648","name":"Guisguis","state_id":1356,"state_code":"MDC","country_id":174,"country_code":"PH","latitude":"13.87380000","longitude":"121.51890000"},{"id":"82652","name":"Gulod","state_id":1356,"state_code":"MDC","country_id":174,"country_code":"PH","latitude":"14.34490000","longitude":"121.21770000"},{"id":"82653","name":"Gumaca","state_id":1356,"state_code":"MDC","country_id":174,"country_code":"PH","latitude":"13.92100000","longitude":"122.10020000"},{"id":"82656","name":"Gumian","state_id":1356,"state_code":"MDC","country_id":174,"country_code":"PH","latitude":"14.71006000","longitude":"121.61867000"},{"id":"82661","name":"Guyam Malaki","state_id":1356,"state_code":"MDC","country_id":174,"country_code":"PH","latitude":"14.15250000","longitude":"120.86111000"},{"id":"82672","name":"Halayhay","state_id":1356,"state_code":"MDC","country_id":174,"country_code":"PH","latitude":"14.37389000","longitude":"120.81333000"},{"id":"82673","name":"Halayhayin","state_id":1356,"state_code":"MDC","country_id":174,"country_code":"PH","latitude":"14.18910000","longitude":"121.40750000"},{"id":"82674","name":"Haligue","state_id":1356,"state_code":"MDC","country_id":174,"country_code":"PH","latitude":"13.66667000","longitude":"121.11667000"},{"id":"82704","name":"Hondagua","state_id":1356,"state_code":"MDC","country_id":174,"country_code":"PH","latitude":"13.94550000","longitude":"122.24170000"},{"id":"82705","name":"Hukay","state_id":1356,"state_code":"MDC","country_id":174,"country_code":"PH","latitude":"13.84519000","longitude":"120.70287000"},{"id":"82707","name":"Ibaan","state_id":1356,"state_code":"MDC","country_id":174,"country_code":"PH","latitude":"13.81760000","longitude":"121.13300000"},{"id":"82708","name":"Ibabang Tayuman","state_id":1356,"state_code":"MDC","country_id":174,"country_code":"PH","latitude":"13.40420000","longitude":"122.51650000"},{"id":"82728","name":"Ilihan","state_id":1356,"state_code":"MDC","country_id":174,"country_code":"PH","latitude":"13.63100000","longitude":"121.07090000"},{"id":"82738","name":"Imus","state_id":1356,"state_code":"MDC","country_id":174,"country_code":"PH","latitude":"14.42972000","longitude":"120.93667000"},{"id":"82746","name":"Indang","state_id":1356,"state_code":"MDC","country_id":174,"country_code":"PH","latitude":"14.19528000","longitude":"120.87694000"},{"id":"82750","name":"Infanta","state_id":1356,"state_code":"MDC","country_id":174,"country_code":"PH","latitude":"14.74495000","longitude":"121.64953000"},{"id":"82751","name":"Inicbulan","state_id":1356,"state_code":"MDC","country_id":174,"country_code":"PH","latitude":"13.82043000","longitude":"120.98345000"},{"id":"82768","name":"Isabang","state_id":1356,"state_code":"MDC","country_id":174,"country_code":"PH","latitude":"13.95694000","longitude":"121.57083000"},{"id":"82785","name":"Jalajala","state_id":1356,"state_code":"MDC","country_id":174,"country_code":"PH","latitude":"14.35300000","longitude":"121.32250000"},{"id":"82790","name":"Janagdong","state_id":1356,"state_code":"MDC","country_id":174,"country_code":"PH","latitude":"13.90340000","longitude":"121.51340000"},{"id":"82793","name":"Janopol","state_id":1356,"state_code":"MDC","country_id":174,"country_code":"PH","latitude":"14.08586000","longitude":"121.09489000"},{"id":"82800","name":"Javalera","state_id":1356,"state_code":"MDC","country_id":174,"country_code":"PH","latitude":"14.25813000","longitude":"120.91558000"},{"id":"82831","name":"Kabulusan","state_id":1356,"state_code":"MDC","country_id":174,"country_code":"PH","latitude":"14.36150000","longitude":"121.40040000"},{"id":"82845","name":"Kalayaan","state_id":1356,"state_code":"MDC","country_id":174,"country_code":"PH","latitude":"14.35000000","longitude":"121.56667000"},{"id":"82863","name":"Kanluran","state_id":1356,"state_code":"MDC","country_id":174,"country_code":"PH","latitude":"14.41667000","longitude":"120.85000000"},{"id":"82869","name":"Kapatalan","state_id":1356,"state_code":"MDC","country_id":174,"country_code":"PH","latitude":"14.47410000","longitude":"121.49030000"},{"id":"82873","name":"Karligan","state_id":1356,"state_code":"MDC","country_id":174,"country_code":"PH","latitude":"14.97561000","longitude":"122.04272000"},{"id":"82889","name":"Kawit","state_id":1356,"state_code":"MDC","country_id":174,"country_code":"PH","latitude":"14.44426000","longitude":"120.90164000"},{"id":"82890","name":"Kaytitinga","state_id":1356,"state_code":"MDC","country_id":174,"country_code":"PH","latitude":"14.10722000","longitude":"120.82917000"},{"id":"82901","name":"Kiloloran","state_id":1356,"state_code":"MDC","country_id":174,"country_code":"PH","latitude":"14.63571000","longitude":"121.60617000"},{"id":"82906","name":"Kinalaglagan","state_id":1356,"state_code":"MDC","country_id":174,"country_code":"PH","latitude":"14.00149000","longitude":"121.09772000"},{"id":"82910","name":"Kinatakutan","state_id":1356,"state_code":"MDC","country_id":174,"country_code":"PH","latitude":"13.95500000","longitude":"122.46780000"},{"id":"82971","name":"Lacdayan","state_id":1356,"state_code":"MDC","country_id":174,"country_code":"PH","latitude":"13.60000000","longitude":"122.53333000"},{"id":"82984","name":"Laiya","state_id":1356,"state_code":"MDC","country_id":174,"country_code":"PH","latitude":"13.68031000","longitude":"121.40081000"},{"id":"82991","name":"Lalig","state_id":1356,"state_code":"MDC","country_id":174,"country_code":"PH","latitude":"13.98255000","longitude":"121.32647000"},{"id":"83036","name":"Lapolapo","state_id":1356,"state_code":"MDC","country_id":174,"country_code":"PH","latitude":"13.83410000","longitude":"121.13790000"},{"id":"83051","name":"Laurel","state_id":1356,"state_code":"MDC","country_id":174,"country_code":"PH","latitude":"14.05542000","longitude":"120.91932000"},{"id":"83063","name":"Lemery","state_id":1356,"state_code":"MDC","country_id":174,"country_code":"PH","latitude":"13.88090000","longitude":"120.91389000"},{"id":"83073","name":"Lian","state_id":1356,"state_code":"MDC","country_id":174,"country_code":"PH","latitude":"14.03364000","longitude":"120.64928000"},{"id":"83082","name":"Libato","state_id":1356,"state_code":"MDC","country_id":174,"country_code":"PH","latitude":"13.81514000","longitude":"121.33463000"},{"id":"83109","name":"Lilio","state_id":1356,"state_code":"MDC","country_id":174,"country_code":"PH","latitude":"14.13130000","longitude":"121.43620000"},{"id":"83146","name":"Lipa City","state_id":1356,"state_code":"MDC","country_id":174,"country_code":"PH","latitude":"13.94110000","longitude":"121.16310000"},{"id":"83147","name":"Lipahan","state_id":1356,"state_code":"MDC","country_id":174,"country_code":"PH","latitude":"13.83687000","longitude":"121.40167000"},{"id":"83158","name":"Lobo","state_id":1356,"state_code":"MDC","country_id":174,"country_code":"PH","latitude":"13.64810000","longitude":"121.21120000"},{"id":"83173","name":"Looc","state_id":1356,"state_code":"MDC","country_id":174,"country_code":"PH","latitude":"14.16480000","longitude":"120.62930000"},{"id":"83177","name":"Lopez","state_id":1356,"state_code":"MDC","country_id":174,"country_code":"PH","latitude":"13.88400000","longitude":"122.26040000"},{"id":"83185","name":"Los Ba\u00f1os","state_id":1356,"state_code":"MDC","country_id":174,"country_code":"PH","latitude":"14.17025000","longitude":"121.24181000"},{"id":"83198","name":"Lucban","state_id":1356,"state_code":"MDC","country_id":174,"country_code":"PH","latitude":"14.11356000","longitude":"121.55574000"},{"id":"83201","name":"Lucena","state_id":1356,"state_code":"MDC","country_id":174,"country_code":"PH","latitude":"13.93139000","longitude":"121.61722000"},{"id":"83204","name":"Lucsuhin","state_id":1356,"state_code":"MDC","country_id":174,"country_code":"PH","latitude":"13.88186000","longitude":"120.64131000"},{"id":"83209","name":"Luisiana","state_id":1356,"state_code":"MDC","country_id":174,"country_code":"PH","latitude":"14.18500000","longitude":"121.51090000"},{"id":"83212","name":"Luksuhin","state_id":1356,"state_code":"MDC","country_id":174,"country_code":"PH","latitude":"14.09667000","longitude":"120.88083000"},{"id":"83217","name":"Lumbang","state_id":1356,"state_code":"MDC","country_id":174,"country_code":"PH","latitude":"14.29730000","longitude":"121.45980000"},{"id":"83218","name":"Lumbangan","state_id":1356,"state_code":"MDC","country_id":174,"country_code":"PH","latitude":"14.05240000","longitude":"120.66670000"},{"id":"83225","name":"Lumil","state_id":1356,"state_code":"MDC","country_id":174,"country_code":"PH","latitude":"14.18144000","longitude":"121.00989000"},{"id":"83241","name":"Luntal","state_id":1356,"state_code":"MDC","country_id":174,"country_code":"PH","latitude":"14.02920000","longitude":"120.71740000"},{"id":"83248","name":"Lusacan","state_id":1356,"state_code":"MDC","country_id":174,"country_code":"PH","latitude":"13.95523000","longitude":"121.34477000"},{"id":"83275","name":"Mabini","state_id":1356,"state_code":"MDC","country_id":174,"country_code":"PH","latitude":"13.75324000","longitude":"120.94049000"},{"id":"83284","name":"Mabitac","state_id":1356,"state_code":"MDC","country_id":174,"country_code":"PH","latitude":"14.42590000","longitude":"121.42900000"},{"id":"83289","name":"Mabunga","state_id":1356,"state_code":"MDC","country_id":174,"country_code":"PH","latitude":"13.86340000","longitude":"122.06770000"},{"id":"83297","name":"Macalamcam A","state_id":1356,"state_code":"MDC","country_id":174,"country_code":"PH","latitude":"13.85660000","longitude":"121.32814000"},{"id":"83299","name":"Macalelon","state_id":1356,"state_code":"MDC","country_id":174,"country_code":"PH","latitude":"13.74694000","longitude":"122.13861000"},{"id":"83316","name":"Madulao","state_id":1356,"state_code":"MDC","country_id":174,"country_code":"PH","latitude":"13.56840000","longitude":"122.34130000"},{"id":"83322","name":"Magallanes","state_id":1356,"state_code":"MDC","country_id":174,"country_code":"PH","latitude":"14.18833000","longitude":"120.75750000"},{"id":"83331","name":"Magdalena","state_id":1356,"state_code":"MDC","country_id":174,"country_code":"PH","latitude":"14.19990000","longitude":"121.42900000"},{"id":"83345","name":"Magsaysay","state_id":1356,"state_code":"MDC","country_id":174,"country_code":"PH","latitude":"14.33880000","longitude":"121.03410000"},{"id":"83353","name":"Maguyam","state_id":1356,"state_code":"MDC","country_id":174,"country_code":"PH","latitude":"14.26277000","longitude":"121.00500000"},{"id":"83355","name":"Mahabang Parang","state_id":1356,"state_code":"MDC","country_id":174,"country_code":"PH","latitude":"13.98333000","longitude":"121.08333000"},{"id":"83372","name":"Mainit Norte","state_id":1356,"state_code":"MDC","country_id":174,"country_code":"PH","latitude":"14.16546000","longitude":"121.98496000"},{"id":"83374","name":"Majayjay","state_id":1356,"state_code":"MDC","country_id":174,"country_code":"PH","latitude":"14.14630000","longitude":"121.47290000"},{"id":"83380","name":"Malabag","state_id":1356,"state_code":"MDC","country_id":174,"country_code":"PH","latitude":"14.15520000","longitude":"120.96547000"},{"id":"83382","name":"Malabanan","state_id":1356,"state_code":"MDC","country_id":174,"country_code":"PH","latitude":"14.00000000","longitude":"121.13333000"},{"id":"83383","name":"Malabanban Norte","state_id":1356,"state_code":"MDC","country_id":174,"country_code":"PH","latitude":"13.94521000","longitude":"121.43065000"},{"id":"83395","name":"Malainen Luma","state_id":1356,"state_code":"MDC","country_id":174,"country_code":"PH","latitude":"14.27030000","longitude":"120.78840000"},{"id":"83402","name":"Malanday","state_id":1356,"state_code":"MDC","country_id":174,"country_code":"PH","latitude":"14.70690000","longitude":"121.13060000"},{"id":"83407","name":"Malaruhatan","state_id":1356,"state_code":"MDC","country_id":174,"country_code":"PH","latitude":"14.03060000","longitude":"120.68040000"},{"id":"83416","name":"Malaya","state_id":1356,"state_code":"MDC","country_id":174,"country_code":"PH","latitude":"14.39710000","longitude":"121.33850000"},{"id":"83426","name":"Malicboy","state_id":1356,"state_code":"MDC","country_id":174,"country_code":"PH","latitude":"13.98155000","longitude":"121.78888000"},{"id":"83438","name":"Malinao Ilaya","state_id":1356,"state_code":"MDC","country_id":174,"country_code":"PH","latitude":"13.99611000","longitude":"121.83577000"},{"id":"83465","name":"Malvar","state_id":1356,"state_code":"MDC","country_id":174,"country_code":"PH","latitude":"14.04472000","longitude":"121.15861000"},{"id":"83467","name":"Mamala","state_id":1356,"state_code":"MDC","country_id":174,"country_code":"PH","latitude":"14.01667000","longitude":"121.51667000"},{"id":"83469","name":"Mamatid","state_id":1356,"state_code":"MDC","country_id":174,"country_code":"PH","latitude":"14.23490000","longitude":"121.15902000"},{"id":"83512","name":"Mangas","state_id":1356,"state_code":"MDC","country_id":174,"country_code":"PH","latitude":"14.11769000","longitude":"120.86661000"},{"id":"83514","name":"Mangero","state_id":1356,"state_code":"MDC","country_id":174,"country_code":"PH","latitude":"13.27050000","longitude":"122.67740000"},{"id":"83516","name":"Manggahan","state_id":1356,"state_code":"MDC","country_id":174,"country_code":"PH","latitude":"14.29196000","longitude":"120.90145000"},{"id":"83555","name":"Mapulo","state_id":1356,"state_code":"MDC","country_id":174,"country_code":"PH","latitude":"13.73170000","longitude":"121.18420000"},{"id":"83556","name":"Mapulot","state_id":1356,"state_code":"MDC","country_id":174,"country_code":"PH","latitude":"14.03300000","longitude":"122.53990000"},{"id":"83560","name":"Maragondon","state_id":1356,"state_code":"MDC","country_id":174,"country_code":"PH","latitude":"14.27330000","longitude":"120.73770000"},{"id":"83564","name":"Marao","state_id":1356,"state_code":"MDC","country_id":174,"country_code":"PH","latitude":"13.91434000","longitude":"121.82409000"},{"id":"83594","name":"Masalukot Uno","state_id":1356,"state_code":"MDC","country_id":174,"country_code":"PH","latitude":"13.95533000","longitude":"121.41887000"},{"id":"83596","name":"Masapang","state_id":1356,"state_code":"MDC","country_id":174,"country_code":"PH","latitude":"14.19710000","longitude":"121.34230000"},{"id":"83599","name":"Masaya","state_id":1356,"state_code":"MDC","country_id":174,"country_code":"PH","latitude":"14.15189000","longitude":"121.28190000"},{"id":"83611","name":"Mataas Na Kahoy","state_id":1356,"state_code":"MDC","country_id":174,"country_code":"PH","latitude":"13.95890000","longitude":"121.11380000"},{"id":"83614","name":"Matagbak","state_id":1356,"state_code":"MDC","country_id":174,"country_code":"PH","latitude":"14.13056000","longitude":"120.83472000"},{"id":"83615","name":"Matala","state_id":1356,"state_code":"MDC","country_id":174,"country_code":"PH","latitude":"13.82870000","longitude":"121.15490000"},{"id":"83623","name":"Mataywanac","state_id":1356,"state_code":"MDC","country_id":174,"country_code":"PH","latitude":"14.03110000","longitude":"120.72960000"},{"id":"83628","name":"Matingain","state_id":1356,"state_code":"MDC","country_id":174,"country_code":"PH","latitude":"13.91290000","longitude":"120.88006000"},{"id":"83635","name":"Mauban","state_id":1356,"state_code":"MDC","country_id":174,"country_code":"PH","latitude":"14.19100000","longitude":"121.73090000"},{"id":"83637","name":"Maugat West","state_id":1356,"state_code":"MDC","country_id":174,"country_code":"PH","latitude":"13.86130000","longitude":"121.28276000"},{"id":"83639","name":"Maulawin","state_id":1356,"state_code":"MDC","country_id":174,"country_code":"PH","latitude":"14.26667000","longitude":"121.43333000"},{"id":"83658","name":"Mendez-Nu\u00f1ez","state_id":1356,"state_code":"MDC","country_id":174,"country_code":"PH","latitude":"14.12861000","longitude":"120.90583000"},{"id":"83706","name":"Montecillo","state_id":1356,"state_code":"MDC","country_id":174,"country_code":"PH","latitude":"13.89067000","longitude":"121.47575000"},{"id":"83713","name":"Morong","state_id":1356,"state_code":"MDC","country_id":174,"country_code":"PH","latitude":"14.51849000","longitude":"121.23778000"},{"id":"83718","name":"Mozon","state_id":1356,"state_code":"MDC","country_id":174,"country_code":"PH","latitude":"13.85260000","longitude":"120.98935000"},{"id":"83721","name":"Mulanay","state_id":1356,"state_code":"MDC","country_id":174,"country_code":"PH","latitude":"13.52222000","longitude":"122.40417000"},{"id":"83722","name":"Mulauin","state_id":1356,"state_code":"MDC","country_id":174,"country_code":"PH","latitude":"13.86667000","longitude":"121.01667000"},{"id":"83745","name":"Nagcarlan","state_id":1356,"state_code":"MDC","country_id":174,"country_code":"PH","latitude":"14.13640000","longitude":"121.41650000"},{"id":"83757","name":"Naic","state_id":1356,"state_code":"MDC","country_id":174,"country_code":"PH","latitude":"14.31812000","longitude":"120.76609000"},{"id":"83784","name":"Nasugbu","state_id":1356,"state_code":"MDC","country_id":174,"country_code":"PH","latitude":"14.06694000","longitude":"120.63181000"},{"id":"83796","name":"Navotas","state_id":1356,"state_code":"MDC","country_id":174,"country_code":"PH","latitude":"14.41670000","longitude":"121.22680000"},{"id":"83824","name":"Noveleta","state_id":1356,"state_code":"MDC","country_id":174,"country_code":"PH","latitude":"14.42922000","longitude":"120.87989000"},{"id":"83871","name":"Paagahan","state_id":1356,"state_code":"MDC","country_id":174,"country_code":"PH","latitude":"14.44470000","longitude":"121.40100000"},{"id":"83882","name":"Padre Burgos","state_id":1356,"state_code":"MDC","country_id":174,"country_code":"PH","latitude":"13.92260000","longitude":"121.81163000"},{"id":"83883","name":"Padre Garcia","state_id":1356,"state_code":"MDC","country_id":174,"country_code":"PH","latitude":"13.87910000","longitude":"121.21390000"},{"id":"83885","name":"Paete","state_id":1356,"state_code":"MDC","country_id":174,"country_code":"PH","latitude":"14.36470000","longitude":"121.48290000"},{"id":"83893","name":"Pagbilao","state_id":1356,"state_code":"MDC","country_id":174,"country_code":"PH","latitude":"13.96689000","longitude":"121.69835000"},{"id":"83898","name":"Pagsa\u00f1gahan","state_id":1356,"state_code":"MDC","country_id":174,"country_code":"PH","latitude":"13.21583000","longitude":"122.54306000"},{"id":"83897","name":"Pagsanjan","state_id":1356,"state_code":"MDC","country_id":174,"country_code":"PH","latitude":"14.27320000","longitude":"121.45520000"},{"id":"83900","name":"Paiisa","state_id":1356,"state_code":"MDC","country_id":174,"country_code":"PH","latitude":"13.92629000","longitude":"121.35415000"},{"id":"83906","name":"Pakil","state_id":1356,"state_code":"MDC","country_id":174,"country_code":"PH","latitude":"14.38350000","longitude":"121.47860000"},{"id":"83909","name":"Palahanan Uno","state_id":1356,"state_code":"MDC","country_id":174,"country_code":"PH","latitude":"13.83113000","longitude":"121.35639000"},{"id":"83913","name":"Palangue","state_id":1356,"state_code":"MDC","country_id":174,"country_code":"PH","latitude":"14.28417000","longitude":"120.81139000"},{"id":"83972","name":"Pangao","state_id":1356,"state_code":"MDC","country_id":174,"country_code":"PH","latitude":"13.91722000","longitude":"121.12556000"},{"id":"83978","name":"Pangil","state_id":1356,"state_code":"MDC","country_id":174,"country_code":"PH","latitude":"14.40330000","longitude":"121.46506000"},{"id":"83987","name":"Panikihan","state_id":1356,"state_code":"MDC","country_id":174,"country_code":"PH","latitude":"13.90830000","longitude":"122.13100000"},{"id":"83996","name":"Pansol","state_id":1356,"state_code":"MDC","country_id":174,"country_code":"PH","latitude":"13.88660000","longitude":"121.24320000"},{"id":"83997","name":"Pansoy","state_id":1356,"state_code":"MDC","country_id":174,"country_code":"PH","latitude":"13.18177000","longitude":"122.59989000"},{"id":"84002","name":"Pantay Na Matanda","state_id":1356,"state_code":"MDC","country_id":174,"country_code":"PH","latitude":"14.11750000","longitude":"121.12111000"},{"id":"84003","name":"Pantijan No 2","state_id":1356,"state_code":"MDC","country_id":174,"country_code":"PH","latitude":"14.23306000","longitude":"120.80056000"},{"id":"84007","name":"Panukulan","state_id":1356,"state_code":"MDC","country_id":174,"country_code":"PH","latitude":"14.93371000","longitude":"121.81685000"},{"id":"84014","name":"Paradahan","state_id":1356,"state_code":"MDC","country_id":174,"country_code":"PH","latitude":"14.32123000","longitude":"120.86059000"},{"id":"84033","name":"Pasong Kawayan Primero","state_id":1356,"state_code":"MDC","country_id":174,"country_code":"PH","latitude":"14.34317000","longitude":"120.88157000"},{"id":"84038","name":"Patabog","state_id":1356,"state_code":"MDC","country_id":174,"country_code":"PH","latitude":"13.44320000","longitude":"122.45570000"},{"id":"84046","name":"Patnanungan","state_id":1356,"state_code":"MDC","country_id":174,"country_code":"PH","latitude":"14.78333000","longitude":"122.18333000"},{"id":"84055","name":"Patuto","state_id":1356,"state_code":"MDC","country_id":174,"country_code":"PH","latitude":"14.11667000","longitude":"120.96667000"},{"id":"84068","name":"Payapa","state_id":1356,"state_code":"MDC","country_id":174,"country_code":"PH","latitude":"13.99803000","longitude":"120.89207000"},{"id":"84074","name":"Perez","state_id":1356,"state_code":"MDC","country_id":174,"country_code":"PH","latitude":"14.19465000","longitude":"121.92636000"},{"id":"84088","name":"Pila","state_id":1356,"state_code":"MDC","country_id":174,"country_code":"PH","latitude":"14.23250000","longitude":"121.36480000"},{"id":"84099","name":"Pililla","state_id":1356,"state_code":"MDC","country_id":174,"country_code":"PH","latitude":"14.48540000","longitude":"121.30620000"},{"id":"84102","name":"Pinagsibaan","state_id":1356,"state_code":"MDC","country_id":174,"country_code":"PH","latitude":"13.83479000","longitude":"121.32118000"},{"id":"84116","name":"Pinugay","state_id":1356,"state_code":"MDC","country_id":174,"country_code":"PH","latitude":"14.59670000","longitude":"121.26230000"},{"id":"84120","name":"Pitogo","state_id":1356,"state_code":"MDC","country_id":174,"country_code":"PH","latitude":"13.78380000","longitude":"122.09020000"},{"id":"84130","name":"Plaridel","state_id":1356,"state_code":"MDC","country_id":174,"country_code":"PH","latitude":"13.95510000","longitude":"122.02080000"},{"id":"84138","name":"Poctol","state_id":1356,"state_code":"MDC","country_id":174,"country_code":"PH","latitude":"13.82095000","longitude":"121.44184000"},{"id":"84145","name":"Polillo","state_id":1356,"state_code":"MDC","country_id":174,"country_code":"PH","latitude":"14.71699000","longitude":"121.94889000"},{"id":"84176","name":"Prinza","state_id":1356,"state_code":"MDC","country_id":174,"country_code":"PH","latitude":"13.99679000","longitude":"120.65409000"},{"id":"84177","name":"Progreso","state_id":1356,"state_code":"MDC","country_id":174,"country_code":"PH","latitude":"13.90830000","longitude":"122.09060000"},{"id":"84191","name":"Province of Batangas","state_id":1356,"state_code":"MDC","country_id":174,"country_code":"PH","latitude":"13.91667000","longitude":"121.08333000"},{"id":"84201","name":"Province of Cavite","state_id":1356,"state_code":"MDC","country_id":174,"country_code":"PH","latitude":"14.25000000","longitude":"120.83333000"},{"id":"84215","name":"Province of Laguna","state_id":1356,"state_code":"MDC","country_id":174,"country_code":"PH","latitude":"14.16667000","longitude":"121.33333000"},{"id":"84234","name":"Province of Quezon","state_id":1356,"state_code":"MDC","country_id":174,"country_code":"PH","latitude":"14.66667000","longitude":"121.50000000"},{"id":"84236","name":"Province of Rizal","state_id":1356,"state_code":"MDC","country_id":174,"country_code":"PH","latitude":"14.58333000","longitude":"121.16667000"},{"id":"84262","name":"Pulangbato","state_id":1356,"state_code":"MDC","country_id":174,"country_code":"PH","latitude":"13.75387000","longitude":"121.39266000"},{"id":"84264","name":"Pulo","state_id":1356,"state_code":"MDC","country_id":174,"country_code":"PH","latitude":"14.71462000","longitude":"121.63293000"},{"id":"84268","name":"Pulong Santa Cruz","state_id":1356,"state_code":"MDC","country_id":174,"country_code":"PH","latitude":"14.27324000","longitude":"121.07643000"},{"id":"84279","name":"Punta","state_id":1356,"state_code":"MDC","country_id":174,"country_code":"PH","latitude":"14.29140000","longitude":"121.30740000"},{"id":"84290","name":"Puting Kahoy","state_id":1356,"state_code":"MDC","country_id":174,"country_code":"PH","latitude":"14.21570000","longitude":"121.03100000"},{"id":"84291","name":"Putingkahoy","state_id":1356,"state_code":"MDC","country_id":174,"country_code":"PH","latitude":"13.83023000","longitude":"121.32753000"},{"id":"84293","name":"Putol","state_id":1356,"state_code":"MDC","country_id":174,"country_code":"PH","latitude":"13.99220000","longitude":"120.72750000"},{"id":"84295","name":"Quezon","state_id":1356,"state_code":"MDC","country_id":174,"country_code":"PH","latitude":"14.00570000","longitude":"122.18380000"},{"id":"84305","name":"Quilo-quilo","state_id":1356,"state_code":"MDC","country_id":174,"country_code":"PH","latitude":"13.86380000","longitude":"121.22090000"},{"id":"84313","name":"Quipot","state_id":1356,"state_code":"MDC","country_id":174,"country_code":"PH","latitude":"13.95560000","longitude":"121.31903000"},{"id":"84316","name":"Quisao","state_id":1356,"state_code":"MDC","country_id":174,"country_code":"PH","latitude":"14.43470000","longitude":"121.33440000"},{"id":"84331","name":"Real","state_id":1356,"state_code":"MDC","country_id":174,"country_code":"PH","latitude":"14.66397000","longitude":"121.60412000"},{"id":"84348","name":"Rizal","state_id":1356,"state_code":"MDC","country_id":174,"country_code":"PH","latitude":"14.10944000","longitude":"121.39360000"},{"id":"84350","name":"Rodriguez","state_id":1356,"state_code":"MDC","country_id":174,"country_code":"PH","latitude":"14.76011000","longitude":"121.19993000"},{"id":"84357","name":"Rosario","state_id":1356,"state_code":"MDC","country_id":174,"country_code":"PH","latitude":"13.86350000","longitude":"122.27310000"},{"id":"84369","name":"Sabang","state_id":1356,"state_code":"MDC","country_id":174,"country_code":"PH","latitude":"14.30556000","longitude":"120.80361000"},{"id":"84431","name":"Sampaloc","state_id":1356,"state_code":"MDC","country_id":174,"country_code":"PH","latitude":"14.54020000","longitude":"121.36020000"},{"id":"84435","name":"Sampiro","state_id":1356,"state_code":"MDC","country_id":174,"country_code":"PH","latitude":"13.78417000","longitude":"121.38417000"},{"id":"84443","name":"San Andres","state_id":1356,"state_code":"MDC","country_id":174,"country_code":"PH","latitude":"14.05000000","longitude":"121.21667000"},{"id":"84447","name":"San Antonio","state_id":1356,"state_code":"MDC","country_id":174,"country_code":"PH","latitude":"14.20000000","longitude":"121.50000000"},{"id":"84459","name":"San Carlos","state_id":1356,"state_code":"MDC","country_id":174,"country_code":"PH","latitude":"13.84220000","longitude":"121.24160000"},{"id":"84462","name":"San Celestio","state_id":1356,"state_code":"MDC","country_id":174,"country_code":"PH","latitude":"13.92580000","longitude":"121.23490000"},{"id":"84465","name":"San Diego","state_id":1356,"state_code":"MDC","country_id":174,"country_code":"PH","latitude":"14.04220000","longitude":"120.62550000"},{"id":"84484","name":"San Francisco","state_id":1356,"state_code":"MDC","country_id":174,"country_code":"PH","latitude":"13.79110000","longitude":"122.28760000"},{"id":"84494","name":"San Gregorio","state_id":1356,"state_code":"MDC","country_id":174,"country_code":"PH","latitude":"14.02970000","longitude":"121.26390000"},{"id":"84501","name":"San Isidro","state_id":1356,"state_code":"MDC","country_id":174,"country_code":"PH","latitude":"13.63250000","longitude":"122.24280000"},{"id":"84509","name":"San Joaquin","state_id":1356,"state_code":"MDC","country_id":174,"country_code":"PH","latitude":"14.04695000","longitude":"121.21864000"},{"id":"84520","name":"San Jose","state_id":1356,"state_code":"MDC","country_id":174,"country_code":"PH","latitude":"13.85209000","longitude":"120.94951000"},{"id":"84528","name":"San Juan","state_id":1356,"state_code":"MDC","country_id":174,"country_code":"PH","latitude":"14.05715000","longitude":"121.22931000"},{"id":"84540","name":"San Luis","state_id":1356,"state_code":"MDC","country_id":174,"country_code":"PH","latitude":"13.85469000","longitude":"120.91653000"},{"id":"84555","name":"San Mateo","state_id":1356,"state_code":"MDC","country_id":174,"country_code":"PH","latitude":"14.69820000","longitude":"121.12360000"},{"id":"84564","name":"San Miguel","state_id":1356,"state_code":"MDC","country_id":174,"country_code":"PH","latitude":"13.87400000","longitude":"121.19830000"},{"id":"84569","name":"San Narciso","state_id":1356,"state_code":"MDC","country_id":174,"country_code":"PH","latitude":"13.56770000","longitude":"122.56670000"},{"id":"84571","name":"San Nicolas","state_id":1356,"state_code":"MDC","country_id":174,"country_code":"PH","latitude":"13.92825000","longitude":"120.95100000"},{"id":"84575","name":"San Pablo","state_id":1356,"state_code":"MDC","country_id":174,"country_code":"PH","latitude":"14.06830000","longitude":"121.32560000"},{"id":"84578","name":"San Pascual","state_id":1356,"state_code":"MDC","country_id":174,"country_code":"PH","latitude":"13.81045000","longitude":"121.02200000"},{"id":"84586","name":"San Pedro","state_id":1356,"state_code":"MDC","country_id":174,"country_code":"PH","latitude":"14.35950000","longitude":"121.04730000"},{"id":"84590","name":"San Pedro One","state_id":1356,"state_code":"MDC","country_id":174,"country_code":"PH","latitude":"14.05341000","longitude":"121.14536000"},{"id":"84596","name":"San Rafael","state_id":1356,"state_code":"MDC","country_id":174,"country_code":"PH","latitude":"14.12840000","longitude":"121.41470000"},{"id":"84624","name":"San Vicente","state_id":1356,"state_code":"MDC","country_id":174,"country_code":"PH","latitude":"13.89670000","longitude":"122.20470000"},{"id":"84647","name":"Santa Catalina","state_id":1356,"state_code":"MDC","country_id":174,"country_code":"PH","latitude":"14.12130000","longitude":"121.34190000"},{"id":"84650","name":"Santa Catalina Norte","state_id":1356,"state_code":"MDC","country_id":174,"country_code":"PH","latitude":"13.87083000","longitude":"121.35750000"},{"id":"84651","name":"Santa Catalina Sur","state_id":1356,"state_code":"MDC","country_id":174,"country_code":"PH","latitude":"13.87384000","longitude":"121.43104000"},{"id":"84652","name":"Santa Cecilia","state_id":1356,"state_code":"MDC","country_id":174,"country_code":"PH","latitude":"14.10540000","longitude":"122.20160000"},{"id":"84653","name":"Santa Clara","state_id":1356,"state_code":"MDC","country_id":174,"country_code":"PH","latitude":"13.75361000","longitude":"121.06056000"},{"id":"84659","name":"Santa Cruz","state_id":1356,"state_code":"MDC","country_id":174,"country_code":"PH","latitude":"14.28140000","longitude":"121.41610000"},{"id":"84677","name":"Santa Lucia","state_id":1356,"state_code":"MDC","country_id":174,"country_code":"PH","latitude":"14.03490000","longitude":"121.43120000"},{"id":"84685","name":"Santa Maria","state_id":1356,"state_code":"MDC","country_id":174,"country_code":"PH","latitude":"14.47190000","longitude":"121.42860000"},{"id":"84698","name":"Santa Rita Aplaya","state_id":1356,"state_code":"MDC","country_id":174,"country_code":"PH","latitude":"13.77173000","longitude":"121.03492000"},{"id":"84699","name":"Santa Rosa","state_id":1356,"state_code":"MDC","country_id":174,"country_code":"PH","latitude":"14.31222000","longitude":"121.11139000"},{"id":"84707","name":"Santa Teresita","state_id":1356,"state_code":"MDC","country_id":174,"country_code":"PH","latitude":"13.86639000","longitude":"120.98139000"},{"id":"84712","name":"Santiago","state_id":1356,"state_code":"MDC","country_id":174,"country_code":"PH","latitude":"14.02110000","longitude":"121.27920000"},{"id":"84716","name":"Santisimo Rosario","state_id":1356,"state_code":"MDC","country_id":174,"country_code":"PH","latitude":"13.99661000","longitude":"121.30918000"},{"id":"84727","name":"Santo Ni\u00f1o","state_id":1356,"state_code":"MDC","country_id":174,"country_code":"PH","latitude":"13.84890000","longitude":"121.13280000"},{"id":"84731","name":"Santo Tomas","state_id":1356,"state_code":"MDC","country_id":174,"country_code":"PH","latitude":"14.10790000","longitude":"121.14136000"},{"id":"84738","name":"Santor","state_id":1356,"state_code":"MDC","country_id":174,"country_code":"PH","latitude":"14.09549000","longitude":"121.10874000"},{"id":"84752","name":"Sariaya","state_id":1356,"state_code":"MDC","country_id":174,"country_code":"PH","latitude":"13.96240000","longitude":"121.52650000"},{"id":"84775","name":"Sibulan","state_id":1356,"state_code":"MDC","country_id":174,"country_code":"PH","latitude":"14.75000000","longitude":"121.93333000"},{"id":"84781","name":"Sico Uno","state_id":1356,"state_code":"MDC","country_id":174,"country_code":"PH","latitude":"13.83010000","longitude":"121.37123000"},{"id":"84792","name":"Silang","state_id":1356,"state_code":"MDC","country_id":174,"country_code":"PH","latitude":"14.21567000","longitude":"120.97137000"},{"id":"84796","name":"Silongin","state_id":1356,"state_code":"MDC","country_id":174,"country_code":"PH","latitude":"13.29990000","longitude":"122.52170000"},{"id":"84809","name":"Sinala","state_id":1356,"state_code":"MDC","country_id":174,"country_code":"PH","latitude":"13.80570000","longitude":"120.97463000"},{"id":"84816","name":"Siniloan","state_id":1356,"state_code":"MDC","country_id":174,"country_code":"PH","latitude":"14.42160000","longitude":"121.44630000"},{"id":"84817","name":"Sinisian","state_id":1356,"state_code":"MDC","country_id":174,"country_code":"PH","latitude":"13.91560000","longitude":"120.84401000"},{"id":"84844","name":"Solo","state_id":1356,"state_code":"MDC","country_id":174,"country_code":"PH","latitude":"13.74691000","longitude":"120.90119000"},{"id":"84855","name":"Subic","state_id":1356,"state_code":"MDC","country_id":174,"country_code":"PH","latitude":"13.94859000","longitude":"120.94013000"},{"id":"84888","name":"Taal","state_id":1356,"state_code":"MDC","country_id":174,"country_code":"PH","latitude":"13.87992000","longitude":"120.92311000"},{"id":"84932","name":"Tagaytay","state_id":1356,"state_code":"MDC","country_id":174,"country_code":"PH","latitude":"14.09532000","longitude":"120.93355000"},{"id":"84933","name":"Tagbacan Ibaba","state_id":1356,"state_code":"MDC","country_id":174,"country_code":"PH","latitude":"13.60280000","longitude":"122.36870000"},{"id":"84942","name":"Tagkawayan Sabang","state_id":1356,"state_code":"MDC","country_id":174,"country_code":"PH","latitude":"13.99090000","longitude":"122.52980000"},{"id":"84958","name":"Tala","state_id":1356,"state_code":"MDC","country_id":174,"country_code":"PH","latitude":"13.27420000","longitude":"122.58590000"},{"id":"84963","name":"Talaga","state_id":1356,"state_code":"MDC","country_id":174,"country_code":"PH","latitude":"13.73646000","longitude":"120.93618000"},{"id":"84965","name":"Talahib Payap","state_id":1356,"state_code":"MDC","country_id":174,"country_code":"PH","latitude":"13.66083000","longitude":"121.13639000"},{"id":"84966","name":"Talahiban I","state_id":1356,"state_code":"MDC","country_id":174,"country_code":"PH","latitude":"13.80645000","longitude":"121.38116000"},{"id":"84967","name":"Talaibon","state_id":1356,"state_code":"MDC","country_id":174,"country_code":"PH","latitude":"13.83780000","longitude":"121.13980000"},{"id":"84976","name":"Talipan","state_id":1356,"state_code":"MDC","country_id":174,"country_code":"PH","latitude":"13.93333000","longitude":"121.68333000"},{"id":"84984","name":"Talisay","state_id":1356,"state_code":"MDC","country_id":174,"country_code":"PH","latitude":"14.09250000","longitude":"121.02194000"},{"id":"85028","name":"Tanauan","state_id":1356,"state_code":"MDC","country_id":174,"country_code":"PH","latitude":"14.08627000","longitude":"121.14975000"},{"id":"85030","name":"Tanay","state_id":1356,"state_code":"MDC","country_id":174,"country_code":"PH","latitude":"14.49680000","longitude":"121.28460000"},{"id":"85044","name":"Tanza","state_id":1356,"state_code":"MDC","country_id":174,"country_code":"PH","latitude":"14.39834000","longitude":"120.85544000"},{"id":"85068","name":"Tayabas","state_id":1356,"state_code":"MDC","country_id":174,"country_code":"PH","latitude":"14.02590000","longitude":"121.59290000"},{"id":"85069","name":"Tayabas Ibaba","state_id":1356,"state_code":"MDC","country_id":174,"country_code":"PH","latitude":"13.62220000","longitude":"122.28140000"},{"id":"85074","name":"Taysan","state_id":1356,"state_code":"MDC","country_id":174,"country_code":"PH","latitude":"13.86970000","longitude":"121.09710000"},{"id":"85077","name":"Taytay","state_id":1356,"state_code":"MDC","country_id":174,"country_code":"PH","latitude":"14.12567000","longitude":"121.40399000"},{"id":"85083","name":"Taywanak Ilaya","state_id":1356,"state_code":"MDC","country_id":174,"country_code":"PH","latitude":"14.15759000","longitude":"120.84655000"},{"id":"85089","name":"Teresa","state_id":1356,"state_code":"MDC","country_id":174,"country_code":"PH","latitude":"14.56120000","longitude":"121.21950000"},{"id":"85091","name":"Ternate","state_id":1356,"state_code":"MDC","country_id":174,"country_code":"PH","latitude":"14.28970000","longitude":"120.71680000"},{"id":"85092","name":"Tiaong","state_id":1356,"state_code":"MDC","country_id":174,"country_code":"PH","latitude":"13.96383000","longitude":"121.32121000"},{"id":"85110","name":"Tignoan","state_id":1356,"state_code":"MDC","country_id":174,"country_code":"PH","latitude":"14.56522000","longitude":"121.61786000"},{"id":"85136","name":"Tingloy","state_id":1356,"state_code":"MDC","country_id":174,"country_code":"PH","latitude":"13.66091000","longitude":"120.87110000"},{"id":"85144","name":"Tipaz","state_id":1356,"state_code":"MDC","country_id":174,"country_code":"PH","latitude":"13.82850000","longitude":"121.42506000"},{"id":"85169","name":"Toong","state_id":1356,"state_code":"MDC","country_id":174,"country_code":"PH","latitude":"14.07063000","longitude":"120.76333000"},{"id":"85176","name":"Tranca","state_id":1356,"state_code":"MDC","country_id":174,"country_code":"PH","latitude":"14.11815000","longitude":"121.05741000"},{"id":"85213","name":"Tuhian","state_id":1356,"state_code":"MDC","country_id":174,"country_code":"PH","latitude":"13.62220000","longitude":"122.21780000"},{"id":"85215","name":"Tulay","state_id":1356,"state_code":"MDC","country_id":174,"country_code":"PH","latitude":"14.26969000","longitude":"120.76925000"},{"id":"85220","name":"Tumalim","state_id":1356,"state_code":"MDC","country_id":174,"country_code":"PH","latitude":"14.08010000","longitude":"120.72310000"},{"id":"85236","name":"Tuy","state_id":1356,"state_code":"MDC","country_id":174,"country_code":"PH","latitude":"14.01830000","longitude":"120.72960000"},{"id":"85260","name":"Unisan","state_id":1356,"state_code":"MDC","country_id":174,"country_code":"PH","latitude":"13.84132000","longitude":"121.97522000"},{"id":"85284","name":"Victoria","state_id":1356,"state_code":"MDC","country_id":174,"country_code":"PH","latitude":"14.22770000","longitude":"121.32920000"},{"id":"85314","name":"Wawa","state_id":1356,"state_code":"MDC","country_id":174,"country_code":"PH","latitude":"13.74010000","longitude":"121.05290000"},{"id":"85323","name":"Yuni","state_id":1356,"state_code":"MDC","country_id":174,"country_code":"PH","latitude":"13.41240000","longitude":"122.48460000"}]