[{"id":"66744","name":"Bous","state_id":1519,"state_code":"RM","country_id":127,"country_code":"LU","latitude":"49.55389000","longitude":"6.32917000"},{"id":"66756","name":"Dalheim","state_id":1519,"state_code":"RM","country_id":127,"country_code":"LU","latitude":"49.54083000","longitude":"6.25972000"},{"id":"66797","name":"Lenningen","state_id":1519,"state_code":"RM","country_id":127,"country_code":"LU","latitude":"49.59861000","longitude":"6.36806000"},{"id":"66810","name":"Mondorf-les-Bains","state_id":1519,"state_code":"RM","country_id":127,"country_code":"LU","latitude":"49.50500000","longitude":"6.28111000"},{"id":"66827","name":"Remich","state_id":1519,"state_code":"RM","country_id":127,"country_code":"LU","latitude":"49.54500000","longitude":"6.36694000"},{"id":"66836","name":"Schengen","state_id":1519,"state_code":"RM","country_id":127,"country_code":"LU","latitude":"49.47000000","longitude":"6.36200000"},{"id":"66844","name":"Stadtbredimus","state_id":1519,"state_code":"RM","country_id":127,"country_code":"LU","latitude":"49.56278000","longitude":"6.36444000"},{"id":"66857","name":"Waldbredimus","state_id":1519,"state_code":"RM","country_id":127,"country_code":"LU","latitude":"49.55676000","longitude":"6.28789000"}]