[{"id":"66724","name":"Alzingen","state_id":1527,"state_code":"LU","country_id":127,"country_code":"LU","latitude":"49.56500000","longitude":"6.16361000"},{"id":"66746","name":"B\u00e9reldange","state_id":1527,"state_code":"LU","country_id":127,"country_code":"LU","latitude":"49.65507000","longitude":"6.11874000"},{"id":"66734","name":"Bertrange","state_id":1527,"state_code":"LU","country_id":127,"country_code":"LU","latitude":"49.61111000","longitude":"6.05000000"},{"id":"66754","name":"Contern","state_id":1527,"state_code":"LU","country_id":127,"country_code":"LU","latitude":"49.58194000","longitude":"6.22667000"},{"id":"66768","name":"Fentange","state_id":1527,"state_code":"LU","country_id":127,"country_code":"LU","latitude":"49.56278000","longitude":"6.15389000"},{"id":"66780","name":"Heisdorf","state_id":1527,"state_code":"LU","country_id":127,"country_code":"LU","latitude":"49.67207000","longitude":"6.14202000"},{"id":"66781","name":"Helmsange","state_id":1527,"state_code":"LU","country_id":127,"country_code":"LU","latitude":"49.65278000","longitude":"6.14139000"},{"id":"66782","name":"Hesperange","state_id":1527,"state_code":"LU","country_id":127,"country_code":"LU","latitude":"49.56806000","longitude":"6.15139000"},{"id":"66785","name":"Itzig","state_id":1527,"state_code":"LU","country_id":127,"country_code":"LU","latitude":"49.58769000","longitude":"6.17065000"},{"id":"66790","name":"Kirchberg","state_id":1527,"state_code":"LU","country_id":127,"country_code":"LU","latitude":"49.62389000","longitude":"6.14944000"},{"id":"66801","name":"Luxembourg","state_id":1527,"state_code":"LU","country_id":127,"country_code":"LU","latitude":"49.61167000","longitude":"6.13000000"},{"id":"66812","name":"M\u00fcllendorf","state_id":1527,"state_code":"LU","country_id":127,"country_code":"LU","latitude":"49.68028000","longitude":"6.13000000"},{"id":"66811","name":"Moutfort","state_id":1527,"state_code":"LU","country_id":127,"country_code":"LU","latitude":"49.58528000","longitude":"6.25556000"},{"id":"66813","name":"Niederanven","state_id":1527,"state_code":"LU","country_id":127,"country_code":"LU","latitude":"49.65196000","longitude":"6.26199000"},{"id":"66818","name":"Olm","state_id":1527,"state_code":"LU","country_id":127,"country_code":"LU","latitude":"49.65722000","longitude":"6.00028000"},{"id":"66834","name":"Sandweiler","state_id":1527,"state_code":"LU","country_id":127,"country_code":"LU","latitude":"49.61471000","longitude":"6.22221000"},{"id":"66840","name":"Schrassig","state_id":1527,"state_code":"LU","country_id":127,"country_code":"LU","latitude":"49.61014000","longitude":"6.25903000"},{"id":"66841","name":"Schuttrange","state_id":1527,"state_code":"LU","country_id":127,"country_code":"LU","latitude":"49.62056000","longitude":"6.26861000"},{"id":"66846","name":"Steinsel","state_id":1527,"state_code":"LU","country_id":127,"country_code":"LU","latitude":"49.67694000","longitude":"6.12389000"},{"id":"66847","name":"Strassen","state_id":1527,"state_code":"LU","country_id":127,"country_code":"LU","latitude":"49.62056000","longitude":"6.07333000"},{"id":"66858","name":"Walferdange","state_id":1527,"state_code":"LU","country_id":127,"country_code":"LU","latitude":"49.66321000","longitude":"6.13224000"},{"id":"66861","name":"Weiler-la-Tour","state_id":1527,"state_code":"LU","country_id":127,"country_code":"LU","latitude":"49.54083000","longitude":"6.20083000"}]