[{"id":"64777","name":"Busia","state_id":161,"state_code":"04","country_id":113,"country_code":"KE","latitude":"0.46005000","longitude":"34.11169000"},{"id":"64821","name":"Luanda","state_id":161,"state_code":"04","country_id":113,"country_code":"KE","latitude":"0.31354000","longitude":"34.07146000"},{"id":"64822","name":"Lugulu","state_id":161,"state_code":"04","country_id":113,"country_code":"KE","latitude":"0.39337000","longitude":"34.30399000"},{"id":"64826","name":"Malaba","state_id":161,"state_code":"04","country_id":113,"country_code":"KE","latitude":"0.63513000","longitude":"34.28165000"},{"id":"64848","name":"Nambare","state_id":161,"state_code":"04","country_id":113,"country_code":"KE","latitude":"0.45813000","longitude":"34.25353000"},{"id":"64861","name":"Port Victoria","state_id":161,"state_code":"04","country_id":113,"country_code":"KE","latitude":"0.09809000","longitude":"33.97248000"}]