[{"id":"104085","name":"Dekani","state_id":4319,"state_code":"050","country_id":201,"country_code":"SI","latitude":"45.54972000","longitude":"13.81361000"},{"id":"104121","name":"Hrvatini","state_id":4319,"state_code":"050","country_id":201,"country_code":"SI","latitude":"45.58278000","longitude":"13.75667000"},{"id":"104142","name":"Koper","state_id":4319,"state_code":"050","country_id":201,"country_code":"SI","latitude":"45.54694000","longitude":"13.72944000"},{"id":"104223","name":"Pobegi","state_id":4319,"state_code":"050","country_id":201,"country_code":"SI","latitude":"45.53944000","longitude":"13.79611000"},{"id":"104231","name":"Prade","state_id":4319,"state_code":"050","country_id":201,"country_code":"SI","latitude":"45.54003000","longitude":"13.77607000"},{"id":"104282","name":"Spodnje Skofije","state_id":4319,"state_code":"050","country_id":201,"country_code":"SI","latitude":"45.57167000","longitude":"13.79250000"},{"id":"104288","name":"Sv. Anton","state_id":4319,"state_code":"050","country_id":201,"country_code":"SI","latitude":"45.52583000","longitude":"13.83194000"}]