[{"id":"31252","name":"A\u00efn el Bya","state_id":1101,"state_code":"31","country_id":4,"country_code":"DZ","latitude":"35.80389000","longitude":"-0.30178000"},{"id":"31478","name":"\u2019A\u00efn el Turk","state_id":1101,"state_code":"31","country_id":4,"country_code":"DZ","latitude":"35.74381000","longitude":"-0.76930000"},{"id":"31272","name":"Bir el Djir","state_id":1101,"state_code":"31","country_id":4,"country_code":"DZ","latitude":"35.72000000","longitude":"-0.54500000"},{"id":"31284","name":"Bou Tlelis","state_id":1101,"state_code":"31","country_id":4,"country_code":"DZ","latitude":"35.57272000","longitude":"-0.89960000"},{"id":"31343","name":"Es Senia","state_id":1101,"state_code":"31","country_id":4,"country_code":"DZ","latitude":"35.64779000","longitude":"-0.62397000"},{"id":"31383","name":"Mers el Kebir","state_id":1101,"state_code":"31","country_id":4,"country_code":"DZ","latitude":"35.72790000","longitude":"-0.70810000"},{"id":"31395","name":"Oran","state_id":1101,"state_code":"31","country_id":4,"country_code":"DZ","latitude":"35.69906000","longitude":"-0.63588000"},{"id":"31432","name":"Sidi ech Chahmi","state_id":1101,"state_code":"31","country_id":4,"country_code":"DZ","latitude":"35.65903000","longitude":"-0.52168000"}]