[{"id":"31472","name":"\u2019A\u00efn Deheb","state_id":1106,"state_code":"14","country_id":4,"country_code":"DZ","latitude":"34.84218000","longitude":"1.54697000"},{"id":"31317","name":"Djebilet Rosfa","state_id":1106,"state_code":"14","country_id":4,"country_code":"DZ","latitude":"34.86375000","longitude":"0.83496000"},{"id":"31346","name":"Frenda","state_id":1106,"state_code":"14","country_id":4,"country_code":"DZ","latitude":"35.06544000","longitude":"1.04945000"},{"id":"31365","name":"Ksar Chellala","state_id":1106,"state_code":"14","country_id":4,"country_code":"DZ","latitude":"35.21222000","longitude":"2.31889000"},{"id":"31379","name":"Mehdia daira de meghila","state_id":1106,"state_code":"14","country_id":4,"country_code":"DZ","latitude":"35.43058000","longitude":"1.75714000"},{"id":"31436","name":"Sougueur","state_id":1106,"state_code":"14","country_id":4,"country_code":"DZ","latitude":"35.18568000","longitude":"1.49612000"},{"id":"31449","name":"Tiaret","state_id":1106,"state_code":"14","country_id":4,"country_code":"DZ","latitude":"35.37103000","longitude":"1.31699000"}]