[{"id":"31264","name":"Beni Mester","state_id":1107,"state_code":"13","country_id":4,"country_code":"DZ","latitude":"34.87045000","longitude":"-1.42319000"},{"id":"31266","name":"Bensekrane","state_id":1107,"state_code":"13","country_id":4,"country_code":"DZ","latitude":"35.07465000","longitude":"-1.22431000"},{"id":"31306","name":"Chetouane","state_id":1107,"state_code":"13","country_id":4,"country_code":"DZ","latitude":"34.92129000","longitude":"-1.29512000"},{"id":"31354","name":"Hennaya","state_id":1107,"state_code":"13","country_id":4,"country_code":"DZ","latitude":"34.95139000","longitude":"-1.36806000"},{"id":"31374","name":"Manso\u00fbra","state_id":1107,"state_code":"13","country_id":4,"country_code":"DZ","latitude":"34.86158000","longitude":"-1.33935000"},{"id":"31394","name":"Nedroma","state_id":1107,"state_code":"13","country_id":4,"country_code":"DZ","latitude":"35.01361000","longitude":"-1.74799000"},{"id":"31402","name":"Ouled Mimoun","state_id":1107,"state_code":"13","country_id":4,"country_code":"DZ","latitude":"34.90472000","longitude":"-1.03394000"},{"id":"31410","name":"Remchi","state_id":1107,"state_code":"13","country_id":4,"country_code":"DZ","latitude":"35.06196000","longitude":"-1.43362000"},{"id":"31420","name":"Sebdou","state_id":1107,"state_code":"13","country_id":4,"country_code":"DZ","latitude":"34.63703000","longitude":"-1.33143000"},{"id":"31423","name":"Sidi Abdelli","state_id":1107,"state_code":"13","country_id":4,"country_code":"DZ","latitude":"35.06937000","longitude":"-1.13706000"},{"id":"31431","name":"Sidi Senoussi \u0633\u064a\u062f\u064a \u0633\u0646\u0648\u0633\u064a","state_id":1107,"state_code":"13","country_id":4,"country_code":"DZ","latitude":"34.99691000","longitude":"-1.09449000"},{"id":"31460","name":"Tlemcen","state_id":1107,"state_code":"13","country_id":4,"country_code":"DZ","latitude":"34.87833000","longitude":"-1.31500000"}]