[{"id":"31263","name":"Beni Mered","state_id":1111,"state_code":"09","country_id":4,"country_code":"DZ","latitude":"36.52389000","longitude":"2.86131000"},{"id":"31276","name":"Blida","state_id":1111,"state_code":"09","country_id":4,"country_code":"DZ","latitude":"36.47004000","longitude":"2.82770000"},{"id":"31296","name":"Bo\u00fb Arfa","state_id":1111,"state_code":"09","country_id":4,"country_code":"DZ","latitude":"36.46298000","longitude":"2.81464000"},{"id":"31287","name":"Boufarik","state_id":1111,"state_code":"09","country_id":4,"country_code":"DZ","latitude":"36.57413000","longitude":"2.91214000"},{"id":"31289","name":"Bougara","state_id":1111,"state_code":"09","country_id":4,"country_code":"DZ","latitude":"36.54178000","longitude":"3.08100000"},{"id":"31290","name":"Bouinan","state_id":1111,"state_code":"09","country_id":4,"country_code":"DZ","latitude":"36.53167000","longitude":"2.99194000"},{"id":"31301","name":"Chebli","state_id":1111,"state_code":"09","country_id":4,"country_code":"DZ","latitude":"36.57722000","longitude":"3.00917000"},{"id":"31307","name":"Chiffa","state_id":1111,"state_code":"09","country_id":4,"country_code":"DZ","latitude":"36.46293000","longitude":"2.73873000"},{"id":"31369","name":"Larba\u00e2","state_id":1111,"state_code":"09","country_id":4,"country_code":"DZ","latitude":"36.56471000","longitude":"3.15434000"},{"id":"31377","name":"Meftah","state_id":1111,"state_code":"09","country_id":4,"country_code":"DZ","latitude":"36.62040000","longitude":"3.22248000"},{"id":"31428","name":"Sidi Moussa","state_id":1111,"state_code":"09","country_id":4,"country_code":"DZ","latitude":"36.60637000","longitude":"3.08783000"},{"id":"31438","name":"Souma","state_id":1111,"state_code":"09","country_id":4,"country_code":"DZ","latitude":"36.51833000","longitude":"2.90528000"}]