[{"id":"31232","name":"Ammi Moussa","state_id":1130,"state_code":"48","country_id":4,"country_code":"DZ","latitude":"35.86781000","longitude":"1.11143000"},{"id":"31473","name":"\u2019A\u00efn Merane","state_id":1130,"state_code":"48","country_id":4,"country_code":"DZ","latitude":"36.16277000","longitude":"0.97037000"},{"id":"31319","name":"Djidiouia","state_id":1130,"state_code":"48","country_id":4,"country_code":"DZ","latitude":"35.92989000","longitude":"0.82871000"},{"id":"31376","name":"Mazouna","state_id":1130,"state_code":"48","country_id":4,"country_code":"DZ","latitude":"36.12232000","longitude":"0.89865000"},{"id":"31398","name":"Oued Rhiou","state_id":1130,"state_code":"48","country_id":4,"country_code":"DZ","latitude":"35.96124000","longitude":"0.91896000"},{"id":"31409","name":"Relizane","state_id":1130,"state_code":"48","country_id":4,"country_code":"DZ","latitude":"35.73734000","longitude":"0.55599000"},{"id":"31435","name":"Smala","state_id":1130,"state_code":"48","country_id":4,"country_code":"DZ","latitude":"35.71652000","longitude":"0.75437000"},{"id":"31464","name":"Zemoura","state_id":1130,"state_code":"48","country_id":4,"country_code":"DZ","latitude":"35.72251000","longitude":"0.75509000"}]