[{"id":"31302","name":"Chelghoum el A\u00efd","state_id":1132,"state_code":"43","country_id":4,"country_code":"DZ","latitude":"36.16286000","longitude":"6.16651000"},{"id":"31387","name":"Mila","state_id":1132,"state_code":"43","country_id":4,"country_code":"DZ","latitude":"36.45028000","longitude":"6.26444000"},{"id":"31412","name":"Rouached","state_id":1132,"state_code":"43","country_id":4,"country_code":"DZ","latitude":"36.45774000","longitude":"6.04267000"},{"id":"31429","name":"Sidi M\u00e9rouane","state_id":1132,"state_code":"43","country_id":4,"country_code":"DZ","latitude":"36.52056000","longitude":"6.26111000"},{"id":"31446","name":"Telerghma","state_id":1132,"state_code":"43","country_id":4,"country_code":"DZ","latitude":"36.11653000","longitude":"6.35434000"}]