[{"id":"31251","name":"A\u00efn Touta","state_id":1142,"state_code":"05","country_id":4,"country_code":"DZ","latitude":"35.37675000","longitude":"5.90001000"},{"id":"31237","name":"Arris","state_id":1142,"state_code":"05","country_id":4,"country_code":"DZ","latitude":"35.25881000","longitude":"6.34706000"},{"id":"31257","name":"Barika","state_id":1142,"state_code":"05","country_id":4,"country_code":"DZ","latitude":"35.38901000","longitude":"5.36584000"},{"id":"31258","name":"Batna","state_id":1142,"state_code":"05","country_id":4,"country_code":"DZ","latitude":"35.55597000","longitude":"6.17414000"},{"id":"31292","name":"Boumagueur","state_id":1142,"state_code":"05","country_id":4,"country_code":"DZ","latitude":"35.50520000","longitude":"5.55250000"},{"id":"31382","name":"Merouana","state_id":1142,"state_code":"05","country_id":4,"country_code":"DZ","latitude":"35.63106000","longitude":"5.91186000"},{"id":"31415","name":"R\u00e2s el A\u00efoun","state_id":1142,"state_code":"05","country_id":4,"country_code":"DZ","latitude":"35.67384000","longitude":"5.64530000"},{"id":"31444","name":"Tazoult-Lambese","state_id":1142,"state_code":"05","country_id":4,"country_code":"DZ","latitude":"35.48171000","longitude":"6.26074000"}]