[{"id":"31246","name":"A\u00efn Oussera","state_id":1098,"state_code":"17","country_id":4,"country_code":"DZ","latitude":"35.45139000","longitude":"2.90583000"},{"id":"31474","name":"\u2019A\u00efn el Bell","state_id":1098,"state_code":"17","country_id":4,"country_code":"DZ","latitude":"34.34381000","longitude":"3.22475000"},{"id":"31273","name":"Birine","state_id":1098,"state_code":"17","country_id":4,"country_code":"DZ","latitude":"35.63500000","longitude":"3.22500000"},{"id":"31300","name":"Charef","state_id":1098,"state_code":"17","country_id":4,"country_code":"DZ","latitude":"34.62098000","longitude":"2.79503000"},{"id":"31311","name":"Dar Chioukh","state_id":1098,"state_code":"17","country_id":4,"country_code":"DZ","latitude":"34.89638000","longitude":"3.48543000"},{"id":"31318","name":"Djelfa","state_id":1098,"state_code":"17","country_id":4,"country_code":"DZ","latitude":"34.67279000","longitude":"3.26300000"},{"id":"31336","name":"El Idrissia","state_id":1098,"state_code":"17","country_id":4,"country_code":"DZ","latitude":"34.44542000","longitude":"2.52749000"},{"id":"31385","name":"Messaad","state_id":1098,"state_code":"17","country_id":4,"country_code":"DZ","latitude":"34.15429000","longitude":"3.50309000"},{"id":"31313","name":"Debila","state_id":1099,"state_code":"39","country_id":4,"country_code":"DZ","latitude":"33.51667000","longitude":"6.95000000"},{"id":"31341","name":"El Oued","state_id":1099,"state_code":"39","country_id":4,"country_code":"DZ","latitude":"33.35608000","longitude":"6.86319000"},{"id":"31408","name":"Reguiba","state_id":1099,"state_code":"39","country_id":4,"country_code":"DZ","latitude":"33.56391000","longitude":"6.70326000"},{"id":"31411","name":"Robbah","state_id":1099,"state_code":"39","country_id":4,"country_code":"DZ","latitude":"33.27967000","longitude":"6.90984000"},{"id":"31260","name":"Ben Mehidi","state_id":1100,"state_code":"36","country_id":4,"country_code":"DZ","latitude":"36.76967000","longitude":"7.90641000"},{"id":"31270","name":"Besbes","state_id":1100,"state_code":"36","country_id":4,"country_code":"DZ","latitude":"36.70222000","longitude":"7.84722000"},{"id":"31337","name":"El Kala","state_id":1100,"state_code":"36","country_id":4,"country_code":"DZ","latitude":"36.89556000","longitude":"8.44333000"},{"id":"31342","name":"El Tarf","state_id":1100,"state_code":"36","country_id":4,"country_code":"DZ","latitude":"36.76720000","longitude":"8.31377000"},{"id":"31252","name":"A\u00efn el Bya","state_id":1101,"state_code":"31","country_id":4,"country_code":"DZ","latitude":"35.80389000","longitude":"-0.30178000"},{"id":"31478","name":"\u2019A\u00efn el Turk","state_id":1101,"state_code":"31","country_id":4,"country_code":"DZ","latitude":"35.74381000","longitude":"-0.76930000"},{"id":"31272","name":"Bir el Djir","state_id":1101,"state_code":"31","country_id":4,"country_code":"DZ","latitude":"35.72000000","longitude":"-0.54500000"},{"id":"31284","name":"Bou Tlelis","state_id":1101,"state_code":"31","country_id":4,"country_code":"DZ","latitude":"35.57272000","longitude":"-0.89960000"},{"id":"31343","name":"Es Senia","state_id":1101,"state_code":"31","country_id":4,"country_code":"DZ","latitude":"35.64779000","longitude":"-0.62397000"},{"id":"31383","name":"Mers el Kebir","state_id":1101,"state_code":"31","country_id":4,"country_code":"DZ","latitude":"35.72790000","longitude":"-0.70810000"},{"id":"31395","name":"Oran","state_id":1101,"state_code":"31","country_id":4,"country_code":"DZ","latitude":"35.69906000","longitude":"-0.63588000"},{"id":"31432","name":"Sidi ech Chahmi","state_id":1101,"state_code":"31","country_id":4,"country_code":"DZ","latitude":"35.65903000","longitude":"-0.52168000"},{"id":"31247","name":"A\u00efn Sefra","state_id":1102,"state_code":"45","country_id":4,"country_code":"DZ","latitude":"32.75000000","longitude":"-0.58333000"},{"id":"31392","name":"Naama","state_id":1102,"state_code":"45","country_id":4,"country_code":"DZ","latitude":"33.26667000","longitude":"-0.31667000"},{"id":"31233","name":"Annaba","state_id":1103,"state_code":"23","country_id":4,"country_code":"DZ","latitude":"36.90000000","longitude":"7.76667000"},{"id":"31267","name":"Berrahal","state_id":1103,"state_code":"23","country_id":4,"country_code":"DZ","latitude":"36.83528000","longitude":"7.45333000"},{"id":"31323","name":"Drean","state_id":1103,"state_code":"23","country_id":4,"country_code":"DZ","latitude":"36.68482000","longitude":"7.75111000"},{"id":"31334","name":"El Hadjar","state_id":1103,"state_code":"23","country_id":4,"country_code":"DZ","latitude":"36.80377000","longitude":"7.73684000"},{"id":"31241","name":"A\u00efn Bessem","state_id":1104,"state_code":"10","country_id":4,"country_code":"DZ","latitude":"36.29333000","longitude":"3.67319000"},{"id":"31295","name":"Bou\u00efra","state_id":1104,"state_code":"10","country_id":4,"country_code":"DZ","latitude":"36.37489000","longitude":"3.90200000"},{"id":"31309","name":"Chorfa","state_id":1104,"state_code":"10","country_id":4,"country_code":"DZ","latitude":"36.36505000","longitude":"4.32636000"},{"id":"31322","name":"Draa el Mizan","state_id":1104,"state_code":"10","country_id":4,"country_code":"DZ","latitude":"36.53628000","longitude":"3.83340000"},{"id":"31368","name":"Lakhdaria","state_id":1104,"state_code":"10","country_id":4,"country_code":"DZ","latitude":"36.56463000","longitude":"3.59330000"},{"id":"31439","name":"Sour el Ghozlane","state_id":1104,"state_code":"10","country_id":4,"country_code":"DZ","latitude":"36.14766000","longitude":"3.69123000"},{"id":"31226","name":"Abou el Hassan","state_id":1105,"state_code":"02","country_id":4,"country_code":"DZ","latitude":"36.41657000","longitude":"1.19616000"},{"id":"31291","name":"Boukadir","state_id":1105,"state_code":"02","country_id":4,"country_code":"DZ","latitude":"36.06629000","longitude":"1.12602000"},{"id":"31308","name":"Chlef","state_id":1105,"state_code":"02","country_id":4,"country_code":"DZ","latitude":"36.16525000","longitude":"1.33452000"},{"id":"31324","name":"Ech Chettia","state_id":1105,"state_code":"02","country_id":4,"country_code":"DZ","latitude":"36.19591000","longitude":"1.25537000"},{"id":"31397","name":"Oued Fodda","state_id":1105,"state_code":"02","country_id":4,"country_code":"DZ","latitude":"36.18503000","longitude":"1.53299000"},{"id":"31399","name":"Oued Sly","state_id":1105,"state_code":"02","country_id":4,"country_code":"DZ","latitude":"36.10124000","longitude":"1.19949000"},{"id":"31424","name":"Sidi Akkacha","state_id":1105,"state_code":"02","country_id":4,"country_code":"DZ","latitude":"36.46472000","longitude":"1.30258000"},{"id":"31472","name":"\u2019A\u00efn Deheb","state_id":1106,"state_code":"14","country_id":4,"country_code":"DZ","latitude":"34.84218000","longitude":"1.54697000"},{"id":"31317","name":"Djebilet Rosfa","state_id":1106,"state_code":"14","country_id":4,"country_code":"DZ","latitude":"34.86375000","longitude":"0.83496000"},{"id":"31346","name":"Frenda","state_id":1106,"state_code":"14","country_id":4,"country_code":"DZ","latitude":"35.06544000","longitude":"1.04945000"},{"id":"31365","name":"Ksar Chellala","state_id":1106,"state_code":"14","country_id":4,"country_code":"DZ","latitude":"35.21222000","longitude":"2.31889000"},{"id":"31379","name":"Mehdia daira de meghila","state_id":1106,"state_code":"14","country_id":4,"country_code":"DZ","latitude":"35.43058000","longitude":"1.75714000"},{"id":"31436","name":"Sougueur","state_id":1106,"state_code":"14","country_id":4,"country_code":"DZ","latitude":"35.18568000","longitude":"1.49612000"},{"id":"31449","name":"Tiaret","state_id":1106,"state_code":"14","country_id":4,"country_code":"DZ","latitude":"35.37103000","longitude":"1.31699000"},{"id":"31264","name":"Beni Mester","state_id":1107,"state_code":"13","country_id":4,"country_code":"DZ","latitude":"34.87045000","longitude":"-1.42319000"},{"id":"31266","name":"Bensekrane","state_id":1107,"state_code":"13","country_id":4,"country_code":"DZ","latitude":"35.07465000","longitude":"-1.22431000"},{"id":"31306","name":"Chetouane","state_id":1107,"state_code":"13","country_id":4,"country_code":"DZ","latitude":"34.92129000","longitude":"-1.29512000"},{"id":"31354","name":"Hennaya","state_id":1107,"state_code":"13","country_id":4,"country_code":"DZ","latitude":"34.95139000","longitude":"-1.36806000"},{"id":"31374","name":"Manso\u00fbra","state_id":1107,"state_code":"13","country_id":4,"country_code":"DZ","latitude":"34.86158000","longitude":"-1.33935000"},{"id":"31394","name":"Nedroma","state_id":1107,"state_code":"13","country_id":4,"country_code":"DZ","latitude":"35.01361000","longitude":"-1.74799000"},{"id":"31402","name":"Ouled Mimoun","state_id":1107,"state_code":"13","country_id":4,"country_code":"DZ","latitude":"34.90472000","longitude":"-1.03394000"},{"id":"31410","name":"Remchi","state_id":1107,"state_code":"13","country_id":4,"country_code":"DZ","latitude":"35.06196000","longitude":"-1.43362000"},{"id":"31420","name":"Sebdou","state_id":1107,"state_code":"13","country_id":4,"country_code":"DZ","latitude":"34.63703000","longitude":"-1.33143000"},{"id":"31423","name":"Sidi Abdelli","state_id":1107,"state_code":"13","country_id":4,"country_code":"DZ","latitude":"35.06937000","longitude":"-1.13706000"},{"id":"31431","name":"Sidi Senoussi \u0633\u064a\u062f\u064a \u0633\u0646\u0648\u0633\u064a","state_id":1107,"state_code":"13","country_id":4,"country_code":"DZ","latitude":"34.99691000","longitude":"-1.09449000"},{"id":"31460","name":"Tlemcen","state_id":1107,"state_code":"13","country_id":4,"country_code":"DZ","latitude":"34.87833000","longitude":"-1.31500000"},{"id":"31298","name":"B\u00e9char","state_id":1108,"state_code":"08","country_id":4,"country_code":"DZ","latitude":"31.61667000","longitude":"-2.21667000"},{"id":"31471","name":"\u2019A\u00efn Boucif","state_id":1109,"state_code":"26","country_id":4,"country_code":"DZ","latitude":"35.89123000","longitude":"3.15850000"},{"id":"31269","name":"Berrouaghia","state_id":1109,"state_code":"26","country_id":4,"country_code":"DZ","latitude":"36.13516000","longitude":"2.91085000"},{"id":"31366","name":"Ksar el Boukhari","state_id":1109,"state_code":"26","country_id":4,"country_code":"DZ","latitude":"35.88889000","longitude":"2.74905000"},{"id":"31390","name":"M\u00e9d\u00e9a","state_id":1109,"state_code":"26","country_id":4,"country_code":"DZ","latitude":"36.26417000","longitude":"2.75393000"},{"id":"31239","name":"Azzaba","state_id":1110,"state_code":"21","country_id":4,"country_code":"DZ","latitude":"36.73944000","longitude":"7.10528000"},{"id":"31360","name":"Karkira","state_id":1110,"state_code":"21","country_id":4,"country_code":"DZ","latitude":"36.92917000","longitude":"6.58556000"},{"id":"31434","name":"Skikda","state_id":1110,"state_code":"21","country_id":4,"country_code":"DZ","latitude":"36.87617000","longitude":"6.90921000"},{"id":"31442","name":"Tamalous","state_id":1110,"state_code":"21","country_id":4,"country_code":"DZ","latitude":"36.83763000","longitude":"6.64018000"},{"id":"31263","name":"Beni Mered","state_id":1111,"state_code":"09","country_id":4,"country_code":"DZ","latitude":"36.52389000","longitude":"2.86131000"},{"id":"31276","name":"Blida","state_id":1111,"state_code":"09","country_id":4,"country_code":"DZ","latitude":"36.47004000","longitude":"2.82770000"},{"id":"31296","name":"Bo\u00fb Arfa","state_id":1111,"state_code":"09","country_id":4,"country_code":"DZ","latitude":"36.46298000","longitude":"2.81464000"},{"id":"31287","name":"Boufarik","state_id":1111,"state_code":"09","country_id":4,"country_code":"DZ","latitude":"36.57413000","longitude":"2.91214000"},{"id":"31289","name":"Bougara","state_id":1111,"state_code":"09","country_id":4,"country_code":"DZ","latitude":"36.54178000","longitude":"3.08100000"},{"id":"31290","name":"Bouinan","state_id":1111,"state_code":"09","country_id":4,"country_code":"DZ","latitude":"36.53167000","longitude":"2.99194000"},{"id":"31301","name":"Chebli","state_id":1111,"state_code":"09","country_id":4,"country_code":"DZ","latitude":"36.57722000","longitude":"3.00917000"},{"id":"31307","name":"Chiffa","state_id":1111,"state_code":"09","country_id":4,"country_code":"DZ","latitude":"36.46293000","longitude":"2.73873000"},{"id":"31369","name":"Larba\u00e2","state_id":1111,"state_code":"09","country_id":4,"country_code":"DZ","latitude":"36.56471000","longitude":"3.15434000"},{"id":"31377","name":"Meftah","state_id":1111,"state_code":"09","country_id":4,"country_code":"DZ","latitude":"36.62040000","longitude":"3.22248000"},{"id":"31428","name":"Sidi Moussa","state_id":1111,"state_code":"09","country_id":4,"country_code":"DZ","latitude":"36.60637000","longitude":"3.08783000"},{"id":"31438","name":"Souma","state_id":1111,"state_code":"09","country_id":4,"country_code":"DZ","latitude":"36.51833000","longitude":"2.90528000"},{"id":"31358","name":"Illizi","state_id":1112,"state_code":"33","country_id":4,"country_code":"DZ","latitude":"26.48333000","longitude":"8.46667000"},{"id":"31359","name":"Jijel","state_id":1113,"state_code":"18","country_id":4,"country_code":"DZ","latitude":"36.82055000","longitude":"5.76671000"},{"id":"31275","name":"Biskra","state_id":1114,"state_code":"07","country_id":4,"country_code":"DZ","latitude":"34.85038000","longitude":"5.72805000"},{"id":"31405","name":"Oumache","state_id":1114,"state_code":"07","country_id":4,"country_code":"DZ","latitude":"34.69292000","longitude":"5.68092000"},{"id":"31427","name":"Sidi Khaled","state_id":1114,"state_code":"07","country_id":4,"country_code":"DZ","latitude":"34.38700000","longitude":"4.98785000"},{"id":"31430","name":"Sidi Okba","state_id":1114,"state_code":"07","country_id":4,"country_code":"DZ","latitude":"34.74512000","longitude":"5.89833000"},{"id":"31461","name":"Tolga","state_id":1114,"state_code":"07","country_id":4,"country_code":"DZ","latitude":"34.72224000","longitude":"5.37845000"},{"id":"31466","name":"Zeribet el Oued","state_id":1114,"state_code":"07","country_id":4,"country_code":"DZ","latitude":"34.68284000","longitude":"6.51109000"},{"id":"31470","name":"\u2019A\u00efn Benian","state_id":1115,"state_code":"42","country_id":4,"country_code":"DZ","latitude":"36.80277000","longitude":"2.92185000"},{"id":"31255","name":"Baraki","state_id":1115,"state_code":"42","country_id":4,"country_code":"DZ","latitude":"36.66655000","longitude":"3.09606000"},{"id":"31283","name":"Bou Isma\u00efl","state_id":1115,"state_code":"42","country_id":4,"country_code":"DZ","latitude":"36.64262000","longitude":"2.69007000"},{"id":"31304","name":"Cheraga","state_id":1115,"state_code":"42","country_id":4,"country_code":"DZ","latitude":"36.76775000","longitude":"2.95924000"},{"id":"31320","name":"Douera","state_id":1115,"state_code":"42","country_id":4,"country_code":"DZ","latitude":"36.67000000","longitude":"2.94444000"},{"id":"31328","name":"El Affroun","state_id":1115,"state_code":"42","country_id":4,"country_code":"DZ","latitude":"36.47010000","longitude":"2.62528000"},{"id":"31349","name":"Hadjout","state_id":1115,"state_code":"42","country_id":4,"country_code":"DZ","latitude":"36.51257000","longitude":"2.41382000"},{"id":"31364","name":"Kolea","state_id":1115,"state_code":"42","country_id":4,"country_code":"DZ","latitude":"36.63888000","longitude":"2.76845000"},{"id":"31389","name":"Mouza\u00efa","state_id":1115,"state_code":"42","country_id":4,"country_code":"DZ","latitude":"36.46695000","longitude":"2.68991000"},{"id":"31401","name":"Oued el Alleug","state_id":1115,"state_code":"42","country_id":4,"country_code":"DZ","latitude":"36.55528000","longitude":"2.79028000"},{"id":"31418","name":"Saoula","state_id":1115,"state_code":"42","country_id":4,"country_code":"DZ","latitude":"36.70456000","longitude":"3.02462000"},{"id":"31453","name":"Tipasa","state_id":1115,"state_code":"42","country_id":4,"country_code":"DZ","latitude":"36.58972000","longitude":"2.44750000"},{"id":"31465","name":"Zeralda","state_id":1115,"state_code":"42","country_id":4,"country_code":"DZ","latitude":"36.71169000","longitude":"2.84244000"},{"id":"31278","name":"Bordj Bou Arreridj","state_id":1116,"state_code":"34","country_id":4,"country_code":"DZ","latitude":"36.07321000","longitude":"4.76108000"},{"id":"31279","name":"Bordj Ghdir","state_id":1116,"state_code":"34","country_id":4,"country_code":"DZ","latitude":"35.90111000","longitude":"4.89806000"},{"id":"31280","name":"Bordj Zemoura","state_id":1116,"state_code":"34","country_id":4,"country_code":"DZ","latitude":"36.27462000","longitude":"4.85668000"},{"id":"31327","name":"El Achir","state_id":1116,"state_code":"34","country_id":4,"country_code":"DZ","latitude":"36.06386000","longitude":"4.62744000"},{"id":"31373","name":"Mansourah","state_id":1116,"state_code":"34","country_id":4,"country_code":"DZ","latitude":"36.08725000","longitude":"4.45192000"},{"id":"31381","name":"Melouza","state_id":1116,"state_code":"34","country_id":4,"country_code":"DZ","latitude":"35.97999000","longitude":"4.18665000"},{"id":"31416","name":"R\u00e2s el Oued","state_id":1116,"state_code":"34","country_id":4,"country_code":"DZ","latitude":"35.94410000","longitude":"5.03107000"},{"id":"31271","name":"Bir el Ater","state_id":1117,"state_code":"12","country_id":4,"country_code":"DZ","latitude":"34.74488000","longitude":"8.06024000"},{"id":"31305","name":"Cheria","state_id":1117,"state_code":"12","country_id":4,"country_code":"DZ","latitude":"35.27306000","longitude":"7.75194000"},{"id":"31352","name":"Hammamet","state_id":1117,"state_code":"12","country_id":4,"country_code":"DZ","latitude":"35.44862000","longitude":"7.95184000"},{"id":"31463","name":"T\u00e9bessa","state_id":1117,"state_code":"12","country_id":4,"country_code":"DZ","latitude":"35.40417000","longitude":"8.12417000"},{"id":"31227","name":"Adrar","state_id":1118,"state_code":"01","country_id":4,"country_code":"DZ","latitude":"27.87429000","longitude":"-0.29388000"},{"id":"31234","name":"Aoulef","state_id":1118,"state_code":"01","country_id":4,"country_code":"DZ","latitude":"26.96667000","longitude":"1.08333000"},{"id":"31406","name":"Reggane","state_id":1118,"state_code":"01","country_id":4,"country_code":"DZ","latitude":"26.71576000","longitude":"0.17140000"},{"id":"31450","name":"Timimoun","state_id":1118,"state_code":"01","country_id":4,"country_code":"DZ","latitude":"29.26388000","longitude":"0.23098000"},{"id":"31243","name":"A\u00efn Defla","state_id":1119,"state_code":"44","country_id":4,"country_code":"DZ","latitude":"36.26405000","longitude":"1.96790000"},{"id":"31325","name":"El Abadia","state_id":1119,"state_code":"44","country_id":4,"country_code":"DZ","latitude":"36.26951000","longitude":"1.68609000"},{"id":"31331","name":"El Attaf","state_id":1119,"state_code":"44","country_id":4,"country_code":"DZ","latitude":"36.22393000","longitude":"1.67187000"},{"id":"31361","name":"Khemis Miliana","state_id":1119,"state_code":"44","country_id":4,"country_code":"DZ","latitude":"36.26104000","longitude":"2.22015000"},{"id":"31448","name":"Theniet el Had","state_id":1119,"state_code":"44","country_id":4,"country_code":"DZ","latitude":"35.87111000","longitude":"2.02806000"},{"id":"31452","name":"Tindouf","state_id":1120,"state_code":"37","country_id":4,"country_code":"DZ","latitude":"27.67111000","longitude":"-8.14743000"},{"id":"31248","name":"A\u00efn Smara","state_id":1121,"state_code":"25","country_id":4,"country_code":"DZ","latitude":"36.26740000","longitude":"6.50135000"},{"id":"31469","name":"\u2019A\u00efn Abid","state_id":1121,"state_code":"25","country_id":4,"country_code":"DZ","latitude":"36.23194000","longitude":"6.94333000"},{"id":"31310","name":"Constantine","state_id":1121,"state_code":"25","country_id":4,"country_code":"DZ","latitude":"36.36500000","longitude":"6.61472000"},{"id":"31315","name":"Didouche Mourad","state_id":1121,"state_code":"25","country_id":4,"country_code":"DZ","latitude":"36.45250000","longitude":"6.63639000"},{"id":"31338","name":"El Khroub","state_id":1121,"state_code":"25","country_id":4,"country_code":"DZ","latitude":"36.26333000","longitude":"6.69361000"},{"id":"31350","name":"Hamma Bouziane","state_id":1121,"state_code":"25","country_id":4,"country_code":"DZ","latitude":"36.41205000","longitude":"6.59603000"},{"id":"31250","name":"A\u00efn Temouchent","state_id":1122,"state_code":"46","country_id":4,"country_code":"DZ","latitude":"35.29749000","longitude":"-1.14037000"},{"id":"31265","name":"Beni Saf","state_id":1122,"state_code":"46","country_id":4,"country_code":"DZ","latitude":"35.30099000","longitude":"-1.38226000"},{"id":"31329","name":"El Amria","state_id":1122,"state_code":"46","country_id":4,"country_code":"DZ","latitude":"35.52439000","longitude":"-1.01577000"},{"id":"31340","name":"El Malah","state_id":1122,"state_code":"46","country_id":4,"country_code":"DZ","latitude":"35.39137000","longitude":"-1.09238000"},{"id":"31351","name":"Hammam Bou Hadjar","state_id":1122,"state_code":"46","country_id":4,"country_code":"DZ","latitude":"35.37889000","longitude":"-0.96778000"},{"id":"31475","name":"\u2019A\u00efn el Hadjar","state_id":1123,"state_code":"20","country_id":4,"country_code":"DZ","latitude":"34.75846000","longitude":"0.14528000"},{"id":"31419","name":"Sa\u00efda","state_id":1123,"state_code":"20","country_id":4,"country_code":"DZ","latitude":"34.83033000","longitude":"0.15171000"},{"id":"31282","name":"Bou Hanifia el Hamamat","state_id":1124,"state_code":"29","country_id":4,"country_code":"DZ","latitude":"35.31473000","longitude":"-0.05037000"},{"id":"31375","name":"Mascara","state_id":1124,"state_code":"29","country_id":4,"country_code":"DZ","latitude":"35.39664000","longitude":"0.14027000"},{"id":"31400","name":"Oued el Abtal","state_id":1124,"state_code":"29","country_id":4,"country_code":"DZ","latitude":"35.45595000","longitude":"0.68778000"},{"id":"31433","name":"Sig","state_id":1124,"state_code":"29","country_id":4,"country_code":"DZ","latitude":"35.52832000","longitude":"-0.19369000"},{"id":"31235","name":"Arbatache","state_id":1125,"state_code":"35","country_id":4,"country_code":"DZ","latitude":"36.63773000","longitude":"3.37127000"},{"id":"31261","name":"Beni Amrane","state_id":1125,"state_code":"35","country_id":4,"country_code":"DZ","latitude":"36.66774000","longitude":"3.59115000"},{"id":"31286","name":"Boudouaou","state_id":1125,"state_code":"35","country_id":4,"country_code":"DZ","latitude":"36.72735000","longitude":"3.40995000"},{"id":"31294","name":"Boumerdas","state_id":1125,"state_code":"35","country_id":4,"country_code":"DZ","latitude":"36.76639000","longitude":"3.47717000"},{"id":"31299","name":"Chabet el Ameur","state_id":1125,"state_code":"35","country_id":4,"country_code":"DZ","latitude":"36.63709000","longitude":"3.69474000"},{"id":"31314","name":"Dellys","state_id":1125,"state_code":"35","country_id":4,"country_code":"DZ","latitude":"36.91716000","longitude":"3.91311000"},{"id":"31362","name":"Khemis el Khechna","state_id":1125,"state_code":"35","country_id":4,"country_code":"DZ","latitude":"36.64997000","longitude":"3.33080000"},{"id":"31372","name":"Makouda","state_id":1125,"state_code":"35","country_id":4,"country_code":"DZ","latitude":"36.78567000","longitude":"4.06273000"},{"id":"31393","name":"Naciria","state_id":1125,"state_code":"35","country_id":4,"country_code":"DZ","latitude":"36.74625000","longitude":"3.83163000"},{"id":"31403","name":"Ouled Moussa","state_id":1125,"state_code":"35","country_id":4,"country_code":"DZ","latitude":"36.68394000","longitude":"3.36661000"},{"id":"31407","name":"Regha\u00efa","state_id":1125,"state_code":"35","country_id":4,"country_code":"DZ","latitude":"36.73587000","longitude":"3.34018000"},{"id":"31441","name":"Tadma\u00eft","state_id":1125,"state_code":"35","country_id":4,"country_code":"DZ","latitude":"36.74413000","longitude":"3.90045000"},{"id":"31447","name":"Thenia","state_id":1125,"state_code":"35","country_id":4,"country_code":"DZ","latitude":"36.72544000","longitude":"3.55665000"},{"id":"31456","name":"Tizi Gheniff","state_id":1125,"state_code":"35","country_id":4,"country_code":"DZ","latitude":"36.58839000","longitude":"3.77445000"},{"id":"31363","name":"Khenchela","state_id":1126,"state_code":"40","country_id":4,"country_code":"DZ","latitude":"35.43583000","longitude":"7.14333000"},{"id":"31268","name":"Berriane","state_id":1127,"state_code":"47","country_id":4,"country_code":"DZ","latitude":"32.82648000","longitude":"3.76689000"},{"id":"31347","name":"Gharda\u00efa","state_id":1127,"state_code":"47","country_id":4,"country_code":"DZ","latitude":"32.49094000","longitude":"3.67347000"},{"id":"31386","name":"Metlili Chaamba","state_id":1127,"state_code":"47","country_id":4,"country_code":"DZ","latitude":"32.26667000","longitude":"3.63333000"},{"id":"31229","name":"Akbou","state_id":1128,"state_code":"06","country_id":4,"country_code":"DZ","latitude":"36.45750000","longitude":"4.53494000"},{"id":"31231","name":"Amizour","state_id":1128,"state_code":"06","country_id":4,"country_code":"DZ","latitude":"36.64022000","longitude":"4.90131000"},{"id":"31256","name":"Barbacha","state_id":1128,"state_code":"06","country_id":4,"country_code":"DZ","latitude":"36.56667000","longitude":"4.96667000"},{"id":"31259","name":"Beja\u00efa","state_id":1128,"state_code":"06","country_id":4,"country_code":"DZ","latitude":"36.75587000","longitude":"5.08433000"},{"id":"31467","name":"el hed","state_id":1128,"state_code":"06","country_id":4,"country_code":"DZ","latitude":"36.65000000","longitude":"4.77361000"},{"id":"31339","name":"El Kseur","state_id":1128,"state_code":"06","country_id":4,"country_code":"DZ","latitude":"36.67942000","longitude":"4.85550000"},{"id":"31344","name":"Feraoun","state_id":1128,"state_code":"06","country_id":4,"country_code":"DZ","latitude":"36.56041000","longitude":"4.85454000"},{"id":"31421","name":"Seddouk","state_id":1128,"state_code":"06","country_id":4,"country_code":"DZ","latitude":"36.54722000","longitude":"4.68611000"},{"id":"31297","name":"Brezina","state_id":1129,"state_code":"32","country_id":4,"country_code":"DZ","latitude":"33.09892000","longitude":"1.26082000"},{"id":"31326","name":"El Abiodh Sidi Cheikh","state_id":1129,"state_code":"32","country_id":4,"country_code":"DZ","latitude":"32.89300000","longitude":"0.54839000"},{"id":"31332","name":"El Bayadh","state_id":1129,"state_code":"32","country_id":4,"country_code":"DZ","latitude":"33.68318000","longitude":"1.01927000"},{"id":"31232","name":"Ammi Moussa","state_id":1130,"state_code":"48","country_id":4,"country_code":"DZ","latitude":"35.86781000","longitude":"1.11143000"},{"id":"31473","name":"\u2019A\u00efn Merane","state_id":1130,"state_code":"48","country_id":4,"country_code":"DZ","latitude":"36.16277000","longitude":"0.97037000"},{"id":"31319","name":"Djidiouia","state_id":1130,"state_code":"48","country_id":4,"country_code":"DZ","latitude":"35.92989000","longitude":"0.82871000"},{"id":"31376","name":"Mazouna","state_id":1130,"state_code":"48","country_id":4,"country_code":"DZ","latitude":"36.12232000","longitude":"0.89865000"},{"id":"31398","name":"Oued Rhiou","state_id":1130,"state_code":"48","country_id":4,"country_code":"DZ","latitude":"35.96124000","longitude":"0.91896000"},{"id":"31409","name":"Relizane","state_id":1130,"state_code":"48","country_id":4,"country_code":"DZ","latitude":"35.73734000","longitude":"0.55599000"},{"id":"31435","name":"Smala","state_id":1130,"state_code":"48","country_id":4,"country_code":"DZ","latitude":"35.71652000","longitude":"0.75437000"},{"id":"31464","name":"Zemoura","state_id":1130,"state_code":"48","country_id":4,"country_code":"DZ","latitude":"35.72251000","longitude":"0.75509000"},{"id":"31236","name":"Arhribs","state_id":1131,"state_code":"15","country_id":4,"country_code":"DZ","latitude":"36.79361000","longitude":"4.31158000"},{"id":"31238","name":"Azazga","state_id":1131,"state_code":"15","country_id":4,"country_code":"DZ","latitude":"36.74472000","longitude":"4.37222000"},{"id":"31476","name":"\u2019A\u00efn el Hammam","state_id":1131,"state_code":"15","country_id":4,"country_code":"DZ","latitude":"36.56471000","longitude":"4.30619000"},{"id":"31262","name":"Beni Douala","state_id":1131,"state_code":"15","country_id":4,"country_code":"DZ","latitude":"36.61954000","longitude":"4.08282000"},{"id":"31277","name":"Boghni","state_id":1131,"state_code":"15","country_id":4,"country_code":"DZ","latitude":"36.54222000","longitude":"3.95306000"},{"id":"31285","name":"Boudjima","state_id":1131,"state_code":"15","country_id":4,"country_code":"DZ","latitude":"36.80218000","longitude":"4.15187000"},{"id":"31303","name":"Chemini","state_id":1131,"state_code":"15","country_id":4,"country_code":"DZ","latitude":"36.60000000","longitude":"4.61667000"},{"id":"31321","name":"Draa Ben Khedda","state_id":1131,"state_code":"15","country_id":4,"country_code":"DZ","latitude":"36.73436000","longitude":"3.96223000"},{"id":"31345","name":"Freha","state_id":1131,"state_code":"15","country_id":4,"country_code":"DZ","latitude":"36.75234000","longitude":"4.31550000"},{"id":"31357","name":"Ighram","state_id":1131,"state_code":"15","country_id":4,"country_code":"DZ","latitude":"36.46295000","longitude":"4.50532000"},{"id":"31371","name":"L\u2019Arbaa Na\u00eft Irathen","state_id":1131,"state_code":"15","country_id":4,"country_code":"DZ","latitude":"36.63112000","longitude":"4.19864000"},{"id":"31380","name":"Mekla","state_id":1131,"state_code":"15","country_id":4,"country_code":"DZ","latitude":"36.68178000","longitude":"4.26378000"},{"id":"31451","name":"Timizart","state_id":1131,"state_code":"15","country_id":4,"country_code":"DZ","latitude":"36.80000000","longitude":"4.26667000"},{"id":"31454","name":"Tirmitine","state_id":1131,"state_code":"15","country_id":4,"country_code":"DZ","latitude":"36.65393000","longitude":"3.98143000"},{"id":"31457","name":"Tizi Ouzou","state_id":1131,"state_code":"15","country_id":4,"country_code":"DZ","latitude":"36.71182000","longitude":"4.04591000"},{"id":"31458","name":"Tizi Rached","state_id":1131,"state_code":"15","country_id":4,"country_code":"DZ","latitude":"36.67176000","longitude":"4.19176000"},{"id":"31459","name":"Tizi-n-Tleta","state_id":1131,"state_code":"15","country_id":4,"country_code":"DZ","latitude":"36.54569000","longitude":"4.05712000"},{"id":"31302","name":"Chelghoum el A\u00efd","state_id":1132,"state_code":"43","country_id":4,"country_code":"DZ","latitude":"36.16286000","longitude":"6.16651000"},{"id":"31387","name":"Mila","state_id":1132,"state_code":"43","country_id":4,"country_code":"DZ","latitude":"36.45028000","longitude":"6.26444000"},{"id":"31412","name":"Rouached","state_id":1132,"state_code":"43","country_id":4,"country_code":"DZ","latitude":"36.45774000","longitude":"6.04267000"},{"id":"31429","name":"Sidi M\u00e9rouane","state_id":1132,"state_code":"43","country_id":4,"country_code":"DZ","latitude":"36.52056000","longitude":"6.26111000"},{"id":"31446","name":"Telerghma","state_id":1132,"state_code":"43","country_id":4,"country_code":"DZ","latitude":"36.11653000","longitude":"6.35434000"},{"id":"31370","name":"Lardjem","state_id":1133,"state_code":"38","country_id":4,"country_code":"DZ","latitude":"35.74922000","longitude":"1.54778000"},{"id":"31455","name":"Tissemsilt","state_id":1133,"state_code":"38","country_id":4,"country_code":"DZ","latitude":"35.60722000","longitude":"1.81081000"},{"id":"31468","name":"\u2018A\u00efn el Hadjel","state_id":1134,"state_code":"28","country_id":4,"country_code":"DZ","latitude":"35.67003000","longitude":"3.88153000"},{"id":"31477","name":"\u2019A\u00efn el Melh","state_id":1134,"state_code":"28","country_id":4,"country_code":"DZ","latitude":"34.84146000","longitude":"4.16383000"},{"id":"31391","name":"M\u2019Sila","state_id":1134,"state_code":"28","country_id":4,"country_code":"DZ","latitude":"35.70583000","longitude":"4.54194000"},{"id":"31426","name":"Sidi A\u00efssa","state_id":1134,"state_code":"28","country_id":4,"country_code":"DZ","latitude":"35.88548000","longitude":"3.77236000"},{"id":"31356","name":"I-n-Salah","state_id":1135,"state_code":"11","country_id":4,"country_code":"DZ","latitude":"27.19351000","longitude":"2.46069000"},{"id":"31443","name":"Tamanrasset","state_id":1135,"state_code":"11","country_id":4,"country_code":"DZ","latitude":"22.78500000","longitude":"5.52278000"},{"id":"31242","name":"A\u00efn Be\u00efda","state_id":1136,"state_code":"04","country_id":4,"country_code":"DZ","latitude":"35.79639000","longitude":"7.39278000"},{"id":"31244","name":"A\u00efn Fakroun","state_id":1136,"state_code":"04","country_id":4,"country_code":"DZ","latitude":"35.97108000","longitude":"6.87374000"},{"id":"31245","name":"A\u00efn Kercha","state_id":1136,"state_code":"04","country_id":4,"country_code":"DZ","latitude":"35.92472000","longitude":"6.69528000"},{"id":"31330","name":"El Aouinet","state_id":1136,"state_code":"04","country_id":4,"country_code":"DZ","latitude":"35.86691000","longitude":"7.88673000"},{"id":"31384","name":"Meskiana","state_id":1136,"state_code":"04","country_id":4,"country_code":"DZ","latitude":"35.63058000","longitude":"7.66606000"},{"id":"31404","name":"Oum el Bouaghi","state_id":1136,"state_code":"04","country_id":4,"country_code":"DZ","latitude":"35.87541000","longitude":"7.11353000"},{"id":"31293","name":"Boumahra Ahmed","state_id":1137,"state_code":"24","country_id":4,"country_code":"DZ","latitude":"36.45833000","longitude":"7.51389000"},{"id":"31348","name":"Guelma","state_id":1137,"state_code":"24","country_id":4,"country_code":"DZ","latitude":"36.46214000","longitude":"7.42608000"},{"id":"31355","name":"H\u00e9liopolis","state_id":1137,"state_code":"24","country_id":4,"country_code":"DZ","latitude":"36.50361000","longitude":"7.44278000"},{"id":"31228","name":"Aflou","state_id":1138,"state_code":"03","country_id":4,"country_code":"DZ","latitude":"34.11279000","longitude":"2.10228000"},{"id":"31367","name":"Laghouat","state_id":1138,"state_code":"03","country_id":4,"country_code":"DZ","latitude":"33.80000000","longitude":"2.86514000"},{"id":"31316","name":"Djamaa","state_id":1139,"state_code":"30","country_id":4,"country_code":"DZ","latitude":"33.53388000","longitude":"5.99306000"},{"id":"31335","name":"El Hadjira","state_id":1139,"state_code":"30","country_id":4,"country_code":"DZ","latitude":"32.61336000","longitude":"5.51259000"},{"id":"31353","name":"Hassi Messaoud","state_id":1139,"state_code":"30","country_id":4,"country_code":"DZ","latitude":"31.68041000","longitude":"6.07286000"},{"id":"31378","name":"Megarine","state_id":1139,"state_code":"30","country_id":4,"country_code":"DZ","latitude":"33.19195000","longitude":"6.08695000"},{"id":"31396","name":"Ouargla","state_id":1139,"state_code":"30","country_id":4,"country_code":"DZ","latitude":"31.94932000","longitude":"5.32502000"},{"id":"31414","name":"Rouissat","state_id":1139,"state_code":"30","country_id":4,"country_code":"DZ","latitude":"31.92427000","longitude":"5.35018000"},{"id":"31425","name":"Sidi Amrane","state_id":1139,"state_code":"30","country_id":4,"country_code":"DZ","latitude":"33.49885000","longitude":"6.00803000"},{"id":"31445","name":"Tebesbest","state_id":1139,"state_code":"30","country_id":4,"country_code":"DZ","latitude":"33.11667000","longitude":"6.08333000"},{"id":"31462","name":"Touggourt","state_id":1139,"state_code":"30","country_id":4,"country_code":"DZ","latitude":"33.10527000","longitude":"6.05796000"},{"id":"31388","name":"Mostaganem","state_id":1140,"state_code":"27","country_id":4,"country_code":"DZ","latitude":"35.93115000","longitude":"0.08918000"},{"id":"31240","name":"A\u00efn Arnat","state_id":1141,"state_code":"19","country_id":4,"country_code":"DZ","latitude":"36.18683000","longitude":"5.31347000"},{"id":"31253","name":"BABOR - VILLE","state_id":1141,"state_code":"19","country_id":4,"country_code":"DZ","latitude":"36.48994000","longitude":"5.53930000"},{"id":"31288","name":"Bougaa","state_id":1141,"state_code":"19","country_id":4,"country_code":"DZ","latitude":"36.33293000","longitude":"5.08843000"},{"id":"31333","name":"El Eulma","state_id":1141,"state_code":"19","country_id":4,"country_code":"DZ","latitude":"36.15281000","longitude":"5.69016000"},{"id":"31417","name":"Salah Bey","state_id":1141,"state_code":"19","country_id":4,"country_code":"DZ","latitude":"35.85451000","longitude":"5.29053000"},{"id":"31440","name":"S\u00e9tif","state_id":1141,"state_code":"19","country_id":4,"country_code":"DZ","latitude":"36.19112000","longitude":"5.41373000"},{"id":"31251","name":"A\u00efn Touta","state_id":1142,"state_code":"05","country_id":4,"country_code":"DZ","latitude":"35.37675000","longitude":"5.90001000"},{"id":"31237","name":"Arris","state_id":1142,"state_code":"05","country_id":4,"country_code":"DZ","latitude":"35.25881000","longitude":"6.34706000"},{"id":"31257","name":"Barika","state_id":1142,"state_code":"05","country_id":4,"country_code":"DZ","latitude":"35.38901000","longitude":"5.36584000"},{"id":"31258","name":"Batna","state_id":1142,"state_code":"05","country_id":4,"country_code":"DZ","latitude":"35.55597000","longitude":"6.17414000"},{"id":"31292","name":"Boumagueur","state_id":1142,"state_code":"05","country_id":4,"country_code":"DZ","latitude":"35.50520000","longitude":"5.55250000"},{"id":"31382","name":"Merouana","state_id":1142,"state_code":"05","country_id":4,"country_code":"DZ","latitude":"35.63106000","longitude":"5.91186000"},{"id":"31415","name":"R\u00e2s el A\u00efoun","state_id":1142,"state_code":"05","country_id":4,"country_code":"DZ","latitude":"35.67384000","longitude":"5.64530000"},{"id":"31444","name":"Tazoult-Lambese","state_id":1142,"state_code":"05","country_id":4,"country_code":"DZ","latitude":"35.48171000","longitude":"6.26074000"},{"id":"31422","name":"Sedrata","state_id":1143,"state_code":"41","country_id":4,"country_code":"DZ","latitude":"36.12868000","longitude":"7.53376000"},{"id":"31437","name":"Souk Ahras","state_id":1143,"state_code":"41","country_id":4,"country_code":"DZ","latitude":"36.28639000","longitude":"7.95111000"},{"id":"31249","name":"A\u00efn Taya","state_id":1144,"state_code":"16","country_id":4,"country_code":"DZ","latitude":"36.79333000","longitude":"3.28694000"},{"id":"31230","name":"Algiers","state_id":1144,"state_code":"16","country_id":4,"country_code":"DZ","latitude":"36.73225000","longitude":"3.08746000"},{"id":"31254","name":"Bab Ezzouar","state_id":1144,"state_code":"16","country_id":4,"country_code":"DZ","latitude":"36.72615000","longitude":"3.18291000"},{"id":"31274","name":"Birkhadem","state_id":1144,"state_code":"16","country_id":4,"country_code":"DZ","latitude":"36.71499000","longitude":"3.05002000"},{"id":"31281","name":"Bordj el Kiffan","state_id":1144,"state_code":"16","country_id":4,"country_code":"DZ","latitude":"36.74871000","longitude":"3.19249000"},{"id":"31312","name":"Dar el Be\u00efda","state_id":1144,"state_code":"16","country_id":4,"country_code":"DZ","latitude":"36.71333000","longitude":"3.21250000"},{"id":"31413","name":"Rouiba","state_id":1144,"state_code":"16","country_id":4,"country_code":"DZ","latitude":"36.73829000","longitude":"3.28079000"}]