[{"id":"63129","name":"Adir","state_id":956,"state_code":"KA","country_id":111,"country_code":"JO","latitude":"31.20217000","longitude":"35.76155000"},{"id":"63135","name":"Al Khinzirah","state_id":956,"state_code":"KA","country_id":111,"country_code":"JO","latitude":"31.05056000","longitude":"35.60606000"},{"id":"63137","name":"Al Mazar al Janubi","state_id":956,"state_code":"KA","country_id":111,"country_code":"JO","latitude":"31.06722000","longitude":"35.69486000"},{"id":"63138","name":"Al Qasr","state_id":956,"state_code":"KA","country_id":111,"country_code":"JO","latitude":"31.31407000","longitude":"35.74393000"},{"id":"63143","name":"Ar Rabbah","state_id":956,"state_code":"KA","country_id":111,"country_code":"JO","latitude":"31.26923000","longitude":"35.73829000"},{"id":"63209","name":"\u2018Ayy","state_id":956,"state_code":"KA","country_id":111,"country_code":"JO","latitude":"31.13371000","longitude":"35.64375000"},{"id":"63210","name":"\u2018Izra","state_id":956,"state_code":"KA","country_id":111,"country_code":"JO","latitude":"31.15889000","longitude":"35.69278000"},{"id":"63166","name":"Karak City","state_id":956,"state_code":"KA","country_id":111,"country_code":"JO","latitude":"31.16368000","longitude":"35.76204000"},{"id":"63182","name":"Safi","state_id":956,"state_code":"KA","country_id":111,"country_code":"JO","latitude":"31.03608000","longitude":"35.46544000"}]