[{"id":"63199","name":"Sakhrah","state_id":963,"state_code":"AJ","country_id":111,"country_code":"JO","latitude":"32.37087000","longitude":"35.84267000"},{"id":"63202","name":"\u1e28alawah","state_id":963,"state_code":"AJ","country_id":111,"country_code":"JO","latitude":"32.38433000","longitude":"35.66167000"},{"id":"63206","name":"\u2018Ajlun","state_id":963,"state_code":"AJ","country_id":111,"country_code":"JO","latitude":"32.33326000","longitude":"35.75279000"},{"id":"63207","name":"\u2018Anjarah","state_id":963,"state_code":"AJ","country_id":111,"country_code":"JO","latitude":"32.30630000","longitude":"35.75653000"},{"id":"63208","name":"\u2018Ayn Jannah","state_id":963,"state_code":"AJ","country_id":111,"country_code":"JO","latitude":"32.33466000","longitude":"35.76370000"}]