[{"id":"102808","name":"Ad Dawadimi","state_id":2849,"state_code":"01","country_id":194,"country_code":"SA","latitude":"24.50772000","longitude":"44.39237000"},{"id":"102809","name":"Ad Dilam","state_id":2849,"state_code":"01","country_id":194,"country_code":"SA","latitude":"23.99104000","longitude":"47.16181000"},{"id":"102811","name":"Afif","state_id":2849,"state_code":"01","country_id":194,"country_code":"SA","latitude":"23.90650000","longitude":"42.91724000"},{"id":"102812","name":"Ain AlBaraha","state_id":2849,"state_code":"01","country_id":194,"country_code":"SA","latitude":"24.75806000","longitude":"43.77389000"},{"id":"102813","name":"Al Artawiyah","state_id":2849,"state_code":"01","country_id":194,"country_code":"SA","latitude":"26.50387000","longitude":"45.34813000"},{"id":"102826","name":"Al Kharj","state_id":2849,"state_code":"01","country_id":194,"country_code":"SA","latitude":"24.15541000","longitude":"47.33457000"},{"id":"102844","name":"As Sulayyil","state_id":2849,"state_code":"01","country_id":194,"country_code":"SA","latitude":"20.46067000","longitude":"45.57792000"},{"id":"102847","name":"Az Zulfi","state_id":2849,"state_code":"01","country_id":194,"country_code":"SA","latitude":"26.29945000","longitude":"44.81542000"},{"id":"102863","name":"Marat","state_id":2849,"state_code":"01","country_id":194,"country_code":"SA","latitude":"25.07064000","longitude":"45.45775000"},{"id":"102874","name":"Riyadh","state_id":2849,"state_code":"01","country_id":194,"country_code":"SA","latitude":"24.68773000","longitude":"46.72185000"},{"id":"102880","name":"Sajir","state_id":2849,"state_code":"01","country_id":194,"country_code":"SA","latitude":"25.18251000","longitude":"44.59964000"},{"id":"102893","name":"shokhaib\u064d","state_id":2849,"state_code":"01","country_id":194,"country_code":"SA","latitude":"24.49023000","longitude":"46.26871000"},{"id":"102885","name":"Tumayr","state_id":2849,"state_code":"01","country_id":194,"country_code":"SA","latitude":"25.70347000","longitude":"45.86835000"}]