[{"id":"102819","name":"Al Hada","state_id":2850,"state_code":"02","country_id":194,"country_code":"SA","latitude":"21.36753000","longitude":"40.28694000"},{"id":"102824","name":"Al Jumum","state_id":2850,"state_code":"02","country_id":194,"country_code":"SA","latitude":"21.61694000","longitude":"39.69806000"},{"id":"102833","name":"Al Muwayh","state_id":2850,"state_code":"02","country_id":194,"country_code":"SA","latitude":"22.43333000","longitude":"41.75829000"},{"id":"102845","name":"Ash Shafa","state_id":2850,"state_code":"02","country_id":194,"country_code":"SA","latitude":"21.07210000","longitude":"40.31185000"},{"id":"102855","name":"Ghran","state_id":2850,"state_code":"02","country_id":194,"country_code":"SA","latitude":"21.98027000","longitude":"39.36521000"},{"id":"102858","name":"Jeddah","state_id":2850,"state_code":"02","country_id":194,"country_code":"SA","latitude":"21.54238000","longitude":"39.19797000"},{"id":"102864","name":"Mecca","state_id":2850,"state_code":"02","country_id":194,"country_code":"SA","latitude":"21.42664000","longitude":"39.82563000"},{"id":"102875","name":"Rabigh","state_id":2850,"state_code":"02","country_id":194,"country_code":"SA","latitude":"22.79856000","longitude":"39.03493000"},{"id":"102884","name":"Ta\u2019if","state_id":2850,"state_code":"02","country_id":194,"country_code":"SA","latitude":"21.27028000","longitude":"40.41583000"},{"id":"102886","name":"Turabah","state_id":2850,"state_code":"02","country_id":194,"country_code":"SA","latitude":"21.21406000","longitude":"41.63310000"}]