[{"id":"76676","name":"Agui\u00e9","state_id":70,"state_code":"4","country_id":160,"country_code":"NE","latitude":"13.50601000","longitude":"7.77863000"},{"id":"76685","name":"Dakoro","state_id":70,"state_code":"4","country_id":160,"country_code":"NE","latitude":"14.51056000","longitude":"6.76500000"},{"id":"76714","name":"D\u00e9partement d\u2019Agui\u00e9","state_id":70,"state_code":"4","country_id":160,"country_code":"NE","latitude":"13.46976000","longitude":"7.74219000"},{"id":"76693","name":"D\u00e9partement de Dakoro","state_id":70,"state_code":"4","country_id":160,"country_code":"NE","latitude":"14.75000000","longitude":"7.00000000"},{"id":"76704","name":"D\u00e9partement de Mayahi","state_id":70,"state_code":"4","country_id":160,"country_code":"NE","latitude":"14.10000000","longitude":"7.60000000"},{"id":"76712","name":"D\u00e9partement de Tessaoua","state_id":70,"state_code":"4","country_id":160,"country_code":"NE","latitude":"13.60000000","longitude":"7.90000000"},{"id":"76718","name":"Guidan Roumdji Department","state_id":70,"state_code":"4","country_id":160,"country_code":"NE","latitude":"13.65750000","longitude":"6.69583000"},{"id":"76724","name":"Madarounfa","state_id":70,"state_code":"4","country_id":160,"country_code":"NE","latitude":"13.28253000","longitude":"7.15495000"},{"id":"76726","name":"Maradi","state_id":70,"state_code":"4","country_id":160,"country_code":"NE","latitude":"13.50000000","longitude":"7.10174000"},{"id":"76728","name":"Mayahi","state_id":70,"state_code":"4","country_id":160,"country_code":"NE","latitude":"13.95532000","longitude":"7.67122000"},{"id":"76738","name":"Tessaoua","state_id":70,"state_code":"4","country_id":160,"country_code":"NE","latitude":"13.75737000","longitude":"7.98740000"},{"id":"76739","name":"Tibiri","state_id":70,"state_code":"4","country_id":160,"country_code":"NE","latitude":"13.56271000","longitude":"7.04848000"}]