[{"id":"66566","name":"Mafeteng","state_id":3022,"state_code":"E","country_id":122,"country_code":"LS","latitude":"-29.82299000","longitude":"27.23744000"},{"id":"66569","name":"Mohale\u2019s Hoek","state_id":3023,"state_code":"F","country_id":122,"country_code":"LS","latitude":"-30.15137000","longitude":"27.47691000"},{"id":"66570","name":"Mokhotlong","state_id":3024,"state_code":"J","country_id":122,"country_code":"LS","latitude":"-29.28939000","longitude":"29.06751000"},{"id":"66572","name":"Qacha\u2019s Nek","state_id":3025,"state_code":"H","country_id":122,"country_code":"LS","latitude":"-30.11537000","longitude":"28.68936000"},{"id":"66565","name":"Leribe","state_id":3026,"state_code":"C","country_id":122,"country_code":"LS","latitude":"-28.87185000","longitude":"28.04501000"},{"id":"66567","name":"Maputsoe","state_id":3026,"state_code":"C","country_id":122,"country_code":"LS","latitude":"-28.88660000","longitude":"27.89915000"},{"id":"66573","name":"Quthing","state_id":3027,"state_code":"G","country_id":122,"country_code":"LS","latitude":"-30.40001000","longitude":"27.70027000"},{"id":"66568","name":"Maseru","state_id":3028,"state_code":"A","country_id":122,"country_code":"LS","latitude":"-29.31667000","longitude":"27.48333000"},{"id":"66571","name":"Nako","state_id":3028,"state_code":"A","country_id":122,"country_code":"LS","latitude":"-29.61667000","longitude":"27.76667000"},{"id":"66564","name":"Butha-Buthe","state_id":3029,"state_code":"B","country_id":122,"country_code":"LS","latitude":"-28.76659000","longitude":"28.24937000"},{"id":"66574","name":"Teyateyaneng","state_id":3030,"state_code":"D","country_id":122,"country_code":"LS","latitude":"-29.14719000","longitude":"27.74895000"},{"id":"66575","name":"Thaba-Tseka","state_id":3031,"state_code":"K","country_id":122,"country_code":"LS","latitude":"-29.52204000","longitude":"28.60840000"}]