[{"id":"38758","name":"Halsua","state_id":1494,"state_code":"07","country_id":74,"country_code":"FI","latitude":"63.46667000","longitude":"24.16667000"},{"id":"38824","name":"Kannus","state_id":1494,"state_code":"07","country_id":74,"country_code":"FI","latitude":"63.90000000","longitude":"23.90000000"},{"id":"38838","name":"Kaustinen","state_id":1494,"state_code":"07","country_id":74,"country_code":"FI","latitude":"63.54878000","longitude":"23.68845000"},{"id":"38888","name":"K\u00e4lvi\u00e4","state_id":1494,"state_code":"07","country_id":74,"country_code":"FI","latitude":"63.86067000","longitude":"23.45289000"},{"id":"38864","name":"Kokkola","state_id":1494,"state_code":"07","country_id":74,"country_code":"FI","latitude":"63.85414000","longitude":"23.58562000"},{"id":"38911","name":"Lestij\u00e4rvi","state_id":1494,"state_code":"07","country_id":74,"country_code":"FI","latitude":"63.53333000","longitude":"24.65000000"},{"id":"38918","name":"Lohtaja","state_id":1494,"state_code":"07","country_id":74,"country_code":"FI","latitude":"64.02472000","longitude":"23.50482000"},{"id":"38977","name":"Perho","state_id":1494,"state_code":"07","country_id":74,"country_code":"FI","latitude":"63.21667000","longitude":"24.41667000"},{"id":"39078","name":"Toholampi","state_id":1494,"state_code":"07","country_id":74,"country_code":"FI","latitude":"63.76667000","longitude":"24.25000000"},{"id":"39088","name":"Ullava","state_id":1494,"state_code":"07","country_id":74,"country_code":"FI","latitude":"63.60000000","longitude":"24.08333000"},{"id":"39106","name":"Veteli","state_id":1494,"state_code":"07","country_id":74,"country_code":"FI","latitude":"63.47839000","longitude":"23.78285000"}]