[{"id":"38746","name":"Enonkoski","state_id":1495,"state_code":"04","country_id":74,"country_code":"FI","latitude":"62.08333000","longitude":"28.93333000"},{"id":"38766","name":"Haukivuori","state_id":1495,"state_code":"04","country_id":74,"country_code":"FI","latitude":"62.01753000","longitude":"27.21906000"},{"id":"38769","name":"Hein\u00e4vesi","state_id":1495,"state_code":"04","country_id":74,"country_code":"FI","latitude":"62.43333000","longitude":"28.60000000"},{"id":"38773","name":"Hirvensalmi","state_id":1495,"state_code":"04","country_id":74,"country_code":"FI","latitude":"61.63333000","longitude":"26.80000000"},{"id":"38811","name":"J\u00e4ppil\u00e4","state_id":1495,"state_code":"04","country_id":74,"country_code":"FI","latitude":"62.37899000","longitude":"27.43372000"},{"id":"38800","name":"Joroinen","state_id":1495,"state_code":"04","country_id":74,"country_code":"FI","latitude":"62.17823000","longitude":"27.83165000"},{"id":"38806","name":"Juva","state_id":1495,"state_code":"04","country_id":74,"country_code":"FI","latitude":"61.90000000","longitude":"27.85000000"},{"id":"38821","name":"Kangasniemi","state_id":1495,"state_code":"04","country_id":74,"country_code":"FI","latitude":"61.99357000","longitude":"26.64785000"},{"id":"38846","name":"Kerim\u00e4ki","state_id":1495,"state_code":"04","country_id":74,"country_code":"FI","latitude":"61.91069000","longitude":"29.28228000"},{"id":"38947","name":"M\u00e4ntyharju","state_id":1495,"state_code":"04","country_id":74,"country_code":"FI","latitude":"61.41667000","longitude":"26.88333000"},{"id":"38937","name":"Mikkeli","state_id":1495,"state_code":"04","country_id":74,"country_code":"FI","latitude":"61.68857000","longitude":"27.27227000"},{"id":"38981","name":"Pertunmaa","state_id":1495,"state_code":"04","country_id":74,"country_code":"FI","latitude":"61.50000000","longitude":"26.48333000"},{"id":"38983","name":"Pieks\u00e4m\u00e4ki","state_id":1495,"state_code":"04","country_id":74,"country_code":"FI","latitude":"62.30000000","longitude":"27.13333000"},{"id":"38998","name":"Punkaharju","state_id":1495,"state_code":"04","country_id":74,"country_code":"FI","latitude":"61.75883000","longitude":"29.38843000"},{"id":"39000","name":"Puumala","state_id":1495,"state_code":"04","country_id":74,"country_code":"FI","latitude":"61.52728000","longitude":"28.17495000"},{"id":"39013","name":"Rantasalmi","state_id":1495,"state_code":"04","country_id":74,"country_code":"FI","latitude":"62.06667000","longitude":"28.30000000"},{"id":"39024","name":"Ristiina","state_id":1495,"state_code":"04","country_id":74,"country_code":"FI","latitude":"61.50579000","longitude":"27.24643000"},{"id":"39041","name":"Savonlinna","state_id":1495,"state_code":"04","country_id":74,"country_code":"FI","latitude":"61.86990000","longitude":"28.87999000"},{"id":"39042","name":"Savonranta","state_id":1495,"state_code":"04","country_id":74,"country_code":"FI","latitude":"62.18333000","longitude":"29.20000000"},{"id":"39057","name":"Sulkava","state_id":1495,"state_code":"04","country_id":74,"country_code":"FI","latitude":"61.78691000","longitude":"28.37299000"},{"id":"39113","name":"Virtasalmi","state_id":1495,"state_code":"04","country_id":74,"country_code":"FI","latitude":"62.12695000","longitude":"27.46276000"}]