[{"id":"38787","name":"Imatra","state_id":1497,"state_code":"02","country_id":74,"country_code":"FI","latitude":"61.17185000","longitude":"28.75242000"},{"id":"38802","name":"Joutseno","state_id":1497,"state_code":"02","country_id":74,"country_code":"FI","latitude":"61.11796000","longitude":"28.50763000"},{"id":"38899","name":"Lappeenranta","state_id":1497,"state_code":"02","country_id":74,"country_code":"FI","latitude":"61.05871000","longitude":"28.18871000"},{"id":"38908","name":"Lemi","state_id":1497,"state_code":"02","country_id":74,"country_code":"FI","latitude":"61.06244000","longitude":"27.80571000"},{"id":"38923","name":"Luum\u00e4ki","state_id":1497,"state_code":"02","country_id":74,"country_code":"FI","latitude":"60.92618000","longitude":"27.58135000"},{"id":"38956","name":"Nuijamaa","state_id":1497,"state_code":"02","country_id":74,"country_code":"FI","latitude":"60.96011000","longitude":"28.55104000"},{"id":"38973","name":"Parikkala","state_id":1497,"state_code":"02","country_id":74,"country_code":"FI","latitude":"61.55000000","longitude":"29.50000000"},{"id":"39019","name":"Rautj\u00e4rvi","state_id":1497,"state_code":"02","country_id":74,"country_code":"FI","latitude":"61.43333000","longitude":"29.35000000"},{"id":"39028","name":"Ruokolahti","state_id":1497,"state_code":"02","country_id":74,"country_code":"FI","latitude":"61.28333000","longitude":"28.83333000"},{"id":"39034","name":"Saari","state_id":1497,"state_code":"02","country_id":74,"country_code":"FI","latitude":"61.65000000","longitude":"29.75000000"},{"id":"39040","name":"Savitaipale","state_id":1497,"state_code":"02","country_id":74,"country_code":"FI","latitude":"61.20000000","longitude":"27.70000000"},{"id":"39067","name":"Taipalsaari","state_id":1497,"state_code":"02","country_id":74,"country_code":"FI","latitude":"61.15000000","longitude":"28.05000000"},{"id":"39127","name":"Yl\u00e4maa","state_id":1497,"state_code":"02","country_id":74,"country_code":"FI","latitude":"60.80000000","longitude":"28.00000000"}]