[{"id":"39132","name":"\u00c4\u00e4nekoski","state_id":1511,"state_code":"08","country_id":74,"country_code":"FI","latitude":"62.60000000","longitude":"25.73333000"},{"id":"38760","name":"Hankasalmi","state_id":1511,"state_code":"08","country_id":74,"country_code":"FI","latitude":"62.38333000","longitude":"26.43333000"},{"id":"38809","name":"J\u00e4ms\u00e4","state_id":1511,"state_code":"08","country_id":74,"country_code":"FI","latitude":"61.86420000","longitude":"25.19002000"},{"id":"38810","name":"J\u00e4ms\u00e4nkoski","state_id":1511,"state_code":"08","country_id":74,"country_code":"FI","latitude":"61.91900000","longitude":"25.17011000"},{"id":"38801","name":"Joutsa","state_id":1511,"state_code":"08","country_id":74,"country_code":"FI","latitude":"61.73333000","longitude":"26.11667000"},{"id":"38807","name":"Jyv\u00e4skyl\u00e4","state_id":1511,"state_code":"08","country_id":74,"country_code":"FI","latitude":"62.24147000","longitude":"25.72088000"},{"id":"38823","name":"Kannonkoski","state_id":1511,"state_code":"08","country_id":74,"country_code":"FI","latitude":"62.96667000","longitude":"25.25000000"},{"id":"38831","name":"Karstula","state_id":1511,"state_code":"08","country_id":74,"country_code":"FI","latitude":"62.86667000","longitude":"24.78333000"},{"id":"38849","name":"Keuruu","state_id":1511,"state_code":"08","country_id":74,"country_code":"FI","latitude":"62.26667000","longitude":"24.70000000"},{"id":"38855","name":"Kinnula","state_id":1511,"state_code":"08","country_id":74,"country_code":"FI","latitude":"63.38333000","longitude":"24.95000000"},{"id":"38862","name":"Kivij\u00e4rvi","state_id":1511,"state_code":"08","country_id":74,"country_code":"FI","latitude":"63.11984000","longitude":"25.07835000"},{"id":"38866","name":"Konnevesi","state_id":1511,"state_code":"08","country_id":74,"country_code":"FI","latitude":"62.61667000","longitude":"26.31667000"},{"id":"38868","name":"Korpilahti","state_id":1511,"state_code":"08","country_id":74,"country_code":"FI","latitude":"62.01667000","longitude":"25.55000000"},{"id":"38878","name":"Kuhmoinen","state_id":1511,"state_code":"08","country_id":74,"country_code":"FI","latitude":"61.56667000","longitude":"25.18333000"},{"id":"38887","name":"Kyyj\u00e4rvi","state_id":1511,"state_code":"08","country_id":74,"country_code":"FI","latitude":"63.03333000","longitude":"24.56667000"},{"id":"38903","name":"Laukaa","state_id":1511,"state_code":"08","country_id":74,"country_code":"FI","latitude":"62.41407000","longitude":"25.95194000"},{"id":"38907","name":"Leivonm\u00e4ki","state_id":1511,"state_code":"08","country_id":74,"country_code":"FI","latitude":"61.91198000","longitude":"26.12796000"},{"id":"38921","name":"Luhanka","state_id":1511,"state_code":"08","country_id":74,"country_code":"FI","latitude":"61.79682000","longitude":"25.70457000"},{"id":"38939","name":"Multia","state_id":1511,"state_code":"08","country_id":74,"country_code":"FI","latitude":"62.41667000","longitude":"24.78333000"},{"id":"38942","name":"Muurame","state_id":1511,"state_code":"08","country_id":74,"country_code":"FI","latitude":"62.13333000","longitude":"25.66667000"},{"id":"38982","name":"Pet\u00e4j\u00e4vesi","state_id":1511,"state_code":"08","country_id":74,"country_code":"FI","latitude":"62.25000000","longitude":"25.20000000"},{"id":"38985","name":"Pihtipudas","state_id":1511,"state_code":"08","country_id":74,"country_code":"FI","latitude":"63.38333000","longitude":"25.56667000"},{"id":"39008","name":"Pylk\u00f6nm\u00e4ki","state_id":1511,"state_code":"08","country_id":74,"country_code":"FI","latitude":"62.66667000","longitude":"24.80000000"},{"id":"39035","name":"Saarij\u00e4rvi","state_id":1511,"state_code":"08","country_id":74,"country_code":"FI","latitude":"62.70486000","longitude":"25.25396000"},{"id":"39066","name":"S\u00e4yn\u00e4tsalo","state_id":1511,"state_code":"08","country_id":74,"country_code":"FI","latitude":"62.14025000","longitude":"25.76948000"},{"id":"39058","name":"Sumiainen","state_id":1511,"state_code":"08","country_id":74,"country_code":"FI","latitude":"62.65736000","longitude":"26.04642000"},{"id":"39059","name":"Suolahti","state_id":1511,"state_code":"08","country_id":74,"country_code":"FI","latitude":"62.56421000","longitude":"25.85363000"},{"id":"39079","name":"Toivakka","state_id":1511,"state_code":"08","country_id":74,"country_code":"FI","latitude":"62.10000000","longitude":"26.08333000"},{"id":"39092","name":"Uurainen","state_id":1511,"state_code":"08","country_id":74,"country_code":"FI","latitude":"62.50000000","longitude":"25.45000000"},{"id":"39110","name":"Viitasaari","state_id":1511,"state_code":"08","country_id":74,"country_code":"FI","latitude":"63.06667000","longitude":"25.86667000"}]