[{"id":"21803","name":"Alamar","state_id":272,"state_code":"03","country_id":56,"country_code":"CU","latitude":"23.15794000","longitude":"-82.27837000"},{"id":"21806","name":"Arroyo Naranjo","state_id":272,"state_code":"03","country_id":56,"country_code":"CU","latitude":"23.03677000","longitude":"-82.36937000"},{"id":"21818","name":"Boyeros","state_id":272,"state_code":"03","country_id":56,"country_code":"CU","latitude":"23.00720000","longitude":"-82.40170000"},{"id":"21830","name":"Centro Habana","state_id":272,"state_code":"03","country_id":56,"country_code":"CU","latitude":"23.13833000","longitude":"-82.36417000"},{"id":"21831","name":"Cerro","state_id":272,"state_code":"03","country_id":56,"country_code":"CU","latitude":"23.10861000","longitude":"-82.37778000"},{"id":"21847","name":"Diez de Octubre","state_id":272,"state_code":"03","country_id":56,"country_code":"CU","latitude":"23.08810000","longitude":"-82.35970000"},{"id":"21857","name":"Guanabacoa","state_id":272,"state_code":"03","country_id":56,"country_code":"CU","latitude":"23.12360000","longitude":"-82.30082000"},{"id":"21866","name":"Habana del Este","state_id":272,"state_code":"03","country_id":56,"country_code":"CU","latitude":"23.15917000","longitude":"-82.33056000"},{"id":"21867","name":"Havana","state_id":272,"state_code":"03","country_id":56,"country_code":"CU","latitude":"23.13302000","longitude":"-82.38304000"},{"id":"21880","name":"La Habana Vieja","state_id":272,"state_code":"03","country_id":56,"country_code":"CU","latitude":"23.13028000","longitude":"-82.35306000"},{"id":"21952","name":"Regla","state_id":272,"state_code":"03","country_id":56,"country_code":"CU","latitude":"23.12500000","longitude":"-82.33194000"},{"id":"21966","name":"San Miguel del Padr\u00f3n","state_id":272,"state_code":"03","country_id":56,"country_code":"CU","latitude":"23.06639000","longitude":"-82.29472000"},{"id":"21973","name":"Santiago de las Vegas","state_id":272,"state_code":"03","country_id":56,"country_code":"CU","latitude":"22.97000000","longitude":"-82.38694000"}]