[{"id":"21812","name":"Bartolom\u00e9 Mas\u00f3","state_id":275,"state_code":"12","country_id":56,"country_code":"CU","latitude":"20.16635000","longitude":"-76.94291000"},{"id":"21815","name":"Bayamo","state_id":275,"state_code":"12","country_id":56,"country_code":"CU","latitude":"20.37417000","longitude":"-76.64361000"},{"id":"21827","name":"Campechuela","state_id":275,"state_code":"12","country_id":56,"country_code":"CU","latitude":"20.23329000","longitude":"-77.27990000"},{"id":"21829","name":"Cauto Cristo","state_id":275,"state_code":"12","country_id":56,"country_code":"CU","latitude":"20.55709000","longitude":"-76.47270000"},{"id":"21862","name":"Guisa","state_id":275,"state_code":"12","country_id":56,"country_code":"CU","latitude":"20.25494000","longitude":"-76.53930000"},{"id":"21875","name":"Jiguan\u00ed","state_id":275,"state_code":"12","country_id":56,"country_code":"CU","latitude":"20.36785000","longitude":"-76.42741000"},{"id":"21894","name":"Manzanillo","state_id":275,"state_code":"12","country_id":56,"country_code":"CU","latitude":"20.34173000","longitude":"-77.12126000"},{"id":"21898","name":"Media Luna","state_id":275,"state_code":"12","country_id":56,"country_code":"CU","latitude":"20.14298000","longitude":"-77.43532000"},{"id":"21907","name":"Municipio de Bayamo","state_id":275,"state_code":"12","country_id":56,"country_code":"CU","latitude":"20.42511000","longitude":"-76.68614000"},{"id":"21922","name":"Municipio de Manzanillo","state_id":275,"state_code":"12","country_id":56,"country_code":"CU","latitude":"20.24732000","longitude":"-77.10273000"},{"id":"21927","name":"Municipio de Niquero","state_id":275,"state_code":"12","country_id":56,"country_code":"CU","latitude":"19.93912000","longitude":"-77.57085000"},{"id":"21936","name":"Niquero","state_id":275,"state_code":"12","country_id":56,"country_code":"CU","latitude":"20.04698000","longitude":"-77.58089000"},{"id":"21954","name":"R\u00edo Cauto","state_id":275,"state_code":"12","country_id":56,"country_code":"CU","latitude":"20.55971000","longitude":"-76.91673000"},{"id":"21985","name":"Yara","state_id":275,"state_code":"12","country_id":56,"country_code":"CU","latitude":"20.27465000","longitude":"-76.95132000"}]