[{"id":"21813","name":"Bataban\u00f3","state_id":276,"state_code":"16","country_id":56,"country_code":"CU","latitude":"22.71794000","longitude":"-82.28965000"},{"id":"21816","name":"Bejucal","state_id":276,"state_code":"16","country_id":56,"country_code":"CU","latitude":"22.92861000","longitude":"-82.38861000"},{"id":"21864","name":"G\u00fcines","state_id":276,"state_code":"16","country_id":56,"country_code":"CU","latitude":"22.83727000","longitude":"-82.02641000"},{"id":"21871","name":"Jamaica","state_id":276,"state_code":"16","country_id":56,"country_code":"CU","latitude":"22.97559000","longitude":"-82.16852000"},{"id":"21872","name":"Jaruco","state_id":276,"state_code":"16","country_id":56,"country_code":"CU","latitude":"23.04419000","longitude":"-82.00919000"},{"id":"21881","name":"La Salud","state_id":276,"state_code":"16","country_id":56,"country_code":"CU","latitude":"22.87199000","longitude":"-82.42328000"},{"id":"21888","name":"Madruga","state_id":276,"state_code":"16","country_id":56,"country_code":"CU","latitude":"22.91000000","longitude":"-81.85639000"},{"id":"21917","name":"Municipio de G\u00fcines","state_id":276,"state_code":"16","country_id":56,"country_code":"CU","latitude":"22.78712000","longitude":"-82.01602000"},{"id":"21925","name":"Municipio de Melena del Sur","state_id":276,"state_code":"16","country_id":56,"country_code":"CU","latitude":"22.78821000","longitude":"-82.15113000"},{"id":"21949","name":"Quivic\u00e1n","state_id":276,"state_code":"16","country_id":56,"country_code":"CU","latitude":"22.82313000","longitude":"-82.35558000"},{"id":"21963","name":"San Jos\u00e9 de las Lajas","state_id":276,"state_code":"16","country_id":56,"country_code":"CU","latitude":"22.96139000","longitude":"-82.15111000"},{"id":"21967","name":"San Nicol\u00e1s de Bari","state_id":276,"state_code":"16","country_id":56,"country_code":"CU","latitude":"22.78444000","longitude":"-81.91333000"},{"id":"21970","name":"Santa Cruz del Norte","state_id":276,"state_code":"16","country_id":56,"country_code":"CU","latitude":"23.15424000","longitude":"-81.92556000"}]