[{"id":"21840","name":"Consolaci\u00f3n del Sur","state_id":277,"state_code":"01","country_id":56,"country_code":"CU","latitude":"22.50419000","longitude":"-83.51442000"},{"id":"21859","name":"Guane","state_id":277,"state_code":"01","country_id":56,"country_code":"CU","latitude":"22.20179000","longitude":"-84.08484000"},{"id":"21887","name":"Los Palacios","state_id":277,"state_code":"01","country_id":56,"country_code":"CU","latitude":"22.58882000","longitude":"-83.24671000"},{"id":"21893","name":"Mantua","state_id":277,"state_code":"01","country_id":56,"country_code":"CU","latitude":"22.29058000","longitude":"-84.28599000"},{"id":"21900","name":"Minas de Matahambre","state_id":277,"state_code":"01","country_id":56,"country_code":"CU","latitude":"22.58691000","longitude":"-83.94551000"},{"id":"21911","name":"Municipio de Consolaci\u00f3n del Sur","state_id":277,"state_code":"01","country_id":56,"country_code":"CU","latitude":"22.44095000","longitude":"-83.41985000"},{"id":"21915","name":"Municipio de Guane","state_id":277,"state_code":"01","country_id":56,"country_code":"CU","latitude":"22.24591000","longitude":"-84.03660000"},{"id":"21920","name":"Municipio de La Palma","state_id":277,"state_code":"01","country_id":56,"country_code":"CU","latitude":"22.75000000","longitude":"-83.55000000"},{"id":"21921","name":"Municipio de Los Palacios","state_id":277,"state_code":"01","country_id":56,"country_code":"CU","latitude":"22.58333000","longitude":"-83.25000000"},{"id":"21943","name":"Pinar del R\u00edo","state_id":277,"state_code":"01","country_id":56,"country_code":"CU","latitude":"22.41667000","longitude":"-83.69667000"},{"id":"21946","name":"Puerto Esperanza","state_id":277,"state_code":"01","country_id":56,"country_code":"CU","latitude":"22.77041000","longitude":"-83.73138000"},{"id":"21961","name":"San Diego de Los Ba\u00f1os","state_id":277,"state_code":"01","country_id":56,"country_code":"CU","latitude":"22.64667000","longitude":"-83.36972000"},{"id":"21965","name":"San Luis","state_id":277,"state_code":"01","country_id":56,"country_code":"CU","latitude":"22.27898000","longitude":"-83.75956000"},{"id":"21983","name":"Vi\u00f1ales","state_id":277,"state_code":"01","country_id":56,"country_code":"CU","latitude":"22.61892000","longitude":"-83.70694000"}]