[{"id":"15808","name":"Asipovichy","state_id":2954,"state_code":"MA","country_id":21,"country_code":"BY","latitude":"53.30110000","longitude":"28.63860000"},{"id":"15809","name":"Asipovitski Rayon","state_id":2954,"state_code":"MA","country_id":21,"country_code":"BY","latitude":"53.33333000","longitude":"28.75000000"},{"id":"15816","name":"Babruysk","state_id":2954,"state_code":"MA","country_id":21,"country_code":"BY","latitude":"53.13840000","longitude":"29.22140000"},{"id":"15817","name":"Babruyski Rayon","state_id":2954,"state_code":"MA","country_id":21,"country_code":"BY","latitude":"53.08333000","longitude":"29.16667000"},{"id":"15836","name":"Buynichy","state_id":2954,"state_code":"MA","country_id":21,"country_code":"BY","latitude":"53.85360000","longitude":"30.26710000"},{"id":"15838","name":"Byalynichy","state_id":2954,"state_code":"MA","country_id":21,"country_code":"BY","latitude":"53.99940000","longitude":"29.71410000"},{"id":"15839","name":"Byalynitski Rayon","state_id":2954,"state_code":"MA","country_id":21,"country_code":"BY","latitude":"54.00000000","longitude":"29.75000000"},{"id":"15847","name":"Bykhaw","state_id":2954,"state_code":"MA","country_id":21,"country_code":"BY","latitude":"53.52100000","longitude":"30.24540000"},{"id":"15853","name":"Chavuski Rayon","state_id":2954,"state_code":"MA","country_id":21,"country_code":"BY","latitude":"53.83333000","longitude":"30.91667000"},{"id":"15854","name":"Chavusy","state_id":2954,"state_code":"MA","country_id":21,"country_code":"BY","latitude":"53.80980000","longitude":"30.97170000"},{"id":"15857","name":"Cherykaw","state_id":2954,"state_code":"MA","country_id":21,"country_code":"BY","latitude":"53.56890000","longitude":"31.38310000"},{"id":"15858","name":"Cherykawski Rayon","state_id":2954,"state_code":"MA","country_id":21,"country_code":"BY","latitude":"53.66667000","longitude":"31.33333000"},{"id":"15862","name":"Dashkawka","state_id":2954,"state_code":"MA","country_id":21,"country_code":"BY","latitude":"53.73520000","longitude":"30.26250000"},{"id":"15872","name":"Drybin","state_id":2954,"state_code":"MA","country_id":21,"country_code":"BY","latitude":"54.11920000","longitude":"31.09390000"},{"id":"15873","name":"Drybinski Rayon","state_id":2954,"state_code":"MA","country_id":21,"country_code":"BY","latitude":"54.08333000","longitude":"31.00000000"},{"id":"15891","name":"Hlusha","state_id":2954,"state_code":"MA","country_id":21,"country_code":"BY","latitude":"53.08680000","longitude":"28.85670000"},{"id":"15892","name":"Hlusk","state_id":2954,"state_code":"MA","country_id":21,"country_code":"BY","latitude":"52.90300000","longitude":"28.68450000"},{"id":"15902","name":"Horatski Rayon","state_id":2954,"state_code":"MA","country_id":21,"country_code":"BY","latitude":"54.33333000","longitude":"31.00000000"},{"id":"15903","name":"Horki","state_id":2954,"state_code":"MA","country_id":21,"country_code":"BY","latitude":"54.28620000","longitude":"30.98630000"},{"id":"15914","name":"Kadino","state_id":2954,"state_code":"MA","country_id":21,"country_code":"BY","latitude":"53.88389000","longitude":"30.52028000"},{"id":"15920","name":"Kamyennyya Lavy","state_id":2954,"state_code":"MA","country_id":21,"country_code":"BY","latitude":"54.08980000","longitude":"30.29620000"},{"id":"15928","name":"Kastsyukovichy","state_id":2954,"state_code":"MA","country_id":21,"country_code":"BY","latitude":"53.35250000","longitude":"32.05140000"},{"id":"15932","name":"Khodasy","state_id":2954,"state_code":"MA","country_id":21,"country_code":"BY","latitude":"53.92660000","longitude":"31.47790000"},{"id":"15934","name":"Khotsimsk","state_id":2954,"state_code":"MA","country_id":21,"country_code":"BY","latitude":"53.40860000","longitude":"32.57800000"},{"id":"15935","name":"Khotsimski Rayon","state_id":2954,"state_code":"MA","country_id":21,"country_code":"BY","latitude":"53.41667000","longitude":"32.50000000"},{"id":"15937","name":"Kirawsk","state_id":2954,"state_code":"MA","country_id":21,"country_code":"BY","latitude":"53.26930000","longitude":"29.47520000"},{"id":"15938","name":"Klichaw","state_id":2954,"state_code":"MA","country_id":21,"country_code":"BY","latitude":"53.49230000","longitude":"29.33560000"},{"id":"15939","name":"Klimavichy","state_id":2954,"state_code":"MA","country_id":21,"country_code":"BY","latitude":"53.60790000","longitude":"31.95860000"},{"id":"15948","name":"Krasnapol\u2019ski Rayon","state_id":2954,"state_code":"MA","country_id":21,"country_code":"BY","latitude":"53.33333000","longitude":"31.41667000"},{"id":"15947","name":"Krasnapollye","state_id":2954,"state_code":"MA","country_id":21,"country_code":"BY","latitude":"53.33530000","longitude":"31.39990000"},{"id":"15951","name":"Krasnyy Bereg","state_id":2954,"state_code":"MA","country_id":21,"country_code":"BY","latitude":"53.32910000","longitude":"30.19290000"},{"id":"15953","name":"Kruhlaye","state_id":2954,"state_code":"MA","country_id":21,"country_code":"BY","latitude":"54.24970000","longitude":"29.79680000"},{"id":"15955","name":"Krychaw","state_id":2954,"state_code":"MA","country_id":21,"country_code":"BY","latitude":"53.71250000","longitude":"31.71700000"},{"id":"15979","name":"Mahilyow","state_id":2954,"state_code":"MA","country_id":21,"country_code":"BY","latitude":"53.91680000","longitude":"30.34490000"},{"id":"15980","name":"Mahilyowski Rayon","state_id":2954,"state_code":"MA","country_id":21,"country_code":"BY","latitude":"53.83333000","longitude":"30.25000000"},{"id":"15994","name":"Mstsislaw","state_id":2954,"state_code":"MA","country_id":21,"country_code":"BY","latitude":"54.01850000","longitude":"31.72170000"},{"id":"15997","name":"Myazhysyatki","state_id":2954,"state_code":"MA","country_id":21,"country_code":"BY","latitude":"53.77760000","longitude":"30.17650000"},{"id":"16000","name":"Myshkavichy","state_id":2954,"state_code":"MA","country_id":21,"country_code":"BY","latitude":"53.21720000","longitude":"29.51200000"},{"id":"16015","name":"Palykavichy Pyershyya","state_id":2954,"state_code":"MA","country_id":21,"country_code":"BY","latitude":"53.98540000","longitude":"30.36000000"},{"id":"16025","name":"Pos\u00eblok Voskhod","state_id":2954,"state_code":"MA","country_id":21,"country_code":"BY","latitude":"53.77660000","longitude":"30.34970000"},{"id":"16038","name":"Ramanavichy","state_id":2954,"state_code":"MA","country_id":21,"country_code":"BY","latitude":"53.86530000","longitude":"30.55970000"},{"id":"16056","name":"Shklow","state_id":2954,"state_code":"MA","country_id":21,"country_code":"BY","latitude":"54.21310000","longitude":"30.28770000"},{"id":"16057","name":"Shklowski Rayon","state_id":2954,"state_code":"MA","country_id":21,"country_code":"BY","latitude":"54.16667000","longitude":"30.33333000"},{"id":"16061","name":"Slawharad","state_id":2954,"state_code":"MA","country_id":21,"country_code":"BY","latitude":"53.44290000","longitude":"31.00140000"},{"id":"16099","name":"Veyno","state_id":2954,"state_code":"MA","country_id":21,"country_code":"BY","latitude":"53.83333000","longitude":"30.38333000"},{"id":"16104","name":"Vishow","state_id":2954,"state_code":"MA","country_id":21,"country_code":"BY","latitude":"53.98050000","longitude":"29.99250000"},{"id":"16115","name":"Yalizava","state_id":2954,"state_code":"MA","country_id":21,"country_code":"BY","latitude":"53.39940000","longitude":"29.00480000"}]