[{"id":"56170","name":"Ocs\u00e9ny","state_id":1038,"state_code":"TO","country_id":99,"country_code":"HU","latitude":"46.31370000","longitude":"18.75749000"},{"id":"55291","name":"B\u00e1ta","state_id":1038,"state_code":"TO","country_id":99,"country_code":"HU","latitude":"46.12864000","longitude":"18.77027000"},{"id":"55292","name":"B\u00e1tasz\u00e9k","state_id":1038,"state_code":"TO","country_id":99,"country_code":"HU","latitude":"46.19373000","longitude":"18.72307000"},{"id":"55308","name":"B\u00f6lcske","state_id":1038,"state_code":"TO","country_id":99,"country_code":"HU","latitude":"46.74102000","longitude":"18.96736000"},{"id":"55251","name":"Bogyiszl\u00f3","state_id":1038,"state_code":"TO","country_id":99,"country_code":"HU","latitude":"46.38638000","longitude":"18.82962000"},{"id":"55255","name":"Bonyh\u00e1d","state_id":1038,"state_code":"TO","country_id":99,"country_code":"HU","latitude":"46.29921000","longitude":"18.53024000"},{"id":"55256","name":"Bonyh\u00e1di J\u00e1r\u00e1s","state_id":1038,"state_code":"TO","country_id":99,"country_code":"HU","latitude":"46.33998000","longitude":"18.49739000"},{"id":"55390","name":"D\u00f6br\u00f6k\u00f6z","state_id":1038,"state_code":"TO","country_id":99,"country_code":"HU","latitude":"46.42178000","longitude":"18.23953000"},{"id":"55355","name":"Decs","state_id":1038,"state_code":"TO","country_id":99,"country_code":"HU","latitude":"46.28428000","longitude":"18.76000000"},{"id":"55368","name":"Domb\u00f3v\u00e1r","state_id":1038,"state_code":"TO","country_id":99,"country_code":"HU","latitude":"46.37657000","longitude":"18.13696000"},{"id":"55369","name":"Domb\u00f3v\u00e1ri J\u00e1r\u00e1s","state_id":1038,"state_code":"TO","country_id":99,"country_code":"HU","latitude":"46.45592000","longitude":"18.19076000"},{"id":"55373","name":"Dunaf\u00f6ldv\u00e1r","state_id":1038,"state_code":"TO","country_id":99,"country_code":"HU","latitude":"46.80713000","longitude":"18.92763000"},{"id":"55379","name":"Dunaszentgy\u00f6rgy","state_id":1038,"state_code":"TO","country_id":99,"country_code":"HU","latitude":"46.52852000","longitude":"18.81771000"},{"id":"55415","name":"Fadd","state_id":1038,"state_code":"TO","country_id":99,"country_code":"HU","latitude":"46.46476000","longitude":"18.81925000"},{"id":"55465","name":"Gy\u00f6nk","state_id":1038,"state_code":"TO","country_id":99,"country_code":"HU","latitude":"46.55603000","longitude":"18.47694000"},{"id":"55523","name":"Hogy\u00e9sz","state_id":1038,"state_code":"TO","country_id":99,"country_code":"HU","latitude":"46.49697000","longitude":"18.41841000"},{"id":"55528","name":"Iregszemcse","state_id":1038,"state_code":"TO","country_id":99,"country_code":"HU","latitude":"46.69286000","longitude":"18.18581000"},{"id":"55673","name":"Madocsa","state_id":1038,"state_code":"TO","country_id":99,"country_code":"HU","latitude":"46.68790000","longitude":"18.95791000"},{"id":"55745","name":"Nagydorog","state_id":1038,"state_code":"TO","country_id":99,"country_code":"HU","latitude":"46.62749000","longitude":"18.65565000"},{"id":"55758","name":"Nagym\u00e1nyok","state_id":1038,"state_code":"TO","country_id":99,"country_code":"HU","latitude":"46.27911000","longitude":"18.45489000"},{"id":"55795","name":"N\u00e9metk\u00e9r","state_id":1038,"state_code":"TO","country_id":99,"country_code":"HU","latitude":"46.71637000","longitude":"18.76311000"},{"id":"55803","name":"Ozora","state_id":1038,"state_code":"TO","country_id":99,"country_code":"HU","latitude":"46.75133000","longitude":"18.40010000"},{"id":"55805","name":"Paks","state_id":1038,"state_code":"TO","country_id":99,"country_code":"HU","latitude":"46.62210000","longitude":"18.85569000"},{"id":"55806","name":"Paksi J\u00e1r\u00e1s","state_id":1038,"state_code":"TO","country_id":99,"country_code":"HU","latitude":"46.66035000","longitude":"18.78572000"},{"id":"55825","name":"Pincehely","state_id":1038,"state_code":"TO","country_id":99,"country_code":"HU","latitude":"46.68095000","longitude":"18.43935000"},{"id":"55899","name":"Simontornya","state_id":1038,"state_code":"TO","country_id":99,"country_code":"HU","latitude":"46.75462000","longitude":"18.55490000"},{"id":"55924","name":"Szedres","state_id":1038,"state_code":"TO","country_id":99,"country_code":"HU","latitude":"46.47551000","longitude":"18.68305000"},{"id":"55930","name":"Szeksz\u00e1rd","state_id":1038,"state_code":"TO","country_id":99,"country_code":"HU","latitude":"46.35014000","longitude":"18.70905000"},{"id":"55931","name":"Szeksz\u00e1rdi J\u00e1r\u00e1s","state_id":1038,"state_code":"TO","country_id":99,"country_code":"HU","latitude":"46.33998000","longitude":"18.67893000"},{"id":"55940","name":"Szentg\u00e1lpuszta","state_id":1038,"state_code":"TO","country_id":99,"country_code":"HU","latitude":"46.37479000","longitude":"18.62601000"},{"id":"56007","name":"Tam\u00e1si","state_id":1038,"state_code":"TO","country_id":99,"country_code":"HU","latitude":"46.63333000","longitude":"18.28333000"},{"id":"56008","name":"Tam\u00e1si J\u00e1r\u00e1s","state_id":1038,"state_code":"TO","country_id":99,"country_code":"HU","latitude":"46.65424000","longitude":"18.35857000"},{"id":"56019","name":"Tengelic","state_id":1038,"state_code":"TO","country_id":99,"country_code":"HU","latitude":"46.52878000","longitude":"18.71117000"},{"id":"56053","name":"Tolna","state_id":1038,"state_code":"TO","country_id":99,"country_code":"HU","latitude":"46.42677000","longitude":"18.78248000"},{"id":"56054","name":"Tolnai J\u00e1r\u00e1s","state_id":1038,"state_code":"TO","country_id":99,"country_code":"HU","latitude":"46.42541000","longitude":"18.82691000"},{"id":"56129","name":"Zomba","state_id":1038,"state_code":"TO","country_id":99,"country_code":"HU","latitude":"46.41084000","longitude":"18.56577000"}]