[{"id":"55171","name":"Abda","state_id":1042,"state_code":"GS","country_id":99,"country_code":"HU","latitude":"47.69464000","longitude":"17.54489000"},{"id":"56142","name":"\u00c1gfalva","state_id":1042,"state_code":"GS","country_id":99,"country_code":"HU","latitude":"47.68991000","longitude":"16.51658000"},{"id":"56144","name":"\u00c1sv\u00e1nyr\u00e1r\u00f3","state_id":1042,"state_code":"GS","country_id":99,"country_code":"HU","latitude":"47.82733000","longitude":"17.49418000"},{"id":"56159","name":"\u00d6ttev\u00e9ny","state_id":1042,"state_code":"GS","country_id":99,"country_code":"HU","latitude":"47.71946000","longitude":"17.48474000"},{"id":"55206","name":"Bakonyszentl\u00e1szl\u00f3","state_id":1042,"state_code":"GS","country_id":99,"country_code":"HU","latitude":"47.38901000","longitude":"17.80321000"},{"id":"55312","name":"Bony","state_id":1042,"state_code":"GS","country_id":99,"country_code":"HU","latitude":"47.65000000","longitude":"17.86977000"},{"id":"55313","name":"Bos\u00e1rk\u00e1ny","state_id":1042,"state_code":"GS","country_id":99,"country_code":"HU","latitude":"47.68821000","longitude":"17.25000000"},{"id":"55236","name":"Beled","state_id":1042,"state_code":"GS","country_id":99,"country_code":"HU","latitude":"47.46594000","longitude":"17.09294000"},{"id":"55340","name":"Csorna","state_id":1042,"state_code":"GS","country_id":99,"country_code":"HU","latitude":"47.61155000","longitude":"17.25012000"},{"id":"55341","name":"Csornai J\u00e1r\u00e1s","state_id":1042,"state_code":"GS","country_id":99,"country_code":"HU","latitude":"47.58403000","longitude":"17.26041000"},{"id":"55418","name":"Far\u00e1d","state_id":1042,"state_code":"GS","country_id":99,"country_code":"HU","latitude":"47.60633000","longitude":"17.20024000"},{"id":"55427","name":"Fertod","state_id":1042,"state_code":"GS","country_id":99,"country_code":"HU","latitude":"47.62173000","longitude":"16.87088000"},{"id":"55428","name":"Fertor\u00e1kos","state_id":1042,"state_code":"GS","country_id":99,"country_code":"HU","latitude":"47.72017000","longitude":"16.65040000"},{"id":"55429","name":"Fertoszentmikl\u00f3s","state_id":1042,"state_code":"GS","country_id":99,"country_code":"HU","latitude":"47.58996000","longitude":"16.87517000"},{"id":"55466","name":"Gyor","state_id":1042,"state_code":"GS","country_id":99,"country_code":"HU","latitude":"47.68333000","longitude":"17.63512000"},{"id":"55469","name":"Gyor\u00fajbar\u00e1t","state_id":1042,"state_code":"GS","country_id":99,"country_code":"HU","latitude":"47.60643000","longitude":"17.64875000"},{"id":"55467","name":"Gyori J\u00e1r\u00e1s","state_id":1042,"state_code":"GS","country_id":99,"country_code":"HU","latitude":"47.67273000","longitude":"17.67936000"},{"id":"55468","name":"Gyorszemere","state_id":1042,"state_code":"GS","country_id":99,"country_code":"HU","latitude":"47.55256000","longitude":"17.56356000"},{"id":"55495","name":"Hal\u00e1szi","state_id":1042,"state_code":"GS","country_id":99,"country_code":"HU","latitude":"47.88930000","longitude":"17.32615000"},{"id":"55539","name":"J\u00e1nossomorja","state_id":1042,"state_code":"GS","country_id":99,"country_code":"HU","latitude":"47.78621000","longitude":"17.13603000"},{"id":"55563","name":"Kapuv\u00e1r","state_id":1042,"state_code":"GS","country_id":99,"country_code":"HU","latitude":"47.59224000","longitude":"17.02886000"},{"id":"55564","name":"Kapuv\u00e1ri J\u00e1r\u00e1s","state_id":1042,"state_code":"GS","country_id":99,"country_code":"HU","latitude":"47.56705000","longitude":"17.04056000"},{"id":"55645","name":"K\u00f3ny","state_id":1042,"state_code":"GS","country_id":99,"country_code":"HU","latitude":"47.63053000","longitude":"17.35717000"},{"id":"55592","name":"Kimle","state_id":1042,"state_code":"GS","country_id":99,"country_code":"HU","latitude":"47.81726000","longitude":"17.36642000"},{"id":"55668","name":"L\u00e9b\u00e9ny","state_id":1042,"state_code":"GS","country_id":99,"country_code":"HU","latitude":"47.73574000","longitude":"17.39076000"},{"id":"55702","name":"Mih\u00e1lyi","state_id":1042,"state_code":"GS","country_id":99,"country_code":"HU","latitude":"47.51384000","longitude":"17.09507000"},{"id":"55714","name":"Mosonmagyar\u00f3v\u00e1r","state_id":1042,"state_code":"GS","country_id":99,"country_code":"HU","latitude":"47.86789000","longitude":"17.26994000"},{"id":"55715","name":"Mosonmagyar\u00f3v\u00e1ri J\u00e1r\u00e1s","state_id":1042,"state_code":"GS","country_id":99,"country_code":"HU","latitude":"47.85767000","longitude":"17.28212000"},{"id":"55716","name":"Mosonszentmikl\u00f3s","state_id":1042,"state_code":"GS","country_id":99,"country_code":"HU","latitude":"47.72778000","longitude":"17.42784000"},{"id":"55742","name":"Nagycenk","state_id":1042,"state_code":"GS","country_id":99,"country_code":"HU","latitude":"47.60435000","longitude":"16.69732000"},{"id":"55793","name":"Ny\u00fal","state_id":1042,"state_code":"GS","country_id":99,"country_code":"HU","latitude":"47.59047000","longitude":"17.68904000"},{"id":"55808","name":"Pannonhalma","state_id":1042,"state_code":"GS","country_id":99,"country_code":"HU","latitude":"47.54946000","longitude":"17.75535000"},{"id":"55809","name":"Pannonhalmi J\u00e1r\u00e1s","state_id":1042,"state_code":"GS","country_id":99,"country_code":"HU","latitude":"47.45571000","longitude":"17.81335000"},{"id":"55854","name":"P\u00e9r","state_id":1042,"state_code":"GS","country_id":99,"country_code":"HU","latitude":"47.61153000","longitude":"17.80632000"},{"id":"55861","name":"Rajka","state_id":1042,"state_code":"GS","country_id":99,"country_code":"HU","latitude":"47.99643000","longitude":"17.19821000"},{"id":"55869","name":"R\u00e1bapatona","state_id":1042,"state_code":"GS","country_id":99,"country_code":"HU","latitude":"47.63224000","longitude":"17.48004000"},{"id":"55909","name":"Sopron","state_id":1042,"state_code":"GS","country_id":99,"country_code":"HU","latitude":"47.68501000","longitude":"16.59049000"},{"id":"55910","name":"Soproni J\u00e1r\u00e1s","state_id":1042,"state_code":"GS","country_id":99,"country_code":"HU","latitude":"47.60385000","longitude":"16.75654000"},{"id":"55920","name":"Szany","state_id":1042,"state_code":"GS","country_id":99,"country_code":"HU","latitude":"47.46423000","longitude":"17.30402000"},{"id":"56074","name":"T\u00e9t","state_id":1042,"state_code":"GS","country_id":99,"country_code":"HU","latitude":"47.51922000","longitude":"17.50802000"},{"id":"56075","name":"T\u00e9ti J\u00e1r\u00e1s","state_id":1042,"state_code":"GS","country_id":99,"country_code":"HU","latitude":"47.51515000","longitude":"17.51612000"},{"id":"56080","name":"T\u00f6lt\u00e9stava","state_id":1042,"state_code":"GS","country_id":99,"country_code":"HU","latitude":"47.62609000","longitude":"17.73376000"}]