[{"id":"55178","name":"Ajka","state_id":1054,"state_code":"VE","country_id":99,"country_code":"HU","latitude":"47.10196000","longitude":"17.55892000"},{"id":"55179","name":"Ajkai J\u00e1r\u00e1s","state_id":1054,"state_code":"VE","country_id":99,"country_code":"HU","latitude":"47.07988000","longitude":"17.56375000"},{"id":"56166","name":"\u00dark\u00fat","state_id":1054,"state_code":"VE","country_id":99,"country_code":"HU","latitude":"47.08505000","longitude":"17.64393000"},{"id":"56172","name":"Osi","state_id":1054,"state_code":"VE","country_id":99,"country_code":"HU","latitude":"47.14722000","longitude":"18.18833000"},{"id":"55200","name":"Badacsonytomaj","state_id":1054,"state_code":"VE","country_id":99,"country_code":"HU","latitude":"46.80711000","longitude":"17.51385000"},{"id":"55212","name":"Balatonalm\u00e1di","state_id":1054,"state_code":"VE","country_id":99,"country_code":"HU","latitude":"47.03526000","longitude":"18.02076000"},{"id":"55213","name":"Balatonalm\u00e1di J\u00e1r\u00e1s","state_id":1054,"state_code":"VE","country_id":99,"country_code":"HU","latitude":"47.04174000","longitude":"18.09617000"},{"id":"55218","name":"Balatonf\u00fcred","state_id":1054,"state_code":"VE","country_id":99,"country_code":"HU","latitude":"46.96188000","longitude":"17.87187000"},{"id":"55219","name":"Balatonf\u00fcredi J\u00e1r\u00e1s","state_id":1054,"state_code":"VE","country_id":99,"country_code":"HU","latitude":"46.93952000","longitude":"17.79411000"},{"id":"55220","name":"Balatonkenese","state_id":1054,"state_code":"VE","country_id":99,"country_code":"HU","latitude":"47.04019000","longitude":"18.10671000"},{"id":"55241","name":"Berhida","state_id":1054,"state_code":"VE","country_id":99,"country_code":"HU","latitude":"47.11131000","longitude":"18.12948000"},{"id":"55323","name":"Csabrendek","state_id":1054,"state_code":"VE","country_id":99,"country_code":"HU","latitude":"47.01356000","longitude":"17.29108000"},{"id":"55335","name":"Cset\u00e9ny","state_id":1054,"state_code":"VE","country_id":99,"country_code":"HU","latitude":"47.31806000","longitude":"17.99208000"},{"id":"55339","name":"Csopak","state_id":1054,"state_code":"VE","country_id":99,"country_code":"HU","latitude":"46.97709000","longitude":"17.91819000"},{"id":"55360","name":"Devecser","state_id":1054,"state_code":"VE","country_id":99,"country_code":"HU","latitude":"47.10316000","longitude":"17.43802000"},{"id":"55361","name":"Devecseri J\u00e1r\u00e1s","state_id":1054,"state_code":"VE","country_id":99,"country_code":"HU","latitude":"47.16836000","longitude":"17.32271000"},{"id":"55492","name":"Hajm\u00e1sk\u00e9r","state_id":1054,"state_code":"VE","country_id":99,"country_code":"HU","latitude":"47.14513000","longitude":"18.01964000"},{"id":"55506","name":"Herend","state_id":1054,"state_code":"VE","country_id":99,"country_code":"HU","latitude":"47.13333000","longitude":"17.75000000"},{"id":"55664","name":"Lit\u00e9r","state_id":1054,"state_code":"VE","country_id":99,"country_code":"HU","latitude":"47.10104000","longitude":"18.00454000"},{"id":"55766","name":"Nemesv\u00e1mos","state_id":1054,"state_code":"VE","country_id":99,"country_code":"HU","latitude":"47.05514000","longitude":"17.87477000"},{"id":"55842","name":"P\u00e1pa","state_id":1054,"state_code":"VE","country_id":99,"country_code":"HU","latitude":"47.33004000","longitude":"17.46740000"},{"id":"55843","name":"P\u00e1pai J\u00e1r\u00e1s","state_id":1054,"state_code":"VE","country_id":99,"country_code":"HU","latitude":"47.33769000","longitude":"17.49663000"},{"id":"55858","name":"P\u00e9tf\u00fcrdo","state_id":1054,"state_code":"VE","country_id":99,"country_code":"HU","latitude":"47.16667000","longitude":"18.11667000"},{"id":"55879","name":"R\u00e9vf\u00fcl\u00f6p","state_id":1054,"state_code":"VE","country_id":99,"country_code":"HU","latitude":"46.82573000","longitude":"17.61967000"},{"id":"55999","name":"S\u00fcmeg","state_id":1054,"state_code":"VE","country_id":99,"country_code":"HU","latitude":"46.97703000","longitude":"17.28209000"},{"id":"56000","name":"S\u00fcmegi J\u00e1r\u00e1s","state_id":1054,"state_code":"VE","country_id":99,"country_code":"HU","latitude":"47.02648000","longitude":"17.26779000"},{"id":"55943","name":"Szentkir\u00e1lyszabadja","state_id":1054,"state_code":"VE","country_id":99,"country_code":"HU","latitude":"47.05760000","longitude":"17.97052000"},{"id":"56009","name":"Tapolca","state_id":1054,"state_code":"VE","country_id":99,"country_code":"HU","latitude":"46.88152000","longitude":"17.44117000"},{"id":"56010","name":"Tapolcai J\u00e1r\u00e1s","state_id":1054,"state_code":"VE","country_id":99,"country_code":"HU","latitude":"46.89833000","longitude":"17.49510000"},{"id":"56020","name":"Tihany","state_id":1054,"state_code":"VE","country_id":99,"country_code":"HU","latitude":"46.91369000","longitude":"17.88918000"},{"id":"56112","name":"V\u00e1rpalota","state_id":1054,"state_code":"VE","country_id":99,"country_code":"HU","latitude":"47.19936000","longitude":"18.13954000"},{"id":"56113","name":"V\u00e1rpalotai J\u00e1r\u00e1s","state_id":1054,"state_code":"VE","country_id":99,"country_code":"HU","latitude":"47.18514000","longitude":"18.12211000"},{"id":"56100","name":"Veszpr\u00e9m","state_id":1054,"state_code":"VE","country_id":99,"country_code":"HU","latitude":"47.09327000","longitude":"17.91149000"},{"id":"56101","name":"Veszpr\u00e9mi J\u00e1r\u00e1s","state_id":1054,"state_code":"VE","country_id":99,"country_code":"HU","latitude":"47.09666000","longitude":"17.82157000"},{"id":"56138","name":"Z\u00e1nka","state_id":1054,"state_code":"VE","country_id":99,"country_code":"HU","latitude":"46.87146000","longitude":"17.68473000"},{"id":"56127","name":"Zirc","state_id":1054,"state_code":"VE","country_id":99,"country_code":"HU","latitude":"47.26362000","longitude":"17.87373000"},{"id":"56128","name":"Zirci J\u00e1r\u00e1s","state_id":1054,"state_code":"VE","country_id":99,"country_code":"HU","latitude":"47.28583000","longitude":"17.88412000"}]