[{"id":"55202","name":"Bagam\u00e9r","state_id":1063,"state_code":"HB","country_id":99,"country_code":"HU","latitude":"47.44882000","longitude":"21.98900000"},{"id":"55226","name":"Balmaz\u00fajv\u00e1ros","state_id":1063,"state_code":"HB","country_id":99,"country_code":"HU","latitude":"47.61667000","longitude":"21.35000000"},{"id":"55227","name":"Balmaz\u00fajv\u00e1rosi J\u00e1r\u00e1s","state_id":1063,"state_code":"HB","country_id":99,"country_code":"HU","latitude":"47.61840000","longitude":"21.14882000"},{"id":"55290","name":"B\u00e1r\u00e1nd","state_id":1063,"state_code":"HB","country_id":99,"country_code":"HU","latitude":"47.30000000","longitude":"21.23333000"},{"id":"55239","name":"Beretty\u00f3\u00fajfalu","state_id":1063,"state_code":"HB","country_id":99,"country_code":"HU","latitude":"47.21667000","longitude":"21.55000000"},{"id":"55240","name":"Beretty\u00f3\u00fajfalui J\u00e1r\u00e1s","state_id":1063,"state_code":"HB","country_id":99,"country_code":"HU","latitude":"47.14109000","longitude":"21.55233000"},{"id":"55248","name":"Biharkeresztes","state_id":1063,"state_code":"HB","country_id":99,"country_code":"HU","latitude":"47.13333000","longitude":"21.71667000"},{"id":"55249","name":"Biharnagybajom","state_id":1063,"state_code":"HB","country_id":99,"country_code":"HU","latitude":"47.21667000","longitude":"21.23333000"},{"id":"55349","name":"Cs\u00f6kmo","state_id":1063,"state_code":"HB","country_id":99,"country_code":"HU","latitude":"47.03333000","longitude":"21.30000000"},{"id":"55353","name":"Debrecen","state_id":1063,"state_code":"HB","country_id":99,"country_code":"HU","latitude":"47.53333000","longitude":"21.63333000"},{"id":"55354","name":"Debreceni J\u00e1r\u00e1s","state_id":1063,"state_code":"HB","country_id":99,"country_code":"HU","latitude":"47.52706000","longitude":"21.66869000"},{"id":"55357","name":"Derecske","state_id":1063,"state_code":"HB","country_id":99,"country_code":"HU","latitude":"47.35000000","longitude":"21.56667000"},{"id":"55358","name":"Derecskei J\u00e1r\u00e1s","state_id":1063,"state_code":"HB","country_id":99,"country_code":"HU","latitude":"47.38194000","longitude":"21.74836000"},{"id":"55393","name":"Ebes","state_id":1063,"state_code":"HB","country_id":99,"country_code":"HU","latitude":"47.46667000","longitude":"21.50000000"},{"id":"55401","name":"Egyek","state_id":1063,"state_code":"HB","country_id":99,"country_code":"HU","latitude":"47.63333000","longitude":"20.90000000"},{"id":"55437","name":"F\u00f6ldes","state_id":1063,"state_code":"HB","country_id":99,"country_code":"HU","latitude":"47.30000000","longitude":"21.36667000"},{"id":"55479","name":"G\u00f6rbeh\u00e1za","state_id":1063,"state_code":"HB","country_id":99,"country_code":"HU","latitude":"47.83333000","longitude":"21.23333000"},{"id":"55480","name":"Hadj\u00faszoboszl\u00f3i J\u00e1r\u00e1s","state_id":1063,"state_code":"HB","country_id":99,"country_code":"HU","latitude":"47.48110000","longitude":"21.31000000"},{"id":"55481","name":"Hajd\u00fabagos","state_id":1063,"state_code":"HB","country_id":99,"country_code":"HU","latitude":"47.39295000","longitude":"21.66551000"},{"id":"55482","name":"Hajd\u00fab\u00f6sz\u00f6rm\u00e9ny","state_id":1063,"state_code":"HB","country_id":99,"country_code":"HU","latitude":"47.66667000","longitude":"21.51667000"},{"id":"55483","name":"Hajd\u00fab\u00f6sz\u00f6rm\u00e9nyi J\u00e1r\u00e1s","state_id":1063,"state_code":"HB","country_id":99,"country_code":"HU","latitude":"47.74000000","longitude":"21.50000000"},{"id":"55484","name":"Hajd\u00fadorog","state_id":1063,"state_code":"HB","country_id":99,"country_code":"HU","latitude":"47.81667000","longitude":"21.50000000"},{"id":"55485","name":"Hajd\u00fahadh\u00e1z","state_id":1063,"state_code":"HB","country_id":99,"country_code":"HU","latitude":"47.68333000","longitude":"21.66667000"},{"id":"55486","name":"Hajd\u00fahadh\u00e1zi J\u00e1r\u00e1s","state_id":1063,"state_code":"HB","country_id":99,"country_code":"HU","latitude":"47.67000000","longitude":"21.70000000"},{"id":"55487","name":"Hajd\u00fan\u00e1n\u00e1s","state_id":1063,"state_code":"HB","country_id":99,"country_code":"HU","latitude":"47.85000000","longitude":"21.43333000"},{"id":"55488","name":"Hajd\u00fan\u00e1n\u00e1si J\u00e1r\u00e1s","state_id":1063,"state_code":"HB","country_id":99,"country_code":"HU","latitude":"47.83350000","longitude":"21.25256000"},{"id":"55491","name":"Hajd\u00fas\u00e1mson","state_id":1063,"state_code":"HB","country_id":99,"country_code":"HU","latitude":"47.60000000","longitude":"21.76667000"},{"id":"55489","name":"Hajd\u00faszoboszl\u00f3","state_id":1063,"state_code":"HB","country_id":99,"country_code":"HU","latitude":"47.45000000","longitude":"21.40000000"},{"id":"55490","name":"Hajd\u00faszov\u00e1t","state_id":1063,"state_code":"HB","country_id":99,"country_code":"HU","latitude":"47.38333000","longitude":"21.48333000"},{"id":"55515","name":"Hortob\u00e1gy","state_id":1063,"state_code":"HB","country_id":99,"country_code":"HU","latitude":"47.58278000","longitude":"21.15108000"},{"id":"55517","name":"Hossz\u00fap\u00e1lyi","state_id":1063,"state_code":"HB","country_id":99,"country_code":"HU","latitude":"47.39303000","longitude":"21.73280000"},{"id":"55555","name":"Kaba","state_id":1063,"state_code":"HB","country_id":99,"country_code":"HU","latitude":"47.35000000","longitude":"21.28333000"},{"id":"55621","name":"Kom\u00e1di","state_id":1063,"state_code":"HB","country_id":99,"country_code":"HU","latitude":"47.00000000","longitude":"21.50000000"},{"id":"55623","name":"Kony\u00e1r","state_id":1063,"state_code":"HB","country_id":99,"country_code":"HU","latitude":"47.31667000","longitude":"21.66667000"},{"id":"55669","name":"L\u00e9tav\u00e9rtes","state_id":1063,"state_code":"HB","country_id":99,"country_code":"HU","latitude":"47.38333000","longitude":"21.90000000"},{"id":"55703","name":"Mikep\u00e9rcs","state_id":1063,"state_code":"HB","country_id":99,"country_code":"HU","latitude":"47.45000000","longitude":"21.63333000"},{"id":"55713","name":"Monostorp\u00e1lyi","state_id":1063,"state_code":"HB","country_id":99,"country_code":"HU","latitude":"47.40000000","longitude":"21.78333000"},{"id":"55760","name":"Nagyr\u00e1b\u00e9","state_id":1063,"state_code":"HB","country_id":99,"country_code":"HU","latitude":"47.20000000","longitude":"21.33333000"},{"id":"55794","name":"N\u00e1dudvar","state_id":1063,"state_code":"HB","country_id":99,"country_code":"HU","latitude":"47.41667000","longitude":"21.16667000"},{"id":"55770","name":"Ny\u00edracs\u00e1d","state_id":1063,"state_code":"HB","country_id":99,"country_code":"HU","latitude":"47.60330000","longitude":"21.97208000"},{"id":"55771","name":"Ny\u00edradony","state_id":1063,"state_code":"HB","country_id":99,"country_code":"HU","latitude":"47.69746000","longitude":"21.91878000"},{"id":"55772","name":"Ny\u00edradonyi J\u00e1r\u00e1s","state_id":1063,"state_code":"HB","country_id":99,"country_code":"HU","latitude":"47.57873000","longitude":"22.01381000"},{"id":"55792","name":"Ny\u00edr\u00e1br\u00e1ny","state_id":1063,"state_code":"HB","country_id":99,"country_code":"HU","latitude":"47.55311000","longitude":"22.02401000"},{"id":"55787","name":"Ny\u00edrm\u00e1rtonfalva","state_id":1063,"state_code":"HB","country_id":99,"country_code":"HU","latitude":"47.58333000","longitude":"21.90000000"},{"id":"55859","name":"P\u00fcsp\u00f6klad\u00e1ny","state_id":1063,"state_code":"HB","country_id":99,"country_code":"HU","latitude":"47.31667000","longitude":"21.11667000"},{"id":"55860","name":"P\u00fcsp\u00f6klad\u00e1nyi J\u00e1r\u00e1s","state_id":1063,"state_code":"HB","country_id":99,"country_code":"HU","latitude":"47.31279000","longitude":"21.21177000"},{"id":"55826","name":"Pocsaj","state_id":1063,"state_code":"HB","country_id":99,"country_code":"HU","latitude":"47.28333000","longitude":"21.81667000"},{"id":"55827","name":"Polg\u00e1r","state_id":1063,"state_code":"HB","country_id":99,"country_code":"HU","latitude":"47.86667000","longitude":"21.11667000"},{"id":"55992","name":"S\u00e1r\u00e1nd","state_id":1063,"state_code":"HB","country_id":99,"country_code":"HU","latitude":"47.40000000","longitude":"21.63333000"},{"id":"55988","name":"S\u00e1rr\u00e9tudvari","state_id":1063,"state_code":"HB","country_id":99,"country_code":"HU","latitude":"47.23333000","longitude":"21.20000000"},{"id":"56073","name":"T\u00e9gl\u00e1s","state_id":1063,"state_code":"HB","country_id":99,"country_code":"HU","latitude":"47.71667000","longitude":"21.68333000"},{"id":"56026","name":"Tiszacsege","state_id":1063,"state_code":"HB","country_id":99,"country_code":"HU","latitude":"47.70000000","longitude":"21.00000000"},{"id":"56110","name":"V\u00e1mosp\u00e9rcs","state_id":1063,"state_code":"HB","country_id":99,"country_code":"HU","latitude":"47.53333000","longitude":"21.90000000"}]