[{"id":"67649","name":"Kyaukse","state_id":2134,"state_code":"04","country_id":151,"country_code":"MM","latitude":"21.60560000","longitude":"96.13508000"},{"id":"67654","name":"Mandalay","state_id":2134,"state_code":"04","country_id":151,"country_code":"MM","latitude":"21.97473000","longitude":"96.08359000"},{"id":"67660","name":"Meiktila","state_id":2134,"state_code":"04","country_id":151,"country_code":"MM","latitude":"20.87776000","longitude":"95.85844000"},{"id":"67663","name":"Mogok","state_id":2134,"state_code":"04","country_id":151,"country_code":"MM","latitude":"22.91766000","longitude":"96.50982000"},{"id":"67670","name":"Myingyan","state_id":2134,"state_code":"04","country_id":151,"country_code":"MM","latitude":"21.46002000","longitude":"95.38840000"},{"id":"67675","name":"Nyaungshwe","state_id":2134,"state_code":"04","country_id":151,"country_code":"MM","latitude":"20.66084000","longitude":"96.93405000"},{"id":"67682","name":"Pyin Oo Lwin","state_id":2134,"state_code":"04","country_id":151,"country_code":"MM","latitude":"22.03501000","longitude":"96.45683000"},{"id":"67702","name":"Yamethin","state_id":2134,"state_code":"04","country_id":151,"country_code":"MM","latitude":"20.43189000","longitude":"96.13875000"}]