[{"id":"65852","name":"\u00dclken","state_id":143,"state_code":"ALM","country_id":112,"country_code":"KZ","latitude":"45.21194000","longitude":"73.97861000"},{"id":"65631","name":"Bakanas","state_id":143,"state_code":"ALM","country_id":112,"country_code":"KZ","latitude":"44.80838000","longitude":"76.27214000"},{"id":"65633","name":"Balpyk Bi","state_id":143,"state_code":"ALM","country_id":112,"country_code":"KZ","latitude":"44.90225000","longitude":"78.23157000"},{"id":"65656","name":"Burunday","state_id":143,"state_code":"ALM","country_id":112,"country_code":"KZ","latitude":"43.35567000","longitude":"76.85477000"},{"id":"65661","name":"Chemolgan","state_id":143,"state_code":"ALM","country_id":112,"country_code":"KZ","latitude":"43.37633000","longitude":"76.62456000"},{"id":"65668","name":"Druzhba","state_id":143,"state_code":"ALM","country_id":112,"country_code":"KZ","latitude":"45.25332000","longitude":"82.48044000"},{"id":"65675","name":"Esik","state_id":143,"state_code":"ALM","country_id":112,"country_code":"KZ","latitude":"43.35520000","longitude":"77.45245000"},{"id":"65689","name":"Kapshagay","state_id":143,"state_code":"ALM","country_id":112,"country_code":"KZ","latitude":"43.86681000","longitude":"77.06304000"},{"id":"65694","name":"Kegen","state_id":143,"state_code":"ALM","country_id":112,"country_code":"KZ","latitude":"43.02143000","longitude":"79.22055000"},{"id":"65715","name":"Lepsy","state_id":143,"state_code":"ALM","country_id":112,"country_code":"KZ","latitude":"46.23500000","longitude":"78.94556000"},{"id":"65726","name":"Matay","state_id":143,"state_code":"ALM","country_id":112,"country_code":"KZ","latitude":"45.89500000","longitude":"78.71806000"},{"id":"65742","name":"Otegen Batyra","state_id":143,"state_code":"ALM","country_id":112,"country_code":"KZ","latitude":"43.41949000","longitude":"77.02020000"},{"id":"65746","name":"Pervomayka","state_id":143,"state_code":"ALM","country_id":112,"country_code":"KZ","latitude":"43.37361000","longitude":"76.94000000"},{"id":"65763","name":"Sarkand","state_id":143,"state_code":"ALM","country_id":112,"country_code":"KZ","latitude":"45.41126000","longitude":"79.91545000"},{"id":"65767","name":"Saryozek","state_id":143,"state_code":"ALM","country_id":112,"country_code":"KZ","latitude":"44.36178000","longitude":"77.97279000"},{"id":"65800","name":"Taldykorgan","state_id":143,"state_code":"ALM","country_id":112,"country_code":"KZ","latitude":"45.01556000","longitude":"78.37389000"},{"id":"65801","name":"Talghar","state_id":143,"state_code":"ALM","country_id":112,"country_code":"KZ","latitude":"43.30348000","longitude":"77.24085000"},{"id":"65807","name":"Tekeli","state_id":143,"state_code":"ALM","country_id":112,"country_code":"KZ","latitude":"44.83322000","longitude":"78.83089000"},{"id":"65818","name":"Turgen","state_id":143,"state_code":"ALM","country_id":112,"country_code":"KZ","latitude":"43.40056000","longitude":"77.59333000"},{"id":"65823","name":"Ush-Tyube","state_id":143,"state_code":"ALM","country_id":112,"country_code":"KZ","latitude":"45.25201000","longitude":"77.98007000"},{"id":"65841","name":"Zharkent","state_id":143,"state_code":"ALM","country_id":112,"country_code":"KZ","latitude":"44.16660000","longitude":"80.00655000"}]