[{"id":"65611","name":"Aqsay","state_id":148,"state_code":"ZAP","country_id":112,"country_code":"KZ","latitude":"51.16810000","longitude":"52.99782000"},{"id":"65655","name":"Burlin","state_id":148,"state_code":"ZAP","country_id":112,"country_code":"KZ","latitude":"51.42724000","longitude":"52.71392000"},{"id":"65658","name":"Chapaev","state_id":148,"state_code":"ZAP","country_id":112,"country_code":"KZ","latitude":"50.20000000","longitude":"51.16667000"},{"id":"65662","name":"Chingirlau","state_id":148,"state_code":"ZAP","country_id":112,"country_code":"KZ","latitude":"51.09878000","longitude":"54.08426000"},{"id":"65670","name":"Dzhambeyty","state_id":148,"state_code":"ZAP","country_id":112,"country_code":"KZ","latitude":"50.25676000","longitude":"52.59895000"},{"id":"65677","name":"Fedorovka","state_id":148,"state_code":"ZAP","country_id":112,"country_code":"KZ","latitude":"51.22102000","longitude":"51.95723000"},{"id":"65693","name":"Kaztalovka","state_id":148,"state_code":"ZAP","country_id":112,"country_code":"KZ","latitude":"49.76612000","longitude":"48.68903000"},{"id":"65704","name":"Krugloozernoe","state_id":148,"state_code":"ZAP","country_id":112,"country_code":"KZ","latitude":"51.07854000","longitude":"51.28992000"},{"id":"65739","name":"Oral","state_id":148,"state_code":"ZAP","country_id":112,"country_code":"KZ","latitude":"51.23333000","longitude":"51.36667000"},{"id":"65745","name":"Peremetnoe","state_id":148,"state_code":"ZAP","country_id":112,"country_code":"KZ","latitude":"51.19925000","longitude":"50.85544000"},{"id":"65771","name":"Saykhin","state_id":148,"state_code":"ZAP","country_id":112,"country_code":"KZ","latitude":"48.85611000","longitude":"46.83361000"},{"id":"65805","name":"Tasqala","state_id":148,"state_code":"ZAP","country_id":112,"country_code":"KZ","latitude":"51.11073000","longitude":"50.29454000"},{"id":"65849","name":"Zh\u00e4nibek","state_id":148,"state_code":"ZAP","country_id":112,"country_code":"KZ","latitude":"49.42207000","longitude":"46.84705000"}]