[{"id":"65617","name":"Arys","state_id":149,"state_code":"YUZ","country_id":112,"country_code":"KZ","latitude":"42.43015000","longitude":"68.80870000"},{"id":"65618","name":"Ashchysay","state_id":149,"state_code":"YUZ","country_id":112,"country_code":"KZ","latitude":"43.55370000","longitude":"68.89792000"},{"id":"65620","name":"Asyqata","state_id":149,"state_code":"YUZ","country_id":112,"country_code":"KZ","latitude":"40.89460000","longitude":"68.36430000"},{"id":"65622","name":"Atakent","state_id":149,"state_code":"YUZ","country_id":112,"country_code":"KZ","latitude":"40.84782000","longitude":"68.50643000"},{"id":"65640","name":"Bayzhansay","state_id":149,"state_code":"YUZ","country_id":112,"country_code":"KZ","latitude":"43.16708000","longitude":"69.91459000"},{"id":"65646","name":"Belyye Vody","state_id":149,"state_code":"YUZ","country_id":112,"country_code":"KZ","latitude":"42.42193000","longitude":"69.82709000"},{"id":"65659","name":"Chardara","state_id":149,"state_code":"YUZ","country_id":112,"country_code":"KZ","latitude":"41.25832000","longitude":"67.96991000"},{"id":"65660","name":"Chayan","state_id":149,"state_code":"YUZ","country_id":112,"country_code":"KZ","latitude":"43.03399000","longitude":"69.38048000"},{"id":"65664","name":"Chulakkurgan","state_id":149,"state_code":"YUZ","country_id":112,"country_code":"KZ","latitude":"43.76453000","longitude":"69.17856000"},{"id":"65688","name":"Kantagi","state_id":149,"state_code":"YUZ","country_id":112,"country_code":"KZ","latitude":"43.52786000","longitude":"68.58287000"},{"id":"65695","name":"Kentau","state_id":149,"state_code":"YUZ","country_id":112,"country_code":"KZ","latitude":"43.51672000","longitude":"68.50463000"},{"id":"65700","name":"Kokterek","state_id":149,"state_code":"YUZ","country_id":112,"country_code":"KZ","latitude":"42.49442000","longitude":"70.25478000"},{"id":"65712","name":"Lenger","state_id":149,"state_code":"YUZ","country_id":112,"country_code":"KZ","latitude":"42.18152000","longitude":"69.88582000"},{"id":"65714","name":"Leninskoye","state_id":149,"state_code":"YUZ","country_id":112,"country_code":"KZ","latitude":"41.75640000","longitude":"69.38390000"},{"id":"65724","name":"Maqtaaral Audany","state_id":149,"state_code":"YUZ","country_id":112,"country_code":"KZ","latitude":"40.75000000","longitude":"68.58333000"},{"id":"65734","name":"Myrzakent","state_id":149,"state_code":"YUZ","country_id":112,"country_code":"KZ","latitude":"40.66338000","longitude":"68.54510000"},{"id":"65758","name":"Qogham","state_id":149,"state_code":"YUZ","country_id":112,"country_code":"KZ","latitude":"42.82774000","longitude":"68.28074000"},{"id":"65764","name":"Saryaghash","state_id":149,"state_code":"YUZ","country_id":112,"country_code":"KZ","latitude":"41.46042000","longitude":"69.16791000"},{"id":"65765","name":"Saryaghash Audany","state_id":149,"state_code":"YUZ","country_id":112,"country_code":"KZ","latitude":"41.66667000","longitude":"68.83333000"},{"id":"65769","name":"Sastobe","state_id":149,"state_code":"YUZ","country_id":112,"country_code":"KZ","latitude":"42.55330000","longitude":"69.99835000"},{"id":"65795","name":"Sozaq Audany","state_id":149,"state_code":"YUZ","country_id":112,"country_code":"KZ","latitude":"44.83333000","longitude":"68.50000000"},{"id":"65809","name":"Temirlanovka","state_id":149,"state_code":"YUZ","country_id":112,"country_code":"KZ","latitude":"42.59998000","longitude":"69.25836000"},{"id":"65817","name":"Turar Ryskulov","state_id":149,"state_code":"YUZ","country_id":112,"country_code":"KZ","latitude":"42.53340000","longitude":"70.34960000"},{"id":"65819","name":"Turkestan","state_id":149,"state_code":"YUZ","country_id":112,"country_code":"KZ","latitude":"43.29733000","longitude":"68.25175000"},{"id":"65820","name":"Tyul\u2019kubas","state_id":149,"state_code":"YUZ","country_id":112,"country_code":"KZ","latitude":"42.48578000","longitude":"70.29601000"},{"id":"65834","name":"Zhabagly","state_id":149,"state_code":"YUZ","country_id":112,"country_code":"KZ","latitude":"42.43781000","longitude":"70.47841000"}]