[{"id":"65605","name":"Aktobe","state_id":151,"state_code":"AKT","country_id":112,"country_code":"KZ","latitude":"50.27969000","longitude":"57.20718000"},{"id":"65636","name":"Batamshinskiy","state_id":151,"state_code":"AKT","country_id":112,"country_code":"KZ","latitude":"50.56022000","longitude":"58.27715000"},{"id":"65638","name":"Bayganin","state_id":151,"state_code":"AKT","country_id":112,"country_code":"KZ","latitude":"48.68975000","longitude":"55.87512000"},{"id":"65674","name":"Embi","state_id":151,"state_code":"AKT","country_id":112,"country_code":"KZ","latitude":"48.82981000","longitude":"58.15042000"},{"id":"65687","name":"Kandyagash","state_id":151,"state_code":"AKT","country_id":112,"country_code":"KZ","latitude":"49.46912000","longitude":"57.41914000"},{"id":"65697","name":"Khromtau","state_id":151,"state_code":"AKT","country_id":112,"country_code":"KZ","latitude":"50.25117000","longitude":"58.44003000"},{"id":"65725","name":"Martuk","state_id":151,"state_code":"AKT","country_id":112,"country_code":"KZ","latitude":"50.74746000","longitude":"56.50611000"},{"id":"65779","name":"Shalqar","state_id":151,"state_code":"AKT","country_id":112,"country_code":"KZ","latitude":"47.83333000","longitude":"59.60000000"},{"id":"65788","name":"Shubarkuduk","state_id":151,"state_code":"AKT","country_id":112,"country_code":"KZ","latitude":"49.14391000","longitude":"56.48196000"},{"id":"65790","name":"Shubarshi","state_id":151,"state_code":"AKT","country_id":112,"country_code":"KZ","latitude":"48.58022000","longitude":"57.18289000"},{"id":"65808","name":"Temir","state_id":151,"state_code":"AKT","country_id":112,"country_code":"KZ","latitude":"49.14132000","longitude":"57.12855000"},{"id":"65831","name":"Yrghyz","state_id":151,"state_code":"AKT","country_id":112,"country_code":"KZ","latitude":"48.61667000","longitude":"61.26667000"}]