[{"id":"16161","name":"Amherst","state_id":874,"state_code":"NS","country_id":39,"country_code":"CA","latitude":"45.83345000","longitude":"-64.19874000"},{"id":"16170","name":"Annapolis County","state_id":874,"state_code":"NS","country_id":39,"country_code":"CA","latitude":"44.58345000","longitude":"-65.16551000"},{"id":"16171","name":"Antigonish","state_id":874,"state_code":"NS","country_id":39,"country_code":"CA","latitude":"45.61685000","longitude":"-61.99858000"},{"id":"16216","name":"Berwick","state_id":874,"state_code":"NS","country_id":39,"country_code":"CA","latitude":"45.05015000","longitude":"-64.73208000"},{"id":"16242","name":"Bridgewater","state_id":874,"state_code":"NS","country_id":39,"country_code":"CA","latitude":"44.37856000","longitude":"-64.51882000"},{"id":"16272","name":"Cape Breton County","state_id":874,"state_code":"NS","country_id":39,"country_code":"CA","latitude":"46.00014000","longitude":"-60.31516000"},{"id":"16304","name":"Chester","state_id":874,"state_code":"NS","country_id":39,"country_code":"CA","latitude":"44.54225000","longitude":"-64.23891000"},{"id":"16322","name":"Colchester","state_id":874,"state_code":"NS","country_id":39,"country_code":"CA","latitude":"45.33345000","longitude":"-63.24868000"},{"id":"16324","name":"Cole Harbour","state_id":874,"state_code":"NS","country_id":39,"country_code":"CA","latitude":"44.67244000","longitude":"-63.47506000"},{"id":"16342","name":"Cow Bay","state_id":874,"state_code":"NS","country_id":39,"country_code":"CA","latitude":"44.63141000","longitude":"-63.43218000"},{"id":"16355","name":"Dartmouth","state_id":874,"state_code":"NS","country_id":39,"country_code":"CA","latitude":"44.67134000","longitude":"-63.57719000"},{"id":"16374","name":"Digby","state_id":874,"state_code":"NS","country_id":39,"country_code":"CA","latitude":"44.62188000","longitude":"-65.75860000"},{"id":"16375","name":"Digby County","state_id":874,"state_code":"NS","country_id":39,"country_code":"CA","latitude":"44.36685000","longitude":"-65.69884000"},{"id":"16406","name":"English Corner","state_id":874,"state_code":"NS","country_id":39,"country_code":"CA","latitude":"44.73345000","longitude":"-63.78201000"},{"id":"16407","name":"Eskasoni 3","state_id":874,"state_code":"NS","country_id":39,"country_code":"CA","latitude":"45.94522000","longitude":"-60.61617000"},{"id":"16416","name":"Fall River","state_id":874,"state_code":"NS","country_id":39,"country_code":"CA","latitude":"44.81685000","longitude":"-63.61540000"},{"id":"16454","name":"Glace Bay","state_id":874,"state_code":"NS","country_id":39,"country_code":"CA","latitude":"46.19695000","longitude":"-59.95698000"},{"id":"16475","name":"Greenwood","state_id":874,"state_code":"NS","country_id":39,"country_code":"CA","latitude":"44.97413000","longitude":"-64.93169000"},{"id":"16482","name":"Halifax","state_id":874,"state_code":"NS","country_id":39,"country_code":"CA","latitude":"44.64533000","longitude":"-63.57239000"},{"id":"16490","name":"Hantsport","state_id":874,"state_code":"NS","country_id":39,"country_code":"CA","latitude":"45.06685000","longitude":"-64.16544000"},{"id":"16499","name":"Hayes Subdivision","state_id":874,"state_code":"NS","country_id":39,"country_code":"CA","latitude":"45.05519000","longitude":"-64.58795000"},{"id":"16539","name":"Kentville","state_id":874,"state_code":"NS","country_id":39,"country_code":"CA","latitude":"45.07710000","longitude":"-64.49605000"},{"id":"16589","name":"Lake Echo","state_id":874,"state_code":"NS","country_id":39,"country_code":"CA","latitude":"44.73345000","longitude":"-63.38198000"},{"id":"16600","name":"Lantz","state_id":874,"state_code":"NS","country_id":39,"country_code":"CA","latitude":"44.98345000","longitude":"-63.48199000"},{"id":"16632","name":"Lower Sackville","state_id":874,"state_code":"NS","country_id":39,"country_code":"CA","latitude":"44.77599000","longitude":"-63.67865000"},{"id":"16637","name":"Lunenburg","state_id":874,"state_code":"NS","country_id":39,"country_code":"CA","latitude":"44.37847000","longitude":"-64.31658000"},{"id":"16686","name":"Middleton","state_id":874,"state_code":"NS","country_id":39,"country_code":"CA","latitude":"44.94284000","longitude":"-65.07022000"},{"id":"16739","name":"New Glasgow","state_id":874,"state_code":"NS","country_id":39,"country_code":"CA","latitude":"45.58344000","longitude":"-62.64863000"},{"id":"16791","name":"Oxford","state_id":874,"state_code":"NS","country_id":39,"country_code":"CA","latitude":"45.73345000","longitude":"-63.86542000"},{"id":"16799","name":"Parrsboro","state_id":874,"state_code":"NS","country_id":39,"country_code":"CA","latitude":"45.40567000","longitude":"-64.32585000"},{"id":"16818","name":"Pictou","state_id":874,"state_code":"NS","country_id":39,"country_code":"CA","latitude":"45.67875000","longitude":"-62.70936000"},{"id":"16819","name":"Pictou County","state_id":874,"state_code":"NS","country_id":39,"country_code":"CA","latitude":"45.50015000","longitude":"-62.58193000"},{"id":"16840","name":"Port Hawkesbury","state_id":874,"state_code":"NS","country_id":39,"country_code":"CA","latitude":"45.61685000","longitude":"-61.34853000"},{"id":"16846","name":"Port Williams","state_id":874,"state_code":"NS","country_id":39,"country_code":"CA","latitude":"45.10015000","longitude":"-64.41546000"},{"id":"16859","name":"Princeville","state_id":874,"state_code":"NS","country_id":39,"country_code":"CA","latitude":"45.76684000","longitude":"-61.29853000"},{"id":"17037","name":"Shelburne","state_id":874,"state_code":"NS","country_id":39,"country_code":"CA","latitude":"43.76325000","longitude":"-65.32355000"},{"id":"17064","name":"Springhill","state_id":874,"state_code":"NS","country_id":39,"country_code":"CA","latitude":"45.65015000","longitude":"-64.04873000"},{"id":"17095","name":"Sydney","state_id":874,"state_code":"NS","country_id":39,"country_code":"CA","latitude":"46.13510000","longitude":"-60.18310000"},{"id":"17096","name":"Sydney Mines","state_id":874,"state_code":"NS","country_id":39,"country_code":"CA","latitude":"46.23669000","longitude":"-60.21767000"},{"id":"17127","name":"Truro","state_id":874,"state_code":"NS","country_id":39,"country_code":"CA","latitude":"45.36685000","longitude":"-63.26538000"},{"id":"17211","name":"Windsor","state_id":874,"state_code":"NS","country_id":39,"country_code":"CA","latitude":"44.98345000","longitude":"-64.13204000"},{"id":"17216","name":"Wolfville","state_id":874,"state_code":"NS","country_id":39,"country_code":"CA","latitude":"45.08345000","longitude":"-64.36546000"},{"id":"17220","name":"Yarmouth","state_id":874,"state_code":"NS","country_id":39,"country_code":"CA","latitude":"43.83345000","longitude":"-66.11557000"}]