[{"id":"15707","name":"Gasa","state_id":229,"state_code":"GA","country_id":26,"country_code":"BT","latitude":"27.90372000","longitude":"89.72689000"},{"id":"15725","name":"Trongsa","state_id":230,"state_code":"21","country_id":26,"country_code":"BT","latitude":"27.50260000","longitude":"90.50716000"},{"id":"15727","name":"Tsirang","state_id":230,"state_code":"21","country_id":26,"country_code":"BT","latitude":"27.02190000","longitude":"90.12291000"},{"id":"15723","name":"Trashi Yangtse","state_id":231,"state_code":"24","country_id":26,"country_code":"BT","latitude":"27.61160000","longitude":"91.49800000"},{"id":"15708","name":"Ha","state_id":232,"state_code":"13","country_id":26,"country_code":"BT","latitude":"27.38747000","longitude":"89.28074000"},{"id":"15713","name":"Panbang","state_id":233,"state_code":"34","country_id":26,"country_code":"BT","latitude":"26.86667000","longitude":"90.98333000"},{"id":"15721","name":"Shemgang","state_id":233,"state_code":"34","country_id":26,"country_code":"BT","latitude":"27.21689000","longitude":"90.65793000"},{"id":"15710","name":"Lhuentse","state_id":234,"state_code":"44","country_id":26,"country_code":"BT","latitude":"27.66787000","longitude":"91.18393000"},{"id":"15712","name":"Pajo","state_id":235,"state_code":"23","country_id":26,"country_code":"BT","latitude":"27.53333000","longitude":"89.88333000"},{"id":"15717","name":"Punakha","state_id":235,"state_code":"23","country_id":26,"country_code":"BT","latitude":"27.59137000","longitude":"89.87743000"},{"id":"15724","name":"Trashigang","state_id":236,"state_code":"41","country_id":26,"country_code":"BT","latitude":"27.33310000","longitude":"91.55424000"},{"id":"15714","name":"Paro","state_id":237,"state_code":"11","country_id":26,"country_code":"BT","latitude":"27.43050000","longitude":"89.41334000"},{"id":"15705","name":"Daga","state_id":238,"state_code":"22","country_id":26,"country_code":"BT","latitude":"27.07529000","longitude":"89.87688000"},{"id":"15728","name":"Wangdue Phodrang","state_id":238,"state_code":"22","country_id":26,"country_code":"BT","latitude":"27.48615000","longitude":"89.89915000"},{"id":"15706","name":"Daphu","state_id":239,"state_code":"12","country_id":26,"country_code":"BT","latitude":"26.96667000","longitude":"89.38333000"},{"id":"15716","name":"Phuntsholing","state_id":239,"state_code":"12","country_id":26,"country_code":"BT","latitude":"26.85164000","longitude":"89.38837000"},{"id":"15726","name":"Tsimasham","state_id":239,"state_code":"12","country_id":26,"country_code":"BT","latitude":"27.09890000","longitude":"89.53604000"},{"id":"15709","name":"Jakar","state_id":240,"state_code":"33","country_id":26,"country_code":"BT","latitude":"27.54918000","longitude":"90.75250000"},{"id":"15722","name":"Thimphu","state_id":241,"state_code":"15","country_id":26,"country_code":"BT","latitude":"27.46609000","longitude":"89.64191000"},{"id":"15711","name":"Mongar","state_id":242,"state_code":"42","country_id":26,"country_code":"BT","latitude":"27.27471000","longitude":"91.23963000"},{"id":"15718","name":"Samdrup Jongkhar","state_id":243,"state_code":"45","country_id":26,"country_code":"BT","latitude":"26.80069000","longitude":"91.50519000"},{"id":"15715","name":"Pemagatshel","state_id":244,"state_code":"43","country_id":26,"country_code":"BT","latitude":"27.03795000","longitude":"91.40305000"},{"id":"15719","name":"Samtse","state_id":246,"state_code":"14","country_id":26,"country_code":"BT","latitude":"26.89903000","longitude":"89.09951000"},{"id":"15720","name":"Sarpang","state_id":247,"state_code":"31","country_id":26,"country_code":"BT","latitude":"26.86395000","longitude":"90.26745000"}]