[{"id":"18864","name":"Adzop\u00e9","state_id":2639,"state_code":"01","country_id":54,"country_code":"CI","latitude":"6.10694000","longitude":"-3.86194000"},{"id":"18865","name":"Affery","state_id":2639,"state_code":"01","country_id":54,"country_code":"CI","latitude":"6.32035000","longitude":"-3.95235000"},{"id":"18866","name":"Agboville","state_id":2639,"state_code":"01","country_id":54,"country_code":"CI","latitude":"5.92801000","longitude":"-4.21319000"},{"id":"18868","name":"Agn\u00e9by-Tiassa","state_id":2639,"state_code":"01","country_id":54,"country_code":"CI","latitude":"5.79488000","longitude":"-4.37187000"},{"id":"18869","name":"Akoup\u00e9","state_id":2639,"state_code":"01","country_id":54,"country_code":"CI","latitude":"6.38423000","longitude":"-3.88759000"},{"id":"18891","name":"Dabou","state_id":2639,"state_code":"01","country_id":54,"country_code":"CI","latitude":"5.32556000","longitude":"-4.37685000"},{"id":"18904","name":"Grand-Lahou","state_id":2639,"state_code":"01","country_id":54,"country_code":"CI","latitude":"5.25068000","longitude":"-5.00333000"},{"id":"18905","name":"Grands-Ponts","state_id":2639,"state_code":"01","country_id":54,"country_code":"CI","latitude":"5.30487000","longitude":"-4.39247000"},{"id":"18935","name":"Tiassal\u00e9","state_id":2639,"state_code":"01","country_id":54,"country_code":"CI","latitude":"5.89839000","longitude":"-4.82293000"}]