[{"id":"52219","name":"Bakau","state_id":2666,"state_code":"B","country_id":80,"country_code":"GM","latitude":"13.47806000","longitude":"-16.68194000"},{"id":"52221","name":"Banjul","state_id":2666,"state_code":"B","country_id":80,"country_code":"GM","latitude":"13.45274000","longitude":"-16.57803000"},{"id":"52277","name":"Kombo Saint Mary District","state_id":2666,"state_code":"B","country_id":80,"country_code":"GM","latitude":"13.44389000","longitude":"-16.64583000"},{"id":"52304","name":"Serekunda","state_id":2666,"state_code":"B","country_id":80,"country_code":"GM","latitude":"13.43833000","longitude":"-16.67806000"},{"id":"52217","name":"Abuko","state_id":2667,"state_code":"W","country_id":80,"country_code":"GM","latitude":"13.40417000","longitude":"-16.65583000"},{"id":"52227","name":"Brikama","state_id":2667,"state_code":"W","country_id":80,"country_code":"GM","latitude":"13.27136000","longitude":"-16.64944000"},{"id":"52241","name":"Foni Bondali","state_id":2667,"state_code":"W","country_id":80,"country_code":"GM","latitude":"13.21667000","longitude":"-15.93333000"},{"id":"52242","name":"Foni Brefet","state_id":2667,"state_code":"W","country_id":80,"country_code":"GM","latitude":"13.21667000","longitude":"-16.33333000"},{"id":"52243","name":"Foni Jarrol","state_id":2667,"state_code":"W","country_id":80,"country_code":"GM","latitude":"13.23333000","longitude":"-15.83333000"},{"id":"52244","name":"Foni Kansala","state_id":2667,"state_code":"W","country_id":80,"country_code":"GM","latitude":"13.21667000","longitude":"-16.05000000"},{"id":"52249","name":"Gunjur","state_id":2667,"state_code":"W","country_id":80,"country_code":"GM","latitude":"13.20194000","longitude":"-16.73389000"},{"id":"52274","name":"Kombo Central District","state_id":2667,"state_code":"W","country_id":80,"country_code":"GM","latitude":"13.25000000","longitude":"-16.66667000"},{"id":"52275","name":"Kombo East District","state_id":2667,"state_code":"W","country_id":80,"country_code":"GM","latitude":"13.21667000","longitude":"-16.51667000"},{"id":"52276","name":"Kombo North District","state_id":2667,"state_code":"W","country_id":80,"country_code":"GM","latitude":"13.36667000","longitude":"-16.66667000"},{"id":"52278","name":"Kombo South District","state_id":2667,"state_code":"W","country_id":80,"country_code":"GM","latitude":"13.25000000","longitude":"-16.75000000"},{"id":"52307","name":"Somita","state_id":2667,"state_code":"W","country_id":80,"country_code":"GM","latitude":"13.20583000","longitude":"-16.30556000"},{"id":"52310","name":"Sukuta","state_id":2667,"state_code":"W","country_id":80,"country_code":"GM","latitude":"13.41033000","longitude":"-16.70815000"},{"id":"52218","name":"Bakadagy","state_id":2668,"state_code":"U","country_id":80,"country_code":"GM","latitude":"13.30000000","longitude":"-14.38333000"},{"id":"52225","name":"Basse Santa Su","state_id":2668,"state_code":"U","country_id":80,"country_code":"GM","latitude":"13.30995000","longitude":"-14.21373000"},{"id":"52226","name":"Brifu","state_id":2668,"state_code":"U","country_id":80,"country_code":"GM","latitude":"13.50000000","longitude":"-13.93333000"},{"id":"52232","name":"Daba Kunda","state_id":2668,"state_code":"U","country_id":80,"country_code":"GM","latitude":"13.31667000","longitude":"-14.30000000"},{"id":"52235","name":"Demba Kunda","state_id":2668,"state_code":"U","country_id":80,"country_code":"GM","latitude":"13.25000000","longitude":"-14.26667000"},{"id":"52237","name":"Diabugu","state_id":2668,"state_code":"U","country_id":80,"country_code":"GM","latitude":"13.38333000","longitude":"-14.40000000"},{"id":"52238","name":"Diabugu Basilla","state_id":2668,"state_code":"U","country_id":80,"country_code":"GM","latitude":"13.33333000","longitude":"-13.95000000"},{"id":"52245","name":"Fulladu East","state_id":2668,"state_code":"U","country_id":80,"country_code":"GM","latitude":"13.33333000","longitude":"-14.25000000"},{"id":"52251","name":"Gunjur Kuta","state_id":2668,"state_code":"U","country_id":80,"country_code":"GM","latitude":"13.53333000","longitude":"-14.11667000"},{"id":"52263","name":"Kantora","state_id":2668,"state_code":"U","country_id":80,"country_code":"GM","latitude":"13.41667000","longitude":"-13.91667000"},{"id":"52273","name":"Koina","state_id":2668,"state_code":"U","country_id":80,"country_code":"GM","latitude":"13.48333000","longitude":"-13.86667000"},{"id":"52279","name":"Kumbija","state_id":2668,"state_code":"U","country_id":80,"country_code":"GM","latitude":"13.26667000","longitude":"-14.18333000"},{"id":"52293","name":"Nyamanari","state_id":2668,"state_code":"U","country_id":80,"country_code":"GM","latitude":"13.33333000","longitude":"-13.86667000"},{"id":"52295","name":"Perai","state_id":2668,"state_code":"U","country_id":80,"country_code":"GM","latitude":"13.38333000","longitude":"-14.03333000"},{"id":"52297","name":"Sabi","state_id":2668,"state_code":"U","country_id":80,"country_code":"GM","latitude":"13.23333000","longitude":"-14.20000000"},{"id":"52300","name":"Sandu","state_id":2668,"state_code":"U","country_id":80,"country_code":"GM","latitude":"13.41667000","longitude":"-14.36667000"},{"id":"52308","name":"Sudowol","state_id":2668,"state_code":"U","country_id":80,"country_code":"GM","latitude":"13.36667000","longitude":"-13.96667000"},{"id":"52311","name":"Sun Kunda","state_id":2668,"state_code":"U","country_id":80,"country_code":"GM","latitude":"13.38333000","longitude":"-13.85000000"},{"id":"52312","name":"Sutukoba","state_id":2668,"state_code":"U","country_id":80,"country_code":"GM","latitude":"13.50000000","longitude":"-14.01667000"},{"id":"52320","name":"Wuli","state_id":2668,"state_code":"U","country_id":80,"country_code":"GM","latitude":"13.50000000","longitude":"-14.08333000"},{"id":"52222","name":"Bansang","state_id":2669,"state_code":"M","country_id":80,"country_code":"GM","latitude":"13.43333000","longitude":"-14.65000000"},{"id":"52228","name":"Brikama Nding","state_id":2669,"state_code":"M","country_id":80,"country_code":"GM","latitude":"13.53333000","longitude":"-14.93333000"},{"id":"52233","name":"Dankunku","state_id":2669,"state_code":"M","country_id":80,"country_code":"GM","latitude":"13.56667000","longitude":"-15.31667000"},{"id":"52236","name":"Denton","state_id":2669,"state_code":"M","country_id":80,"country_code":"GM","latitude":"13.50000000","longitude":"-14.93333000"},{"id":"52246","name":"Fulladu West","state_id":2669,"state_code":"M","country_id":80,"country_code":"GM","latitude":"13.50000000","longitude":"-14.75000000"},{"id":"52247","name":"Galleh Manda","state_id":2669,"state_code":"M","country_id":80,"country_code":"GM","latitude":"13.43333000","longitude":"-14.78333000"},{"id":"52248","name":"Georgetown","state_id":2669,"state_code":"M","country_id":80,"country_code":"GM","latitude":"13.54039000","longitude":"-14.76374000"},{"id":"52252","name":"Jakhaly","state_id":2669,"state_code":"M","country_id":80,"country_code":"GM","latitude":"13.55000000","longitude":"-14.96667000"},{"id":"52254","name":"Janjanbureh","state_id":2669,"state_code":"M","country_id":80,"country_code":"GM","latitude":"13.53564000","longitude":"-14.76515000"},{"id":"52258","name":"Jarreng","state_id":2669,"state_code":"M","country_id":80,"country_code":"GM","latitude":"13.61667000","longitude":"-15.18333000"},{"id":"52265","name":"Karantaba","state_id":2669,"state_code":"M","country_id":80,"country_code":"GM","latitude":"13.66667000","longitude":"-15.03333000"},{"id":"52266","name":"Kass Wollof","state_id":2669,"state_code":"M","country_id":80,"country_code":"GM","latitude":"13.78333000","longitude":"-14.93333000"},{"id":"52280","name":"Kuntaur","state_id":2669,"state_code":"M","country_id":80,"country_code":"GM","latitude":"13.67085000","longitude":"-14.88977000"},{"id":"52281","name":"Kunting","state_id":2669,"state_code":"M","country_id":80,"country_code":"GM","latitude":"13.53333000","longitude":"-14.66667000"},{"id":"52285","name":"Lower Saloum","state_id":2669,"state_code":"M","country_id":80,"country_code":"GM","latitude":"13.71667000","longitude":"-15.36667000"},{"id":"52287","name":"Niamina East District","state_id":2669,"state_code":"M","country_id":80,"country_code":"GM","latitude":"13.63333000","longitude":"-15.08333000"},{"id":"52288","name":"Niamina West District","state_id":2669,"state_code":"M","country_id":80,"country_code":"GM","latitude":"13.58333000","longitude":"-15.25000000"},{"id":"52289","name":"Niani","state_id":2669,"state_code":"M","country_id":80,"country_code":"GM","latitude":"13.66667000","longitude":"-14.91667000"},{"id":"52290","name":"Nianija District","state_id":2669,"state_code":"M","country_id":80,"country_code":"GM","latitude":"13.72900000","longitude":"-15.09100000"},{"id":"52294","name":"Pateh Sam","state_id":2669,"state_code":"M","country_id":80,"country_code":"GM","latitude":"13.61667000","longitude":"-15.06667000"},{"id":"52298","name":"Sami","state_id":2669,"state_code":"M","country_id":80,"country_code":"GM","latitude":"13.58333000","longitude":"-15.20000000"},{"id":"52299","name":"Sami District","state_id":2669,"state_code":"M","country_id":80,"country_code":"GM","latitude":"13.58333000","longitude":"-14.58333000"},{"id":"52303","name":"Saruja","state_id":2669,"state_code":"M","country_id":80,"country_code":"GM","latitude":"13.55000000","longitude":"-14.91667000"},{"id":"52309","name":"Sukuta","state_id":2669,"state_code":"M","country_id":80,"country_code":"GM","latitude":"13.61667000","longitude":"-14.91667000"},{"id":"52317","name":"Upper Saloum","state_id":2669,"state_code":"M","country_id":80,"country_code":"GM","latitude":"13.75000000","longitude":"-15.20000000"},{"id":"52318","name":"Wassu","state_id":2669,"state_code":"M","country_id":80,"country_code":"GM","latitude":"13.69094000","longitude":"-14.87884000"},{"id":"52223","name":"Baro Kunda","state_id":2670,"state_code":"L","country_id":80,"country_code":"GM","latitude":"13.48333000","longitude":"-15.26667000"},{"id":"52229","name":"Bureng","state_id":2670,"state_code":"L","country_id":80,"country_code":"GM","latitude":"13.41667000","longitude":"-15.28333000"},{"id":"52253","name":"Jali","state_id":2670,"state_code":"L","country_id":80,"country_code":"GM","latitude":"13.35000000","longitude":"-15.96667000"},{"id":"52255","name":"Jarra Central","state_id":2670,"state_code":"L","country_id":80,"country_code":"GM","latitude":"13.41667000","longitude":"-15.41667000"},{"id":"52256","name":"Jarra East","state_id":2670,"state_code":"L","country_id":80,"country_code":"GM","latitude":"13.41667000","longitude":"-15.25000000"},{"id":"52257","name":"Jarra West","state_id":2670,"state_code":"L","country_id":80,"country_code":"GM","latitude":"13.41667000","longitude":"-15.53333000"},{"id":"52259","name":"Jenoi","state_id":2670,"state_code":"L","country_id":80,"country_code":"GM","latitude":"13.48333000","longitude":"-15.56667000"},{"id":"52260","name":"Jifarong","state_id":2670,"state_code":"L","country_id":80,"country_code":"GM","latitude":"13.30000000","longitude":"-15.86667000"},{"id":"52262","name":"Kaiaf","state_id":2670,"state_code":"L","country_id":80,"country_code":"GM","latitude":"13.40000000","longitude":"-15.61667000"},{"id":"52264","name":"Karantaba","state_id":2670,"state_code":"L","country_id":80,"country_code":"GM","latitude":"13.43333000","longitude":"-15.51667000"},{"id":"52268","name":"Keneba","state_id":2670,"state_code":"L","country_id":80,"country_code":"GM","latitude":"13.32889000","longitude":"-16.01500000"},{"id":"52270","name":"Kiang Central","state_id":2670,"state_code":"L","country_id":80,"country_code":"GM","latitude":"13.40000000","longitude":"-15.75000000"},{"id":"52271","name":"Kiang East","state_id":2670,"state_code":"L","country_id":80,"country_code":"GM","latitude":"13.41667000","longitude":"-15.63333000"},{"id":"52272","name":"Kiang West District","state_id":2670,"state_code":"L","country_id":80,"country_code":"GM","latitude":"13.33333000","longitude":"-16.00000000"},{"id":"52286","name":"Mansa Konko","state_id":2670,"state_code":"L","country_id":80,"country_code":"GM","latitude":"13.44325000","longitude":"-15.53570000"},{"id":"52291","name":"Nioro","state_id":2670,"state_code":"L","country_id":80,"country_code":"GM","latitude":"13.35000000","longitude":"-15.75000000"},{"id":"52301","name":"Sankwia","state_id":2670,"state_code":"L","country_id":80,"country_code":"GM","latitude":"13.46667000","longitude":"-15.51667000"},{"id":"52305","name":"Si Kunda","state_id":2670,"state_code":"L","country_id":80,"country_code":"GM","latitude":"13.43333000","longitude":"-15.56667000"},{"id":"52306","name":"Soma","state_id":2670,"state_code":"L","country_id":80,"country_code":"GM","latitude":"13.43333000","longitude":"-15.53333000"},{"id":"52313","name":"Sutukung","state_id":2670,"state_code":"L","country_id":80,"country_code":"GM","latitude":"13.46667000","longitude":"-15.26667000"},{"id":"52314","name":"Toniataba","state_id":2670,"state_code":"L","country_id":80,"country_code":"GM","latitude":"13.43333000","longitude":"-15.58333000"},{"id":"52319","name":"Wellingara Ba","state_id":2670,"state_code":"L","country_id":80,"country_code":"GM","latitude":"13.41667000","longitude":"-15.40000000"},{"id":"52220","name":"Bambali","state_id":2671,"state_code":"N","country_id":80,"country_code":"GM","latitude":"13.48333000","longitude":"-15.33333000"},{"id":"52224","name":"Barra","state_id":2671,"state_code":"N","country_id":80,"country_code":"GM","latitude":"13.48278000","longitude":"-16.54556000"},{"id":"52230","name":"Central Baddibu","state_id":2671,"state_code":"N","country_id":80,"country_code":"GM","latitude":"13.53333000","longitude":"-15.91667000"},{"id":"52231","name":"Chilla","state_id":2671,"state_code":"N","country_id":80,"country_code":"GM","latitude":"13.55000000","longitude":"-16.28333000"},{"id":"52234","name":"Daru Rilwan","state_id":2671,"state_code":"N","country_id":80,"country_code":"GM","latitude":"13.55000000","longitude":"-15.98333000"},{"id":"52239","name":"Essau","state_id":2671,"state_code":"N","country_id":80,"country_code":"GM","latitude":"13.48389000","longitude":"-16.53472000"},{"id":"52240","name":"Farafenni","state_id":2671,"state_code":"N","country_id":80,"country_code":"GM","latitude":"13.56667000","longitude":"-15.60000000"},{"id":"52250","name":"Gunjur","state_id":2671,"state_code":"N","country_id":80,"country_code":"GM","latitude":"13.52278000","longitude":"-16.02778000"},{"id":"52261","name":"Jokadu","state_id":2671,"state_code":"N","country_id":80,"country_code":"GM","latitude":"13.53333000","longitude":"-16.18333000"},{"id":"52267","name":"Katchang","state_id":2671,"state_code":"N","country_id":80,"country_code":"GM","latitude":"13.50000000","longitude":"-15.75000000"},{"id":"52269","name":"Kerewan","state_id":2671,"state_code":"N","country_id":80,"country_code":"GM","latitude":"13.48980000","longitude":"-16.08879000"},{"id":"52282","name":"Lamin","state_id":2671,"state_code":"N","country_id":80,"country_code":"GM","latitude":"13.35222000","longitude":"-16.43389000"},{"id":"52283","name":"Lower Baddibu District","state_id":2671,"state_code":"N","country_id":80,"country_code":"GM","latitude":"13.50000000","longitude":"-16.05000000"},{"id":"52284","name":"Lower Niumi District","state_id":2671,"state_code":"N","country_id":80,"country_code":"GM","latitude":"13.53333000","longitude":"-16.41667000"},{"id":"52292","name":"No Kunda","state_id":2671,"state_code":"N","country_id":80,"country_code":"GM","latitude":"13.56667000","longitude":"-15.83333000"},{"id":"52296","name":"Saba","state_id":2671,"state_code":"N","country_id":80,"country_code":"GM","latitude":"13.51639000","longitude":"-16.04917000"},{"id":"52302","name":"Sara Kunda","state_id":2671,"state_code":"N","country_id":80,"country_code":"GM","latitude":"13.53333000","longitude":"-15.41667000"},{"id":"52315","name":"Upper Baddibu","state_id":2671,"state_code":"N","country_id":80,"country_code":"GM","latitude":"13.55000000","longitude":"-15.66667000"},{"id":"52316","name":"Upper Niumi District","state_id":2671,"state_code":"N","country_id":80,"country_code":"GM","latitude":"13.40000000","longitude":"-16.33333000"}]