[{"id":"65865","name":"Luang Prabang","state_id":978,"state_code":"LP","country_id":119,"country_code":"LA","latitude":"19.88601000","longitude":"102.13503000"},{"id":"65927","name":"Vientiane","state_id":979,"state_code":"VT","country_id":119,"country_code":"LA","latitude":"17.96667000","longitude":"102.60000000"},{"id":"65892","name":"Muang Ph\u00f4n-H\u00f4ng","state_id":980,"state_code":"VI","country_id":119,"country_code":"LA","latitude":"18.49530000","longitude":"102.41530000"},{"id":"65926","name":"Vangviang","state_id":980,"state_code":"VI","country_id":119,"country_code":"LA","latitude":"18.92350000","longitude":"102.44784000"},{"id":"65875","name":"Muang Kh\u00f4ngx\u00e9d\u00f4n","state_id":981,"state_code":"SL","country_id":119,"country_code":"LA","latitude":"15.54626000","longitude":"105.77051000"},{"id":"65876","name":"Muang Lakhonph\u00e9ng","state_id":981,"state_code":"SL","country_id":119,"country_code":"LA","latitude":"15.83308000","longitude":"105.59745000"},{"id":"65878","name":"Muang Laongam","state_id":981,"state_code":"SL","country_id":119,"country_code":"LA","latitude":"15.47745000","longitude":"106.14111000"},{"id":"65896","name":"Muang Samouay","state_id":981,"state_code":"SL","country_id":119,"country_code":"LA","latitude":"16.35868000","longitude":"106.87480000"},{"id":"65899","name":"Muang Saravan","state_id":981,"state_code":"SL","country_id":119,"country_code":"LA","latitude":"15.71587000","longitude":"106.36158000"},{"id":"65902","name":"Muang Ta-\u00d4y","state_id":981,"state_code":"SL","country_id":119,"country_code":"LA","latitude":"16.07765000","longitude":"106.70304000"},{"id":"65907","name":"Muang Toumlan","state_id":981,"state_code":"SL","country_id":119,"country_code":"LA","latitude":"16.02236000","longitude":"106.23837000"},{"id":"65909","name":"Muang Vapi","state_id":981,"state_code":"SL","country_id":119,"country_code":"LA","latitude":"15.75005000","longitude":"105.95529000"},{"id":"65922","name":"Salavan","state_id":981,"state_code":"SL","country_id":119,"country_code":"LA","latitude":"15.71652000","longitude":"106.41744000"},{"id":"65855","name":"Attapeu","state_id":982,"state_code":"AT","country_id":119,"country_code":"LA","latitude":"14.81071000","longitude":"106.83184000"},{"id":"65891","name":"Muang Phouvong","state_id":982,"state_code":"AT","country_id":119,"country_code":"LA","latitude":"14.56821000","longitude":"107.01087000"},{"id":"65895","name":"Muang Samakhixai","state_id":982,"state_code":"AT","country_id":119,"country_code":"LA","latitude":"14.80539000","longitude":"106.78164000"},{"id":"65897","name":"Muang Sanamxai","state_id":982,"state_code":"AT","country_id":119,"country_code":"LA","latitude":"14.73807000","longitude":"106.41328000"},{"id":"65898","name":"Muang Sanxai","state_id":982,"state_code":"AT","country_id":119,"country_code":"LA","latitude":"15.02944000","longitude":"107.23158000"},{"id":"65912","name":"Muang Xais\u00e9ttha","state_id":982,"state_code":"AT","country_id":119,"country_code":"LA","latitude":"14.90594000","longitude":"106.97894000"},{"id":"65854","name":"Anouvong district","state_id":983,"state_code":"XS","country_id":119,"country_code":"LA","latitude":"18.89731000","longitude":"103.09274000"},{"id":"65863","name":"Longchaeng","state_id":983,"state_code":"XS","country_id":119,"country_code":"LA","latitude":"18.89394000","longitude":"103.14274000"},{"id":"65879","name":"Muang Longxan","state_id":983,"state_code":"XS","country_id":119,"country_code":"LA","latitude":"18.61782000","longitude":"102.88079000"},{"id":"65905","name":"Muang Thath\u00f4m","state_id":983,"state_code":"XS","country_id":119,"country_code":"LA","latitude":"19.00130000","longitude":"103.61572000"},{"id":"65859","name":"Ban That\u00e8ng","state_id":984,"state_code":"XE","country_id":119,"country_code":"LA","latitude":"15.43317000","longitude":"106.38272000"},{"id":"65862","name":"Lamam","state_id":984,"state_code":"XE","country_id":119,"country_code":"LA","latitude":"15.41705000","longitude":"106.69461000"},{"id":"65871","name":"Muang Dakchung","state_id":984,"state_code":"XE","country_id":119,"country_code":"LA","latitude":"15.38199000","longitude":"107.31847000"},{"id":"65873","name":"Muang Khaleum","state_id":984,"state_code":"XE","country_id":119,"country_code":"LA","latitude":"15.79886000","longitude":"107.04529000"},{"id":"65877","name":"Muang Laman","state_id":984,"state_code":"XE","country_id":119,"country_code":"LA","latitude":"15.41273000","longitude":"106.81706000"},{"id":"65906","name":"Muang That\u00e8ng","state_id":984,"state_code":"XE","country_id":119,"country_code":"LA","latitude":"15.42745000","longitude":"106.48149000"},{"id":"65858","name":"Ban Nahin","state_id":985,"state_code":"BL","country_id":119,"country_code":"LA","latitude":"18.24253000","longitude":"104.21281000"},{"id":"65918","name":"Pakxan","state_id":985,"state_code":"BL","country_id":119,"country_code":"LA","latitude":"18.39420000","longitude":"103.66110000"},{"id":"65903","name":"Muang Thakh\u00e8k","state_id":986,"state_code":"KH","country_id":119,"country_code":"LA","latitude":"17.40880000","longitude":"104.82639000"},{"id":"65924","name":"Thakh\u00e8k","state_id":986,"state_code":"KH","country_id":119,"country_code":"LA","latitude":"17.41027000","longitude":"104.83068000"},{"id":"65920","name":"Ph\u00f4ngsali","state_id":987,"state_code":"PH","country_id":119,"country_code":"LA","latitude":"21.68080000","longitude":"102.10030000"},{"id":"65914","name":"Muang Xay","state_id":988,"state_code":"OU","country_id":119,"country_code":"LA","latitude":"20.69229000","longitude":"101.98368000"},{"id":"65928","name":"Xam Neua","state_id":989,"state_code":"HO","country_id":119,"country_code":"LA","latitude":"20.40764000","longitude":"104.06560000"},{"id":"65929","name":"Xam Nua","state_id":989,"state_code":"HO","country_id":119,"country_code":"LA","latitude":"20.41640000","longitude":"104.04500000"},{"id":"65861","name":"Kaysone Phomvihane","state_id":990,"state_code":"SV","country_id":119,"country_code":"LA","latitude":"16.54943000","longitude":"104.82339000"},{"id":"65866","name":"Muang Alsaphangthong","state_id":990,"state_code":"SV","country_id":119,"country_code":"LA","latitude":"16.72645000","longitude":"105.39326000"},{"id":"65867","name":"Muang Atsaphan","state_id":990,"state_code":"SV","country_id":119,"country_code":"LA","latitude":"16.94740000","longitude":"105.40290000"},{"id":"65870","name":"Muang Champhon","state_id":990,"state_code":"SV","country_id":119,"country_code":"LA","latitude":"16.49363000","longitude":"105.22020000"},{"id":"65883","name":"Muang Nong","state_id":990,"state_code":"SV","country_id":119,"country_code":"LA","latitude":"16.38458000","longitude":"106.50419000"},{"id":"65884","name":"Muang Outhoumphon","state_id":990,"state_code":"SV","country_id":119,"country_code":"LA","latitude":"16.66667000","longitude":"105.05000000"},{"id":"65890","name":"Muang Phin","state_id":990,"state_code":"SV","country_id":119,"country_code":"LA","latitude":"16.44316000","longitude":"106.03019000"},{"id":"65900","name":"Muang Songkhon","state_id":990,"state_code":"SV","country_id":119,"country_code":"LA","latitude":"16.17116000","longitude":"105.30729000"},{"id":"65904","name":"Muang Thapangthong","state_id":990,"state_code":"SV","country_id":119,"country_code":"LA","latitude":"16.09132000","longitude":"105.81038000"},{"id":"65910","name":"Muang Vilabouli","state_id":990,"state_code":"SV","country_id":119,"country_code":"LA","latitude":"16.94067000","longitude":"105.93677000"},{"id":"65911","name":"Muang Xaibouli","state_id":990,"state_code":"SV","country_id":119,"country_code":"LA","latitude":"16.94432000","longitude":"104.92312000"},{"id":"65915","name":"Muang Xayphoothong","state_id":990,"state_code":"SV","country_id":119,"country_code":"LA","latitude":"16.37370000","longitude":"105.02165000"},{"id":"65916","name":"Muang X\u00f4nbouli","state_id":990,"state_code":"SV","country_id":119,"country_code":"LA","latitude":"16.40036000","longitude":"105.57388000"},{"id":"65923","name":"Savannakhet","state_id":990,"state_code":"SV","country_id":119,"country_code":"LA","latitude":"16.57030000","longitude":"104.76220000"},{"id":"65925","name":"Thaphalanxay","state_id":990,"state_code":"SV","country_id":119,"country_code":"LA","latitude":"16.70000000","longitude":"105.60000000"},{"id":"65856","name":"Ban Houakhoua","state_id":991,"state_code":"BK","country_id":119,"country_code":"LA","latitude":"20.24670000","longitude":"100.45401000"},{"id":"65857","name":"Ban Houayxay","state_id":991,"state_code":"BK","country_id":119,"country_code":"LA","latitude":"20.27000000","longitude":"100.41780000"},{"id":"65872","name":"Muang Houayxay","state_id":991,"state_code":"BK","country_id":119,"country_code":"LA","latitude":"20.38763000","longitude":"100.62687000"},{"id":"65881","name":"Muang Meung","state_id":991,"state_code":"BK","country_id":119,"country_code":"LA","latitude":"20.67585000","longitude":"100.52639000"},{"id":"65885","name":"Muang Paktha","state_id":991,"state_code":"BK","country_id":119,"country_code":"LA","latitude":"20.09108000","longitude":"100.59940000"},{"id":"65889","name":"Muang Pha Oud\u00f4m","state_id":991,"state_code":"BK","country_id":119,"country_code":"LA","latitude":"20.18744000","longitude":"100.92600000"},{"id":"65908","name":"Muang T\u00f4npheung","state_id":991,"state_code":"BK","country_id":119,"country_code":"LA","latitude":"20.53465000","longitude":"100.29624000"},{"id":"65864","name":"Luang Namtha","state_id":992,"state_code":"LM","country_id":119,"country_code":"LA","latitude":"20.94860000","longitude":"101.40188000"},{"id":"65880","name":"Muang Louang Namtha","state_id":992,"state_code":"LM","country_id":119,"country_code":"LA","latitude":"21.00424000","longitude":"101.44785000"},{"id":"65921","name":"Sainyabuli","state_id":993,"state_code":"XA","country_id":119,"country_code":"LA","latitude":"19.25756000","longitude":"101.71032000"},{"id":"65893","name":"Muang Ph\u00f4nsavan","state_id":995,"state_code":"XI","country_id":119,"country_code":"LA","latitude":"19.44940000","longitude":"103.19170000"},{"id":"65860","name":"Champasak","state_id":996,"state_code":"CH","country_id":119,"country_code":"LA","latitude":"14.89204000","longitude":"105.87787000"},{"id":"65868","name":"Muang Bachiangchaleunsook","state_id":996,"state_code":"CH","country_id":119,"country_code":"LA","latitude":"15.24426000","longitude":"105.96716000"},{"id":"65869","name":"Muang Champasak","state_id":996,"state_code":"CH","country_id":119,"country_code":"LA","latitude":"14.85704000","longitude":"105.75334000"},{"id":"65874","name":"Muang Kh\u00f4ng","state_id":996,"state_code":"CH","country_id":119,"country_code":"LA","latitude":"14.14696000","longitude":"105.95938000"},{"id":"65882","name":"Muang Mounlapam\u00f4k","state_id":996,"state_code":"CH","country_id":119,"country_code":"LA","latitude":"14.28922000","longitude":"105.56832000"},{"id":"65887","name":"Muang Pakx\u00e9","state_id":996,"state_code":"CH","country_id":119,"country_code":"LA","latitude":"15.13139000","longitude":"105.81612000"},{"id":"65886","name":"Muang Pakxong","state_id":996,"state_code":"CH","country_id":119,"country_code":"LA","latitude":"15.09810000","longitude":"106.43398000"},{"id":"65888","name":"Muang Pathoumphon","state_id":996,"state_code":"CH","country_id":119,"country_code":"LA","latitude":"14.68453000","longitude":"106.06357000"},{"id":"65894","name":"Muang Ph\u00f4nthong","state_id":996,"state_code":"CH","country_id":119,"country_code":"LA","latitude":"15.10669000","longitude":"105.64890000"},{"id":"65901","name":"Muang Soukhouma","state_id":996,"state_code":"CH","country_id":119,"country_code":"LA","latitude":"14.62560000","longitude":"105.67520000"},{"id":"65913","name":"Muang Xanas\u00f4mboun","state_id":996,"state_code":"CH","country_id":119,"country_code":"LA","latitude":"15.34107000","longitude":"105.73703000"},{"id":"65917","name":"Pakse","state_id":996,"state_code":"CH","country_id":119,"country_code":"LA","latitude":"15.12022000","longitude":"105.79898000"},{"id":"65919","name":"Pakxong","state_id":996,"state_code":"CH","country_id":119,"country_code":"LA","latitude":"15.18154000","longitude":"106.23038000"}]