[{"id":"89914","name":"Albesti","state_id":4722,"state_code":"AG","country_id":181,"country_code":"RO","latitude":"45.30955000","longitude":"25.00780000"},{"id":"89919","name":"Albestii Pam\u00e2nteni","state_id":4722,"state_code":"AG","country_id":181,"country_code":"RO","latitude":"45.21667000","longitude":"24.66667000"},{"id":"89921","name":"Albe\u0219tii Ungureni","state_id":4722,"state_code":"AG","country_id":181,"country_code":"RO","latitude":"45.22529000","longitude":"24.67254000"},{"id":"89923","name":"Albota","state_id":4722,"state_code":"AG","country_id":181,"country_code":"RO","latitude":"44.78333000","longitude":"24.85000000"},{"id":"89924","name":"Albota de Jos","state_id":4722,"state_code":"AG","country_id":181,"country_code":"RO","latitude":"44.76667000","longitude":"24.83333000"},{"id":"89964","name":"Aninoasa","state_id":4722,"state_code":"AG","country_id":181,"country_code":"RO","latitude":"45.18333000","longitude":"24.93333000"},{"id":"89985","name":"Arefu","state_id":4722,"state_code":"AG","country_id":181,"country_code":"RO","latitude":"45.33333000","longitude":"24.60000000"},{"id":"89988","name":"Arge\u0219elu","state_id":4722,"state_code":"AG","country_id":181,"country_code":"RO","latitude":"44.92740000","longitude":"24.87115000"},{"id":"97082","name":"Stefan cel Mare","state_id":4722,"state_code":"AG","country_id":181,"country_code":"RO","latitude":"44.49283000","longitude":"25.24418000"},{"id":"97084","name":"Stefanesti","state_id":4722,"state_code":"AG","country_id":181,"country_code":"RO","latitude":"44.86506000","longitude":"24.94961000"},{"id":"97091","name":"Suici","state_id":4722,"state_code":"AG","country_id":181,"country_code":"RO","latitude":"45.25000000","longitude":"24.53333000"},{"id":"90073","name":"Bascov","state_id":4722,"state_code":"AG","country_id":181,"country_code":"RO","latitude":"44.90000000","longitude":"24.81667000"},{"id":"90449","name":"B\u00e2rla","state_id":4722,"state_code":"AG","country_id":181,"country_code":"RO","latitude":"44.42606000","longitude":"24.77743000"},{"id":"90451","name":"B\u00e2rlogu","state_id":4722,"state_code":"AG","country_id":181,"country_code":"RO","latitude":"44.62658000","longitude":"25.08066000"},{"id":"90467","name":"Babana","state_id":4722,"state_code":"AG","country_id":181,"country_code":"RO","latitude":"44.90000000","longitude":"24.70000000"},{"id":"90483","name":"Bade\u0219ti","state_id":4722,"state_code":"AG","country_id":181,"country_code":"RO","latitude":"45.17157000","longitude":"24.86064000"},{"id":"90487","name":"Baiculesti","state_id":4722,"state_code":"AG","country_id":181,"country_code":"RO","latitude":"45.06667000","longitude":"24.70000000"},{"id":"90501","name":"Baje\u0219ti","state_id":4722,"state_code":"AG","country_id":181,"country_code":"RO","latitude":"45.02615000","longitude":"24.94006000"},{"id":"90512","name":"Balilesti","state_id":4722,"state_code":"AG","country_id":181,"country_code":"RO","latitude":"45.06667000","longitude":"24.93333000"},{"id":"90548","name":"Bara\u0219ti","state_id":4722,"state_code":"AG","country_id":181,"country_code":"RO","latitude":"45.25369000","longitude":"24.59651000"},{"id":"90086","name":"Beleti","state_id":4722,"state_code":"AG","country_id":181,"country_code":"RO","latitude":"44.90000000","longitude":"25.08333000"},{"id":"90102","name":"Berevoesti","state_id":4722,"state_code":"AG","country_id":181,"country_code":"RO","latitude":"45.23333000","longitude":"24.91667000"},{"id":"90257","name":"Botesti","state_id":4722,"state_code":"AG","country_id":181,"country_code":"RO","latitude":"45.01667000","longitude":"25.13333000"},{"id":"90185","name":"Bogati","state_id":4722,"state_code":"AG","country_id":181,"country_code":"RO","latitude":"44.86667000","longitude":"25.13333000"},{"id":"90242","name":"Boteni","state_id":4722,"state_code":"AG","country_id":181,"country_code":"RO","latitude":"45.18333000","longitude":"25.11667000"},{"id":"90262","name":"Bradu","state_id":4722,"state_code":"AG","country_id":181,"country_code":"RO","latitude":"44.78333000","longitude":"24.90000000"},{"id":"90326","name":"Bradulet","state_id":4722,"state_code":"AG","country_id":181,"country_code":"RO","latitude":"45.28333000","longitude":"24.76667000"},{"id":"90367","name":"Buc\u0219ene\u0219ti","state_id":4722,"state_code":"AG","country_id":181,"country_code":"RO","latitude":"45.30096000","longitude":"24.65841000"},{"id":"90368","name":"Buc\u0219ene\u0219ti-Lota\u0219i","state_id":4722,"state_code":"AG","country_id":181,"country_code":"RO","latitude":"45.01307000","longitude":"24.96845000"},{"id":"90378","name":"Budeasa Mica","state_id":4722,"state_code":"AG","country_id":181,"country_code":"RO","latitude":"44.95000000","longitude":"24.85000000"},{"id":"90392","name":"Bughea de Jos","state_id":4722,"state_code":"AG","country_id":181,"country_code":"RO","latitude":"45.26667000","longitude":"25.00000000"},{"id":"90394","name":"Bughea de Sus","state_id":4722,"state_code":"AG","country_id":181,"country_code":"RO","latitude":"45.29812000","longitude":"25.03284000"},{"id":"90434","name":"Buzoesti","state_id":4722,"state_code":"AG","country_id":181,"country_code":"RO","latitude":"44.58333000","longitude":"24.91667000"},{"id":"90571","name":"Capu Piscului","state_id":4722,"state_code":"AG","country_id":181,"country_code":"RO","latitude":"45.17999000","longitude":"24.97679000"},{"id":"93800","name":"C\u00e2mpulung","state_id":4722,"state_code":"AG","country_id":181,"country_code":"RO","latitude":"45.26667000","longitude":"25.05000000"},{"id":"93832","name":"Caldararu","state_id":4722,"state_code":"AG","country_id":181,"country_code":"RO","latitude":"44.45000000","longitude":"24.95000000"},{"id":"93838","name":"Calinesti","state_id":4722,"state_code":"AG","country_id":181,"country_code":"RO","latitude":"44.81667000","longitude":"25.05000000"},{"id":"93864","name":"Capa\u021b\u00e2nenii Pam\u00e2nteni","state_id":4722,"state_code":"AG","country_id":181,"country_code":"RO","latitude":"45.31667000","longitude":"24.65000000"},{"id":"93876","name":"Cateasca","state_id":4722,"state_code":"AG","country_id":181,"country_code":"RO","latitude":"44.76667000","longitude":"25.08333000"},{"id":"90617","name":"Ceparii Pam\u00e2nteni","state_id":4722,"state_code":"AG","country_id":181,"country_code":"RO","latitude":"45.21667000","longitude":"24.56667000"},{"id":"90650","name":"Cetateni","state_id":4722,"state_code":"AG","country_id":181,"country_code":"RO","latitude":"45.20000000","longitude":"25.18333000"},{"id":"90699","name":"Cicane\u0219ti","state_id":4722,"state_code":"AG","country_id":181,"country_code":"RO","latitude":"45.24601000","longitude":"24.60526000"},{"id":"90718","name":"Ciofr\u00e2ngeni","state_id":4722,"state_code":"AG","country_id":181,"country_code":"RO","latitude":"45.08333000","longitude":"24.53333000"},{"id":"90721","name":"Ciomagesti","state_id":4722,"state_code":"AG","country_id":181,"country_code":"RO","latitude":"44.83333000","longitude":"24.45000000"},{"id":"90748","name":"Ciulni\u021ba","state_id":4722,"state_code":"AG","country_id":181,"country_code":"RO","latitude":"44.78769000","longitude":"25.15388000"},{"id":"93691","name":"Cosesti","state_id":4722,"state_code":"AG","country_id":181,"country_code":"RO","latitude":"45.06667000","longitude":"24.86667000"},{"id":"90784","name":"Cocu","state_id":4722,"state_code":"AG","country_id":181,"country_code":"RO","latitude":"44.86667000","longitude":"24.65000000"},{"id":"90796","name":"Coliba\u0219i","state_id":4722,"state_code":"AG","country_id":181,"country_code":"RO","latitude":"44.93544000","longitude":"24.90905000"},{"id":"90844","name":"Comuna Albe\u0219tii de Arge\u0219","state_id":4722,"state_code":"AG","country_id":181,"country_code":"RO","latitude":"45.21667000","longitude":"24.66667000"},{"id":"90845","name":"Comuna Albe\u0219tii de Muscel","state_id":4722,"state_code":"AG","country_id":181,"country_code":"RO","latitude":"45.31667000","longitude":"25.00000000"},{"id":"90846","name":"Comuna Albota","state_id":4722,"state_code":"AG","country_id":181,"country_code":"RO","latitude":"44.78287000","longitude":"24.81838000"},{"id":"90872","name":"Comuna Aninoasa","state_id":4722,"state_code":"AG","country_id":181,"country_code":"RO","latitude":"45.20222000","longitude":"24.91206000"},{"id":"90888","name":"Comuna Arefu","state_id":4722,"state_code":"AG","country_id":181,"country_code":"RO","latitude":"45.33142000","longitude":"24.62944000"},{"id":"93550","name":"Comuna Stefan cel Mare","state_id":4722,"state_code":"AG","country_id":181,"country_code":"RO","latitude":"44.49197000","longitude":"25.24710000"},{"id":"93559","name":"Comuna Suici","state_id":4722,"state_code":"AG","country_id":181,"country_code":"RO","latitude":"45.24454000","longitude":"24.53621000"},{"id":"90942","name":"Comuna Bascov","state_id":4722,"state_code":"AG","country_id":181,"country_code":"RO","latitude":"44.89295000","longitude":"24.78532000"},{"id":"91188","name":"Comuna B\u00e2rla","state_id":4722,"state_code":"AG","country_id":181,"country_code":"RO","latitude":"44.42636000","longitude":"24.77949000"},{"id":"91199","name":"Comuna Babana","state_id":4722,"state_code":"AG","country_id":181,"country_code":"RO","latitude":"44.87539000","longitude":"24.71918000"},{"id":"91206","name":"Comuna Baiculesti","state_id":4722,"state_code":"AG","country_id":181,"country_code":"RO","latitude":"45.06017000","longitude":"24.67331000"},{"id":"91217","name":"Comuna Balilesti","state_id":4722,"state_code":"AG","country_id":181,"country_code":"RO","latitude":"45.07981000","longitude":"24.93943000"},{"id":"90951","name":"Comuna Beleti-Negresti","state_id":4722,"state_code":"AG","country_id":181,"country_code":"RO","latitude":"44.94651000","longitude":"25.08603000"},{"id":"90963","name":"Comuna Berevoesti","state_id":4722,"state_code":"AG","country_id":181,"country_code":"RO","latitude":"45.25327000","longitude":"24.94292000"},{"id":"91071","name":"Comuna Botesti","state_id":4722,"state_code":"AG","country_id":181,"country_code":"RO","latitude":"45.00704000","longitude":"25.14723000"},{"id":"91020","name":"Comuna Bogati","state_id":4722,"state_code":"AG","country_id":181,"country_code":"RO","latitude":"44.87344000","longitude":"25.15045000"},{"id":"91059","name":"Comuna Boteni","state_id":4722,"state_code":"AG","country_id":181,"country_code":"RO","latitude":"45.17937000","longitude":"25.13073000"},{"id":"91073","name":"Comuna Bradu","state_id":4722,"state_code":"AG","country_id":181,"country_code":"RO","latitude":"44.78333000","longitude":"24.90000000"},{"id":"91115","name":"Comuna Bradulet","state_id":4722,"state_code":"AG","country_id":181,"country_code":"RO","latitude":"45.27502000","longitude":"24.77372000"},{"id":"91144","name":"Comuna Budeasa","state_id":4722,"state_code":"AG","country_id":181,"country_code":"RO","latitude":"44.95042000","longitude":"24.80254000"},{"id":"91152","name":"Comuna Bughea de Jos","state_id":4722,"state_code":"AG","country_id":181,"country_code":"RO","latitude":"45.27404000","longitude":"25.00324000"},{"id":"91153","name":"Comuna Bughea de Sus","state_id":4722,"state_code":"AG","country_id":181,"country_code":"RO","latitude":"45.29812000","longitude":"25.03284000"},{"id":"91180","name":"Comuna Buzoesti","state_id":4722,"state_code":"AG","country_id":181,"country_code":"RO","latitude":"44.60205000","longitude":"24.91856000"},{"id":"91570","name":"Comuna Caldararu","state_id":4722,"state_code":"AG","country_id":181,"country_code":"RO","latitude":"44.45395000","longitude":"24.94263000"},{"id":"91572","name":"Comuna Calinesti","state_id":4722,"state_code":"AG","country_id":181,"country_code":"RO","latitude":"44.85650000","longitude":"25.01968000"},{"id":"91592","name":"Comuna Cateasca","state_id":4722,"state_code":"AG","country_id":181,"country_code":"RO","latitude":"44.77056000","longitude":"25.03633000"},{"id":"91283","name":"Comuna Cepari","state_id":4722,"state_code":"AG","country_id":181,"country_code":"RO","latitude":"45.20564000","longitude":"24.53064000"},{"id":"91306","name":"Comuna Cetateni","state_id":4722,"state_code":"AG","country_id":181,"country_code":"RO","latitude":"45.19234000","longitude":"25.20789000"},{"id":"91335","name":"Comuna Cicane\u0219ti","state_id":4722,"state_code":"AG","country_id":181,"country_code":"RO","latitude":"45.24577000","longitude":"24.60629000"},{"id":"91348","name":"Comuna Ciofr\u00e2ngeni","state_id":4722,"state_code":"AG","country_id":181,"country_code":"RO","latitude":"45.10277000","longitude":"24.53704000"},{"id":"91352","name":"Comuna Ciomagesti","state_id":4722,"state_code":"AG","country_id":181,"country_code":"RO","latitude":"44.85656000","longitude":"24.47229000"},{"id":"91475","name":"Comuna Cosesti","state_id":4722,"state_code":"AG","country_id":181,"country_code":"RO","latitude":"45.06431000","longitude":"24.87202000"},{"id":"91391","name":"Comuna Cocu","state_id":4722,"state_code":"AG","country_id":181,"country_code":"RO","latitude":"44.87429000","longitude":"24.65112000"},{"id":"91424","name":"Comuna Corbeni","state_id":4722,"state_code":"AG","country_id":181,"country_code":"RO","latitude":"45.29597000","longitude":"24.66207000"},{"id":"91425","name":"Comuna Corbi","state_id":4722,"state_code":"AG","country_id":181,"country_code":"RO","latitude":"45.25572000","longitude":"24.81611000"},{"id":"91465","name":"Comuna Cotmeana","state_id":4722,"state_code":"AG","country_id":181,"country_code":"RO","latitude":"45.00518000","longitude":"24.62021000"},{"id":"91518","name":"Comuna Cuca","state_id":4722,"state_code":"AG","country_id":181,"country_code":"RO","latitude":"44.95654000","longitude":"24.50636000"},{"id":"91606","name":"Comuna Davidesti","state_id":4722,"state_code":"AG","country_id":181,"country_code":"RO","latitude":"45.00694000","longitude":"25.03599000"},{"id":"91726","name":"Comuna D\u00e2mbovicioara","state_id":4722,"state_code":"AG","country_id":181,"country_code":"RO","latitude":"45.43452000","longitude":"25.22737000"},{"id":"91743","name":"Comuna Darmanesti","state_id":4722,"state_code":"AG","country_id":181,"country_code":"RO","latitude":"45.00656000","longitude":"24.90224000"},{"id":"91637","name":"Comuna Dobresti","state_id":4722,"state_code":"AG","country_id":181,"country_code":"RO","latitude":"44.94992000","longitude":"25.11907000"},{"id":"91659","name":"Comuna Domnesti","state_id":4722,"state_code":"AG","country_id":181,"country_code":"RO","latitude":"45.20562000","longitude":"24.83945000"},{"id":"91676","name":"Comuna Dragoslavele","state_id":4722,"state_code":"AG","country_id":181,"country_code":"RO","latitude":"45.33451000","longitude":"25.17010000"},{"id":"91686","name":"Comuna Draganu","state_id":4722,"state_code":"AG","country_id":181,"country_code":"RO","latitude":"44.93761000","longitude":"24.70301000"},{"id":"93580","name":"Comuna \u021ai\u021be\u0219ti","state_id":4722,"state_code":"AG","country_id":181,"country_code":"RO","latitude":"45.01146000","longitude":"24.97898000"},{"id":"91888","name":"Comuna Godeni","state_id":4722,"state_code":"AG","country_id":181,"country_code":"RO","latitude":"45.22311000","longitude":"24.97842000"},{"id":"92032","name":"Comuna H\u00e2rsesti","state_id":4722,"state_code":"AG","country_id":181,"country_code":"RO","latitude":"44.51091000","longitude":"24.78294000"},{"id":"92033","name":"Comuna H\u00e2rtiesti","state_id":4722,"state_code":"AG","country_id":181,"country_code":"RO","latitude":"45.12629000","longitude":"25.11343000"},{"id":"92109","name":"Comuna Izvoru","state_id":4722,"state_code":"AG","country_id":181,"country_code":"RO","latitude":"44.49414000","longitude":"25.06470000"},{"id":"92152","name":"Comuna Leordeni","state_id":4722,"state_code":"AG","country_id":181,"country_code":"RO","latitude":"44.79117000","longitude":"25.16299000"},{"id":"92154","name":"Comuna Leresti","state_id":4722,"state_code":"AG","country_id":181,"country_code":"RO","latitude":"45.32789000","longitude":"25.06951000"},{"id":"92203","name":"Comuna Lunca Corbului","state_id":4722,"state_code":"AG","country_id":181,"country_code":"RO","latitude":"44.68361000","longitude":"24.76056000"},{"id":"92399","name":"Comuna Malureni","state_id":4722,"state_code":"AG","country_id":181,"country_code":"RO","latitude":"45.04780000","longitude":"24.77875000"},{"id":"92416","name":"Comuna Maracineni","state_id":4722,"state_code":"AG","country_id":181,"country_code":"RO","latitude":"44.90857000","longitude":"24.87484000"},{"id":"92261","name":"Comuna Meri\u0219ani","state_id":4722,"state_code":"AG","country_id":181,"country_code":"RO","latitude":"44.96674000","longitude":"24.74482000"},{"id":"92264","name":"Comuna Micesti","state_id":4722,"state_code":"AG","country_id":181,"country_code":"RO","latitude":"44.97367000","longitude":"24.85577000"},{"id":"92281","name":"Comuna Mihaesti","state_id":4722,"state_code":"AG","country_id":181,"country_code":"RO","latitude":"45.11563000","longitude":"25.01938000"},{"id":"92294","name":"Comuna Mioarele","state_id":4722,"state_code":"AG","country_id":181,"country_code":"RO","latitude":"45.23396000","longitude":"25.10045000"},{"id":"92302","name":"Comuna Mirosi","state_id":4722,"state_code":"AG","country_id":181,"country_code":"RO","latitude":"44.40316000","longitude":"24.95170000"},{"id":"92349","name":"Comuna Mosoaia","state_id":4722,"state_code":"AG","country_id":181,"country_code":"RO","latitude":"44.83013000","longitude":"24.79957000"},{"id":"92335","name":"Comuna Morare\u0219ti","state_id":4722,"state_code":"AG","country_id":181,"country_code":"RO","latitude":"45.00760000","longitude":"24.56079000"},{"id":"92345","name":"Comuna Mozaceni","state_id":4722,"state_code":"AG","country_id":181,"country_code":"RO","latitude":"44.56366000","longitude":"25.17492000"},{"id":"92365","name":"Comuna Mu\u0219ate\u0219ti","state_id":4722,"state_code":"AG","country_id":181,"country_code":"RO","latitude":"45.21667000","longitude":"24.78333000"},{"id":"92430","name":"Comuna Negrasi","state_id":4722,"state_code":"AG","country_id":181,"country_code":"RO","latitude":"44.61441000","longitude":"25.12404000"},{"id":"92456","name":"Comuna Nucsoara","state_id":4722,"state_code":"AG","country_id":181,"country_code":"RO","latitude":"45.33798000","longitude":"24.78943000"},{"id":"92468","name":"Comuna Oarja","state_id":4722,"state_code":"AG","country_id":181,"country_code":"RO","latitude":"44.75730000","longitude":"24.96935000"},{"id":"92582","name":"Comuna Pietrosani","state_id":4722,"state_code":"AG","country_id":181,"country_code":"RO","latitude":"45.15375000","longitude":"24.84439000"},{"id":"92628","name":"Comuna Poiana Lacului","state_id":4722,"state_code":"AG","country_id":181,"country_code":"RO","latitude":"44.81199000","longitude":"24.71296000"},{"id":"92637","name":"Comuna Poienarii de Arges","state_id":4722,"state_code":"AG","country_id":181,"country_code":"RO","latitude":"45.06667000","longitude":"24.53333000"},{"id":"92638","name":"Comuna Poienarii de Muscel","state_id":4722,"state_code":"AG","country_id":181,"country_code":"RO","latitude":"45.21667000","longitude":"25.05000000"},{"id":"92652","name":"Comuna Popesti","state_id":4722,"state_code":"AG","country_id":181,"country_code":"RO","latitude":"44.44521000","longitude":"25.09114000"},{"id":"92673","name":"Comuna Priboieni","state_id":4722,"state_code":"AG","country_id":181,"country_code":"RO","latitude":"44.87728000","longitude":"25.08680000"},{"id":"92819","name":"Comuna R\u00e2ca","state_id":4722,"state_code":"AG","country_id":181,"country_code":"RO","latitude":"44.44216000","longitude":"25.03671000"},{"id":"92851","name":"Comuna Ratesti","state_id":4722,"state_code":"AG","country_id":181,"country_code":"RO","latitude":"44.71690000","longitude":"25.15858000"},{"id":"92755","name":"Comuna Recea","state_id":4722,"state_code":"AG","country_id":181,"country_code":"RO","latitude":"44.54264000","longitude":"25.02738000"},{"id":"92776","name":"Comuna Rociu","state_id":4722,"state_code":"AG","country_id":181,"country_code":"RO","latitude":"44.66838000","longitude":"25.02014000"},{"id":"92806","name":"Comuna Rucar","state_id":4722,"state_code":"AG","country_id":181,"country_code":"RO","latitude":"45.41607000","longitude":"25.17338000"},{"id":"93100","name":"Comuna Salatrucu","state_id":4722,"state_code":"AG","country_id":181,"country_code":"RO","latitude":"45.29098000","longitude":"24.52523000"},{"id":"93104","name":"Comuna Sapata","state_id":4722,"state_code":"AG","country_id":181,"country_code":"RO","latitude":"44.72789000","longitude":"24.75280000"},{"id":"92890","name":"Comuna Schitu-Golesti","state_id":4722,"state_code":"AG","country_id":181,"country_code":"RO","latitude":"45.18630000","longitude":"25.00576000"},{"id":"92954","name":"Comuna Slobozia","state_id":4722,"state_code":"AG","country_id":181,"country_code":"RO","latitude":"44.52197000","longitude":"25.24092000"},{"id":"93012","name":"Comuna St\u00e2lpeni","state_id":4722,"state_code":"AG","country_id":181,"country_code":"RO","latitude":"45.05665000","longitude":"24.99307000"},{"id":"92992","name":"Comuna Stoenesti","state_id":4722,"state_code":"AG","country_id":181,"country_code":"RO","latitude":"45.26432000","longitude":"25.17674000"},{"id":"92999","name":"Comuna Stolnici","state_id":4722,"state_code":"AG","country_id":181,"country_code":"RO","latitude":"44.58075000","longitude":"24.77335000"},{"id":"93041","name":"Comuna Suseni","state_id":4722,"state_code":"AG","country_id":181,"country_code":"RO","latitude":"44.70861000","longitude":"24.96437000"},{"id":"93133","name":"Comuna Teiu","state_id":4722,"state_code":"AG","country_id":181,"country_code":"RO","latitude":"44.64225000","longitude":"25.14110000"},{"id":"93151","name":"Comuna Tigveni","state_id":4722,"state_code":"AG","country_id":181,"country_code":"RO","latitude":"45.15588000","longitude":"24.55094000"},{"id":"93252","name":"Comuna Uda","state_id":4722,"state_code":"AG","country_id":181,"country_code":"RO","latitude":"44.87591000","longitude":"24.58582000"},{"id":"93267","name":"Comuna Ungheni","state_id":4722,"state_code":"AG","country_id":181,"country_code":"RO","latitude":"44.51166000","longitude":"24.95186000"},{"id":"93303","name":"Comuna Valea Danului","state_id":4722,"state_code":"AG","country_id":181,"country_code":"RO","latitude":"45.18962000","longitude":"24.61959000"},{"id":"93306","name":"Comuna Valea Iasului","state_id":4722,"state_code":"AG","country_id":181,"country_code":"RO","latitude":"45.19677000","longitude":"24.70094000"},{"id":"93315","name":"Comuna Valea Mare-Pravat","state_id":4722,"state_code":"AG","country_id":181,"country_code":"RO","latitude":"45.28900000","longitude":"25.10567000"},{"id":"93338","name":"Comuna Vedea","state_id":4722,"state_code":"AG","country_id":181,"country_code":"RO","latitude":"44.77735000","longitude":"24.64677000"},{"id":"93391","name":"Comuna Vladesti","state_id":4722,"state_code":"AG","country_id":181,"country_code":"RO","latitude":"45.14344000","longitude":"24.93634000"},{"id":"93418","name":"Comuna Vulturesti","state_id":4722,"state_code":"AG","country_id":181,"country_code":"RO","latitude":"45.05999000","longitude":"25.07370000"},{"id":"93598","name":"Con\u021be\u0219ti","state_id":4722,"state_code":"AG","country_id":181,"country_code":"RO","latitude":"44.98494000","longitude":"25.01032000"},{"id":"93613","name":"Corbeni","state_id":4722,"state_code":"AG","country_id":181,"country_code":"RO","latitude":"45.30000000","longitude":"24.65000000"},{"id":"93614","name":"Corbi","state_id":4722,"state_code":"AG","country_id":181,"country_code":"RO","latitude":"45.28333000","longitude":"24.80000000"},{"id":"93644","name":"Corna\u021bel","state_id":4722,"state_code":"AG","country_id":181,"country_code":"RO","latitude":"44.57972000","longitude":"24.95487000"},{"id":"93661","name":"Costesti","state_id":4722,"state_code":"AG","country_id":181,"country_code":"RO","latitude":"44.66667000","longitude":"24.88333000"},{"id":"93673","name":"Cotene\u0219ti","state_id":4722,"state_code":"AG","country_id":181,"country_code":"RO","latitude":"45.23462000","longitude":"25.18617000"},{"id":"93675","name":"Cotmeana","state_id":4722,"state_code":"AG","country_id":181,"country_code":"RO","latitude":"44.96667000","longitude":"24.61667000"},{"id":"93757","name":"Cuca","state_id":4722,"state_code":"AG","country_id":181,"country_code":"RO","latitude":"44.95000000","longitude":"24.51667000"},{"id":"93774","name":"Curtea de Arges","state_id":4722,"state_code":"AG","country_id":181,"country_code":"RO","latitude":"45.13422000","longitude":"24.67409000"},{"id":"93898","name":"Davidesti","state_id":4722,"state_code":"AG","country_id":181,"country_code":"RO","latitude":"45.01667000","longitude":"25.03333000"},{"id":"94105","name":"D\u00e2mbovicioara","state_id":4722,"state_code":"AG","country_id":181,"country_code":"RO","latitude":"45.45000000","longitude":"25.23333000"},{"id":"94133","name":"Darmanesti","state_id":4722,"state_code":"AG","country_id":181,"country_code":"RO","latitude":"45.01667000","longitude":"24.90000000"},{"id":"93955","name":"Dobresti","state_id":4722,"state_code":"AG","country_id":181,"country_code":"RO","latitude":"44.96667000","longitude":"25.13333000"},{"id":"93968","name":"Dobrotu","state_id":4722,"state_code":"AG","country_id":181,"country_code":"RO","latitude":"45.20633000","longitude":"24.65859000"},{"id":"93989","name":"Domnesti","state_id":4722,"state_code":"AG","country_id":181,"country_code":"RO","latitude":"45.20000000","longitude":"24.83333000"},{"id":"94021","name":"Dragoslavele","state_id":4722,"state_code":"AG","country_id":181,"country_code":"RO","latitude":"45.34801000","longitude":"25.16925000"},{"id":"94036","name":"Draganu-Olteni","state_id":4722,"state_code":"AG","country_id":181,"country_code":"RO","latitude":"44.93333000","longitude":"24.71667000"},{"id":"94039","name":"Draghici","state_id":4722,"state_code":"AG","country_id":181,"country_code":"RO","latitude":"45.12865000","longitude":"25.04508000"},{"id":"97118","name":"\u0218erbane\u0219ti","state_id":4722,"state_code":"AG","country_id":181,"country_code":"RO","latitude":"44.68142000","longitude":"24.99236000"},{"id":"97117","name":"\u0218erboeni","state_id":4722,"state_code":"AG","country_id":181,"country_code":"RO","latitude":"44.63818000","longitude":"24.89355000"},{"id":"94254","name":"Fagetu","state_id":4722,"state_code":"AG","country_id":181,"country_code":"RO","latitude":"44.90616000","longitude":"24.91159000"},{"id":"94508","name":"Gala\u0219e\u0219ti","state_id":4722,"state_code":"AG","country_id":181,"country_code":"RO","latitude":"44.95593000","longitude":"24.78602000"},{"id":"94286","name":"Geamana","state_id":4722,"state_code":"AG","country_id":181,"country_code":"RO","latitude":"44.82005000","longitude":"24.89109000"},{"id":"94368","name":"Godeni","state_id":4722,"state_code":"AG","country_id":181,"country_code":"RO","latitude":"45.23333000","longitude":"24.98333000"},{"id":"94378","name":"Gole\u0219ti","state_id":4722,"state_code":"AG","country_id":181,"country_code":"RO","latitude":"44.83970000","longitude":"24.96530000"},{"id":"94384","name":"Gorganu","state_id":4722,"state_code":"AG","country_id":181,"country_code":"RO","latitude":"44.84241000","longitude":"25.03838000"},{"id":"94589","name":"H\u00e2rsesti","state_id":4722,"state_code":"AG","country_id":181,"country_code":"RO","latitude":"44.53333000","longitude":"24.78333000"},{"id":"94590","name":"H\u00e2rtiesti","state_id":4722,"state_code":"AG","country_id":181,"country_code":"RO","latitude":"45.11667000","longitude":"25.10000000"},{"id":"94575","name":"Humele","state_id":4722,"state_code":"AG","country_id":181,"country_code":"RO","latitude":"44.52612000","longitude":"24.97714000"},{"id":"94715","name":"Izvoru","state_id":4722,"state_code":"AG","country_id":181,"country_code":"RO","latitude":"44.49414000","longitude":"25.06470000"},{"id":"94720","name":"Izvoru de Sus","state_id":4722,"state_code":"AG","country_id":181,"country_code":"RO","latitude":"44.81667000","longitude":"24.65000000"},{"id":"94750","name":"Jugur","state_id":4722,"state_code":"AG","country_id":181,"country_code":"RO","latitude":"45.19255000","longitude":"25.08493000"},{"id":"94754","name":"Jup\u00e2ne\u0219ti","state_id":4722,"state_code":"AG","country_id":181,"country_code":"RO","latitude":"45.06667000","longitude":"24.85000000"},{"id":"94902","name":"Lazare\u0219ti","state_id":4722,"state_code":"AG","country_id":181,"country_code":"RO","latitude":"45.15659000","longitude":"24.99540000"},{"id":"94771","name":"Leice\u0219ti","state_id":4722,"state_code":"AG","country_id":181,"country_code":"RO","latitude":"45.09586000","longitude":"24.86108000"},{"id":"94779","name":"Leordeni","state_id":4722,"state_code":"AG","country_id":181,"country_code":"RO","latitude":"44.78333000","longitude":"25.11667000"},{"id":"94781","name":"Leresti","state_id":4722,"state_code":"AG","country_id":181,"country_code":"RO","latitude":"45.33333000","longitude":"25.06667000"},{"id":"94818","name":"Livezeni","state_id":4722,"state_code":"AG","country_id":181,"country_code":"RO","latitude":"45.03838000","longitude":"24.97676000"},{"id":"94864","name":"Lunca Corbului","state_id":4722,"state_code":"AG","country_id":181,"country_code":"RO","latitude":"44.68391000","longitude":"24.75855000"},{"id":"94926","name":"Mare\u0219","state_id":4722,"state_code":"AG","country_id":181,"country_code":"RO","latitude":"44.77824000","longitude":"24.79005000"},{"id":"95224","name":"M\u00e2rtesti","state_id":4722,"state_code":"AG","country_id":181,"country_code":"RO","latitude":"44.71667000","longitude":"24.75000000"},{"id":"95295","name":"Ma\u021bau","state_id":4722,"state_code":"AG","country_id":181,"country_code":"RO","latitude":"45.23565000","longitude":"25.08286000"},{"id":"95254","name":"Malureni","state_id":4722,"state_code":"AG","country_id":181,"country_code":"RO","latitude":"45.10000000","longitude":"24.80000000"},{"id":"95284","name":"Maracineni","state_id":4722,"state_code":"AG","country_id":181,"country_code":"RO","latitude":"44.90000000","longitude":"24.88333000"},{"id":"94959","name":"Merisani","state_id":4722,"state_code":"AG","country_id":181,"country_code":"RO","latitude":"44.96820000","longitude":"24.74327000"},{"id":"94965","name":"Micesti","state_id":4722,"state_code":"AG","country_id":181,"country_code":"RO","latitude":"44.95000000","longitude":"24.86667000"},{"id":"94988","name":"Mihaesti","state_id":4722,"state_code":"AG","country_id":181,"country_code":"RO","latitude":"45.11667000","longitude":"25.00000000"},{"id":"95011","name":"Mioveni","state_id":4722,"state_code":"AG","country_id":181,"country_code":"RO","latitude":"44.95905000","longitude":"24.94198000"},{"id":"95024","name":"Mirosi","state_id":4722,"state_code":"AG","country_id":181,"country_code":"RO","latitude":"44.41667000","longitude":"24.93333000"},{"id":"95091","name":"Mosoaia","state_id":4722,"state_code":"AG","country_id":181,"country_code":"RO","latitude":"44.81667000","longitude":"24.76667000"},{"id":"95075","name":"Moraresti","state_id":4722,"state_code":"AG","country_id":181,"country_code":"RO","latitude":"45.01667000","longitude":"24.56667000"},{"id":"95087","name":"Mozaceni","state_id":4722,"state_code":"AG","country_id":181,"country_code":"RO","latitude":"44.56667000","longitude":"25.16667000"},{"id":"95211","name":"Mu\u0219ate\u0219ti","state_id":4722,"state_code":"AG","country_id":181,"country_code":"RO","latitude":"45.21651000","longitude":"24.77941000"},{"id":"95132","name":"Municipiul C\u00e2mpulung","state_id":4722,"state_code":"AG","country_id":181,"country_code":"RO","latitude":"45.26691000","longitude":"25.04419000"},{"id":"95129","name":"Municipiul Curtea de Arge\u0219","state_id":4722,"state_code":"AG","country_id":181,"country_code":"RO","latitude":"45.13840000","longitude":"24.67512000"},{"id":"95169","name":"Municipiul Pitesti","state_id":4722,"state_code":"AG","country_id":181,"country_code":"RO","latitude":"44.85782000","longitude":"24.87133000"},{"id":"95313","name":"Negrasi","state_id":4722,"state_code":"AG","country_id":181,"country_code":"RO","latitude":"44.60000000","longitude":"25.11667000"},{"id":"95362","name":"Nucsoara","state_id":4722,"state_code":"AG","country_id":181,"country_code":"RO","latitude":"45.33333000","longitude":"24.78333000"},{"id":"95383","name":"Oarja","state_id":4722,"state_code":"AG","country_id":181,"country_code":"RO","latitude":"44.76053000","longitude":"24.97596000"},{"id":"95384","name":"Oarja Sat","state_id":4722,"state_code":"AG","country_id":181,"country_code":"RO","latitude":"44.76429000","longitude":"24.97141000"},{"id":"95412","name":"Oe\u0219tii Pam\u00e2nteni","state_id":4722,"state_code":"AG","country_id":181,"country_code":"RO","latitude":"45.25241000","longitude":"24.65658000"},{"id":"95652","name":"Ora\u0219 Stefanesti","state_id":4722,"state_code":"AG","country_id":181,"country_code":"RO","latitude":"44.86667000","longitude":"24.93333000"},{"id":"95638","name":"Ora\u0219 Costesti","state_id":4722,"state_code":"AG","country_id":181,"country_code":"RO","latitude":"44.66667000","longitude":"24.88333000"},{"id":"95642","name":"Ora\u0219 Mioveni","state_id":4722,"state_code":"AG","country_id":181,"country_code":"RO","latitude":"44.95897000","longitude":"24.94274000"},{"id":"95646","name":"Ora\u0219 Topoloveni","state_id":4722,"state_code":"AG","country_id":181,"country_code":"RO","latitude":"44.81667000","longitude":"25.08333000"},{"id":"96025","name":"Patuleni","state_id":4722,"state_code":"AG","country_id":181,"country_code":"RO","latitude":"44.73247000","longitude":"25.16495000"},{"id":"95749","name":"Petre\u0219ti","state_id":4722,"state_code":"AG","country_id":181,"country_code":"RO","latitude":"45.04364000","longitude":"24.88989000"},{"id":"95788","name":"Pietrosani","state_id":4722,"state_code":"AG","country_id":181,"country_code":"RO","latitude":"45.18333000","longitude":"24.85000000"},{"id":"95803","name":"Pitesti","state_id":4722,"state_code":"AG","country_id":181,"country_code":"RO","latitude":"44.85000000","longitude":"24.86667000"},{"id":"95875","name":"Poiana Lacului","state_id":4722,"state_code":"AG","country_id":181,"country_code":"RO","latitude":"44.81667000","longitude":"24.73333000"},{"id":"95886","name":"Poienari","state_id":4722,"state_code":"AG","country_id":181,"country_code":"RO","latitude":"45.21667000","longitude":"25.05000000"},{"id":"95908","name":"Popesti","state_id":4722,"state_code":"AG","country_id":181,"country_code":"RO","latitude":"44.44181000","longitude":"25.10007000"},{"id":"95948","name":"Priboieni","state_id":4722,"state_code":"AG","country_id":181,"country_code":"RO","latitude":"44.88333000","longitude":"25.08333000"},{"id":"95985","name":"Purcareni","state_id":4722,"state_code":"AG","country_id":181,"country_code":"RO","latitude":"44.96847000","longitude":"24.88736000"},{"id":"96046","name":"Racovi\u021ba","state_id":4722,"state_code":"AG","country_id":181,"country_code":"RO","latitude":"44.97081000","longitude":"24.97582000"},{"id":"96164","name":"R\u00e2ca","state_id":4722,"state_code":"AG","country_id":181,"country_code":"RO","latitude":"44.43426000","longitude":"25.04333000"},{"id":"96197","name":"Rade\u0219ti","state_id":4722,"state_code":"AG","country_id":181,"country_code":"RO","latitude":"45.07184000","longitude":"25.00207000"},{"id":"96210","name":"Ratesti","state_id":4722,"state_code":"AG","country_id":181,"country_code":"RO","latitude":"44.73333000","longitude":"25.13333000"},{"id":"96071","name":"Recea","state_id":4722,"state_code":"AG","country_id":181,"country_code":"RO","latitude":"44.53333000","longitude":"25.01667000"},{"id":"96089","name":"Retevoie\u0219ti","state_id":4722,"state_code":"AG","country_id":181,"country_code":"RO","latitude":"45.14016000","longitude":"24.83797000"},{"id":"96098","name":"Rociu","state_id":4722,"state_code":"AG","country_id":181,"country_code":"RO","latitude":"44.66667000","longitude":"25.03333000"},{"id":"96144","name":"Rucar","state_id":4722,"state_code":"AG","country_id":181,"country_code":"RO","latitude":"45.40000000","longitude":"25.16667000"},{"id":"106023","name":"Salatrucu","state_id":4722,"state_code":"AG","country_id":181,"country_code":"RO","latitude":"45.33333000","longitude":"24.51667000"},{"id":"96274","name":"Schitu-Golesti","state_id":4722,"state_code":"AG","country_id":181,"country_code":"RO","latitude":"45.20000000","longitude":"25.00000000"},{"id":"96382","name":"Slanic","state_id":4722,"state_code":"AG","country_id":181,"country_code":"RO","latitude":"45.23108000","longitude":"24.89411000"},{"id":"96369","name":"Slobozia","state_id":4722,"state_code":"AG","country_id":181,"country_code":"RO","latitude":"44.52527000","longitude":"25.24263000"},{"id":"96468","name":"St\u00e2lpeni","state_id":4722,"state_code":"AG","country_id":181,"country_code":"RO","latitude":"45.05000000","longitude":"24.96667000"},{"id":"96433","name":"Stoenesti","state_id":4722,"state_code":"AG","country_id":181,"country_code":"RO","latitude":"45.25000000","longitude":"25.16667000"},{"id":"96443","name":"Stolnici","state_id":4722,"state_code":"AG","country_id":181,"country_code":"RO","latitude":"44.56667000","longitude":"24.78333000"},{"id":"96460","name":"Str\u00e2mbeni","state_id":4722,"state_code":"AG","country_id":181,"country_code":"RO","latitude":"44.46897000","longitude":"24.97315000"},{"id":"96455","name":"Stroe\u0219ti","state_id":4722,"state_code":"AG","country_id":181,"country_code":"RO","latitude":"45.12953000","longitude":"24.79418000"},{"id":"96509","name":"Surdule\u0219ti","state_id":4722,"state_code":"AG","country_id":181,"country_code":"RO","latitude":"44.39217000","longitude":"24.95798000"},{"id":"96511","name":"Suseni","state_id":4722,"state_code":"AG","country_id":181,"country_code":"RO","latitude":"44.71667000","longitude":"24.95000000"},{"id":"106071","name":"Teiu","state_id":4722,"state_code":"AG","country_id":181,"country_code":"RO","latitude":"44.66667000","longitude":"25.10000000"},{"id":"106096","name":"Tigveni","state_id":4722,"state_code":"AG","country_id":181,"country_code":"RO","latitude":"45.13333000","longitude":"24.58333000"},{"id":"106108","name":"Titesti","state_id":4722,"state_code":"AG","country_id":181,"country_code":"RO","latitude":"45.01667000","longitude":"25.00000000"},{"id":"106133","name":"Topli\u021ba","state_id":4722,"state_code":"AG","country_id":181,"country_code":"RO","latitude":"45.09022000","longitude":"24.73236000"},{"id":"106136","name":"Topoloveni","state_id":4722,"state_code":"AG","country_id":181,"country_code":"RO","latitude":"44.81667000","longitude":"25.08333000"},{"id":"96571","name":"Tutana","state_id":4722,"state_code":"AG","country_id":181,"country_code":"RO","latitude":"45.04286000","longitude":"24.65122000"},{"id":"96635","name":"Uda","state_id":4722,"state_code":"AG","country_id":181,"country_code":"RO","latitude":"44.91667000","longitude":"24.56667000"},{"id":"96655","name":"Ungheni","state_id":4722,"state_code":"AG","country_id":181,"country_code":"RO","latitude":"44.50000000","longitude":"24.96667000"},{"id":"96713","name":"Valea Caselor","state_id":4722,"state_code":"AG","country_id":181,"country_code":"RO","latitude":"45.35000000","longitude":"25.16667000"},{"id":"96722","name":"Valea Danului","state_id":4722,"state_code":"AG","country_id":181,"country_code":"RO","latitude":"45.18333000","longitude":"24.65000000"},{"id":"96726","name":"Valea Iasului","state_id":4722,"state_code":"AG","country_id":181,"country_code":"RO","latitude":"45.18333000","longitude":"24.71667000"},{"id":"96738","name":"Valea Mare Prava\u021b","state_id":4722,"state_code":"AG","country_id":181,"country_code":"RO","latitude":"45.29171000","longitude":"25.09250000"},{"id":"96739","name":"Valea Mare-Podgoria","state_id":4722,"state_code":"AG","country_id":181,"country_code":"RO","latitude":"44.88513000","longitude":"24.90613000"},{"id":"96745","name":"Valea Popii","state_id":4722,"state_code":"AG","country_id":181,"country_code":"RO","latitude":"45.09253000","longitude":"25.02240000"},{"id":"96964","name":"Valeni-Podgoria","state_id":4722,"state_code":"AG","country_id":181,"country_code":"RO","latitude":"44.85755000","longitude":"24.98930000"},{"id":"96782","name":"Vedea","state_id":4722,"state_code":"AG","country_id":181,"country_code":"RO","latitude":"44.78333000","longitude":"24.61667000"},{"id":"96867","name":"Vlade\u0219ti","state_id":4722,"state_code":"AG","country_id":181,"country_code":"RO","latitude":"45.15000000","longitude":"24.91667000"},{"id":"96882","name":"Voine\u0219ti","state_id":4722,"state_code":"AG","country_id":181,"country_code":"RO","latitude":"45.30007000","longitude":"25.07225000"},{"id":"96899","name":"Vrane\u0219ti","state_id":4722,"state_code":"AG","country_id":181,"country_code":"RO","latitude":"44.84595000","longitude":"25.00716000"},{"id":"96912","name":"Vulture\u0219ti","state_id":4722,"state_code":"AG","country_id":181,"country_code":"RO","latitude":"45.06618000","longitude":"25.08347000"}]