[{"id":"89882","name":"Adjudeni","state_id":4731,"state_code":"NT","country_id":181,"country_code":"RO","latitude":"47.01408000","longitude":"26.94903000"},{"id":"89892","name":"Agapia","state_id":4731,"state_code":"NT","country_id":181,"country_code":"RO","latitude":"47.16667000","longitude":"26.28333000"},{"id":"97080","name":"Stefan cel Mare","state_id":4731,"state_code":"NT","country_id":181,"country_code":"RO","latitude":"46.98482000","longitude":"26.51070000"},{"id":"97102","name":"Tibucani","state_id":4731,"state_code":"NT","country_id":181,"country_code":"RO","latitude":"47.10000000","longitude":"26.53333000"},{"id":"90026","name":"Bahna","state_id":4731,"state_code":"NT","country_id":181,"country_code":"RO","latitude":"46.78333000","longitude":"26.78333000"},{"id":"90062","name":"Bartice\u0219ti","state_id":4731,"state_code":"NT","country_id":181,"country_code":"RO","latitude":"47.06324000","longitude":"26.79254000"},{"id":"90445","name":"B\u00e2ra","state_id":4731,"state_code":"NT","country_id":181,"country_code":"RO","latitude":"47.03333000","longitude":"27.05000000"},{"id":"90448","name":"B\u00e2rgauani","state_id":4731,"state_code":"NT","country_id":181,"country_code":"RO","latitude":"46.98333000","longitude":"26.63333000"},{"id":"90527","name":"Baltatesti","state_id":4731,"state_code":"NT","country_id":181,"country_code":"RO","latitude":"47.11667000","longitude":"26.30000000"},{"id":"90518","name":"Balu\u0219e\u0219ti","state_id":4731,"state_code":"NT","country_id":181,"country_code":"RO","latitude":"46.81591000","longitude":"26.99885000"},{"id":"90543","name":"Barcanesti","state_id":4731,"state_code":"NT","country_id":181,"country_code":"RO","latitude":"46.71667000","longitude":"26.58333000"},{"id":"90126","name":"Bicaz","state_id":4731,"state_code":"NT","country_id":181,"country_code":"RO","latitude":"46.91667000","longitude":"26.06667000"},{"id":"90127","name":"Bicaz-Chei","state_id":4731,"state_code":"NT","country_id":181,"country_code":"RO","latitude":"46.81667000","longitude":"25.88333000"},{"id":"90128","name":"Bicazu Ardelean","state_id":4731,"state_code":"NT","country_id":181,"country_code":"RO","latitude":"46.85000000","longitude":"25.93333000"},{"id":"90151","name":"Bistri\u021ba","state_id":4731,"state_code":"NT","country_id":181,"country_code":"RO","latitude":"46.94856000","longitude":"26.29598000"},{"id":"90170","name":"Boboie\u0219ti","state_id":4731,"state_code":"NT","country_id":181,"country_code":"RO","latitude":"47.25370000","longitude":"26.03749000"},{"id":"90180","name":"Bodesti","state_id":4731,"state_code":"NT","country_id":181,"country_code":"RO","latitude":"47.03333000","longitude":"26.41667000"},{"id":"90182","name":"Bode\u0219tii de Jos","state_id":4731,"state_code":"NT","country_id":181,"country_code":"RO","latitude":"47.02752000","longitude":"26.44483000"},{"id":"90198","name":"Boghicea","state_id":4731,"state_code":"NT","country_id":181,"country_code":"RO","latitude":"47.05414000","longitude":"27.06935000"},{"id":"90220","name":"Borca","state_id":4731,"state_code":"NT","country_id":181,"country_code":"RO","latitude":"47.18333000","longitude":"25.76667000"},{"id":"90228","name":"Borlesti","state_id":4731,"state_code":"NT","country_id":181,"country_code":"RO","latitude":"46.76667000","longitude":"26.48333000"},{"id":"90243","name":"Bote\u0219ti","state_id":4731,"state_code":"NT","country_id":181,"country_code":"RO","latitude":"47.05200000","longitude":"26.74863000"},{"id":"90252","name":"Bozieni","state_id":4731,"state_code":"NT","country_id":181,"country_code":"RO","latitude":"46.83333000","longitude":"27.15000000"},{"id":"90315","name":"Brusturi","state_id":4731,"state_code":"NT","country_id":181,"country_code":"RO","latitude":"47.28333000","longitude":"26.38333000"},{"id":"90384","name":"Bude\u0219ti","state_id":4731,"state_code":"NT","country_id":181,"country_code":"RO","latitude":"46.94084000","longitude":"26.71177000"},{"id":"90422","name":"Buruiene\u0219ti","state_id":4731,"state_code":"NT","country_id":181,"country_code":"RO","latitude":"46.99595000","longitude":"26.97732000"},{"id":"93807","name":"C\u00e2ndesti","state_id":4731,"state_code":"NT","country_id":181,"country_code":"RO","latitude":"46.71667000","longitude":"26.58333000"},{"id":"90599","name":"Ceahlau","state_id":4731,"state_code":"NT","country_id":181,"country_code":"RO","latitude":"47.05000000","longitude":"25.96667000"},{"id":"90667","name":"Chilii","state_id":4731,"state_code":"NT","country_id":181,"country_code":"RO","latitude":"46.80254000","longitude":"27.03394000"},{"id":"90670","name":"Chintinici","state_id":4731,"state_code":"NT","country_id":181,"country_code":"RO","latitude":"46.82754000","longitude":"26.49339000"},{"id":"90829","name":"Comuna Agapia","state_id":4731,"state_code":"NT","country_id":181,"country_code":"RO","latitude":"47.16196000","longitude":"26.29545000"},{"id":"90847","name":"Comuna Alexandru Cel Bun","state_id":4731,"state_code":"NT","country_id":181,"country_code":"RO","latitude":"46.93988000","longitude":"26.26849000"},{"id":"93551","name":"Comuna Stefan cel Mare","state_id":4731,"state_code":"NT","country_id":181,"country_code":"RO","latitude":"46.98599000","longitude":"26.51293000"},{"id":"93571","name":"Comuna Tibucani","state_id":4731,"state_code":"NT","country_id":181,"country_code":"RO","latitude":"47.11856000","longitude":"26.57350000"},{"id":"90915","name":"Comuna Bahna","state_id":4731,"state_code":"NT","country_id":181,"country_code":"RO","latitude":"46.77860000","longitude":"26.79742000"},{"id":"91184","name":"Comuna B\u00e2ra","state_id":4731,"state_code":"NT","country_id":181,"country_code":"RO","latitude":"47.01319000","longitude":"27.04016000"},{"id":"91187","name":"Comuna B\u00e2rg\u00e3uani","state_id":4731,"state_code":"NT","country_id":181,"country_code":"RO","latitude":"46.97877000","longitude":"26.64589000"},{"id":"91229","name":"Comuna Baltatesti","state_id":4731,"state_code":"NT","country_id":181,"country_code":"RO","latitude":"47.13076000","longitude":"26.30187000"},{"id":"90983","name":"Comuna Bicaz Chei","state_id":4731,"state_code":"NT","country_id":181,"country_code":"RO","latitude":"46.83435000","longitude":"25.87234000"},{"id":"90984","name":"Comuna Bicazu Ardelean","state_id":4731,"state_code":"NT","country_id":181,"country_code":"RO","latitude":"46.86884000","longitude":"25.92570000"},{"id":"91018","name":"Comuna Bodesti-Precista","state_id":4731,"state_code":"NT","country_id":181,"country_code":"RO","latitude":"47.03819000","longitude":"26.43790000"},{"id":"91031","name":"Comuna Boghicea","state_id":4731,"state_code":"NT","country_id":181,"country_code":"RO","latitude":"47.06025000","longitude":"27.11082000"},{"id":"91045","name":"Comuna Borca","state_id":4731,"state_code":"NT","country_id":181,"country_code":"RO","latitude":"47.19099000","longitude":"25.78140000"},{"id":"91050","name":"Comuna Borlesti","state_id":4731,"state_code":"NT","country_id":181,"country_code":"RO","latitude":"46.78934000","longitude":"26.49080000"},{"id":"91060","name":"Comuna Botesti","state_id":4731,"state_code":"NT","country_id":181,"country_code":"RO","latitude":"47.06415000","longitude":"26.75969000"},{"id":"91066","name":"Comuna Bozieni","state_id":4731,"state_code":"NT","country_id":181,"country_code":"RO","latitude":"46.84446000","longitude":"27.15282000"},{"id":"91107","name":"Comuna Brusturi-Draganesti","state_id":4731,"state_code":"NT","country_id":181,"country_code":"RO","latitude":"47.29579000","longitude":"26.35443000"},{"id":"91546","name":"Comuna C\u00e2ndesti","state_id":4731,"state_code":"NT","country_id":181,"country_code":"RO","latitude":"46.71667000","longitude":"26.58333000"},{"id":"91271","name":"Comuna Ceahlau","state_id":4731,"state_code":"NT","country_id":181,"country_code":"RO","latitude":"47.04488000","longitude":"25.95955000"},{"id":"91432","name":"Comuna Cordun","state_id":4731,"state_code":"NT","country_id":181,"country_code":"RO","latitude":"46.97290000","longitude":"26.86265000"},{"id":"91460","name":"Comuna Costisa","state_id":4731,"state_code":"NT","country_id":181,"country_code":"RO","latitude":"46.75818000","longitude":"26.64623000"},{"id":"91517","name":"Comuna Cracaoani","state_id":4731,"state_code":"NT","country_id":181,"country_code":"RO","latitude":"47.09597000","longitude":"26.25865000"},{"id":"91735","name":"Comuna Damuc","state_id":4731,"state_code":"NT","country_id":181,"country_code":"RO","latitude":"46.75621000","longitude":"25.89219000"},{"id":"91634","name":"Comuna Dobreni","state_id":4731,"state_code":"NT","country_id":181,"country_code":"RO","latitude":"46.99482000","longitude":"26.40941000"},{"id":"91648","name":"Comuna Dochia","state_id":4731,"state_code":"NT","country_id":181,"country_code":"RO","latitude":"46.91740000","longitude":"26.58485000"},{"id":"91656","name":"Comuna Doljesti","state_id":4731,"state_code":"NT","country_id":181,"country_code":"RO","latitude":"47.02806000","longitude":"26.97557000"},{"id":"91674","name":"Comuna Dragomiresti","state_id":4731,"state_code":"NT","country_id":181,"country_code":"RO","latitude":"47.02798000","longitude":"26.57536000"},{"id":"91701","name":"Comuna Draganesti","state_id":4731,"state_code":"NT","country_id":181,"country_code":"RO","latitude":"47.31204000","longitude":"26.41550000"},{"id":"91709","name":"Comuna Dulcesti","state_id":4731,"state_code":"NT","country_id":181,"country_code":"RO","latitude":"46.98346000","longitude":"26.78062000"},{"id":"91713","name":"Comuna Dumbrava Rosie","state_id":4731,"state_code":"NT","country_id":181,"country_code":"RO","latitude":"46.88535000","longitude":"26.44117000"},{"id":"91817","name":"Comuna F\u00e3urei","state_id":4731,"state_code":"NT","country_id":181,"country_code":"RO","latitude":"46.91528000","longitude":"26.71834000"},{"id":"91823","name":"Comuna Farcasa","state_id":4731,"state_code":"NT","country_id":181,"country_code":"RO","latitude":"47.15272000","longitude":"25.84880000"},{"id":"91961","name":"Comuna G\u00e2dinti","state_id":4731,"state_code":"NT","country_id":181,"country_code":"RO","latitude":"46.93708000","longitude":"27.00588000"},{"id":"91969","name":"Comuna G\u00e2rcina","state_id":4731,"state_code":"NT","country_id":181,"country_code":"RO","latitude":"46.99222000","longitude":"26.32820000"},{"id":"91848","name":"Comuna Gheraesti","state_id":4731,"state_code":"NT","country_id":181,"country_code":"RO","latitude":"47.03620000","longitude":"26.82009000"},{"id":"91859","name":"Comuna Ghindaoani","state_id":4731,"state_code":"NT","country_id":181,"country_code":"RO","latitude":"47.10983000","longitude":"26.33909000"},{"id":"91872","name":"Comuna Girov","state_id":4731,"state_code":"NT","country_id":181,"country_code":"RO","latitude":"46.94918000","longitude":"26.48244000"},{"id":"91919","name":"Comuna Grinties","state_id":4731,"state_code":"NT","country_id":181,"country_code":"RO","latitude":"47.02472000","longitude":"25.87636000"},{"id":"91932","name":"Comuna Grumazesti","state_id":4731,"state_code":"NT","country_id":181,"country_code":"RO","latitude":"47.14727000","longitude":"26.38641000"},{"id":"91992","name":"Comuna Hangu","state_id":4731,"state_code":"NT","country_id":181,"country_code":"RO","latitude":"47.03525000","longitude":"26.06400000"},{"id":"92019","name":"Comuna Horia","state_id":4731,"state_code":"NT","country_id":181,"country_code":"RO","latitude":"46.90639000","longitude":"26.93891000"},{"id":"92061","name":"Comuna Icusesti","state_id":4731,"state_code":"NT","country_id":181,"country_code":"RO","latitude":"46.79894000","longitude":"26.99076000"},{"id":"92082","name":"Comuna Ion Creanga","state_id":4731,"state_code":"NT","country_id":181,"country_code":"RO","latitude":"46.86069000","longitude":"27.00358000"},{"id":"92407","name":"Comuna Margineni","state_id":4731,"state_code":"NT","country_id":181,"country_code":"RO","latitude":"46.89237000","longitude":"26.65742000"},{"id":"92327","name":"Comuna Moldoveni","state_id":4731,"state_code":"NT","country_id":181,"country_code":"RO","latitude":"46.82131000","longitude":"26.78791000"},{"id":"92432","name":"Comuna Negresti","state_id":4731,"state_code":"NT","country_id":181,"country_code":"RO","latitude":"47.04779000","longitude":"26.35005000"},{"id":"92501","name":"Comuna Oniceni","state_id":4731,"state_code":"NT","country_id":181,"country_code":"RO","latitude":"46.78926000","longitude":"27.16336000"},{"id":"92703","name":"Comuna P\u00e2ncesti","state_id":4731,"state_code":"NT","country_id":181,"country_code":"RO","latitude":"46.90170000","longitude":"27.16879000"},{"id":"92704","name":"Comuna P\u00e2ngarati","state_id":4731,"state_code":"NT","country_id":181,"country_code":"RO","latitude":"46.93333000","longitude":"26.15000000"},{"id":"92722","name":"Comuna Pastraveni","state_id":4731,"state_code":"NT","country_id":181,"country_code":"RO","latitude":"47.15940000","longitude":"26.57615000"},{"id":"92565","name":"Comuna Petricani","state_id":4731,"state_code":"NT","country_id":181,"country_code":"RO","latitude":"47.15304000","longitude":"26.44114000"},{"id":"92574","name":"Comuna Piatra Soimului","state_id":4731,"state_code":"NT","country_id":181,"country_code":"RO","latitude":"46.82443000","longitude":"26.41848000"},{"id":"92585","name":"Comuna Pipirig","state_id":4731,"state_code":"NT","country_id":181,"country_code":"RO","latitude":"47.22800000","longitude":"26.08483000"},{"id":"92615","name":"Comuna Podoleni","state_id":4731,"state_code":"NT","country_id":181,"country_code":"RO","latitude":"46.81772000","longitude":"26.63280000"},{"id":"92633","name":"Comuna Poiana Teiului","state_id":4731,"state_code":"NT","country_id":181,"country_code":"RO","latitude":"47.11403000","longitude":"25.92517000"},{"id":"92635","name":"Comuna Poienari","state_id":4731,"state_code":"NT","country_id":181,"country_code":"RO","latitude":"46.88625000","longitude":"27.11966000"},{"id":"92832","name":"Comuna R\u00e3zboieni","state_id":4731,"state_code":"NT","country_id":181,"country_code":"RO","latitude":"47.07424000","longitude":"26.56150000"},{"id":"92852","name":"Comuna Raucesti","state_id":4731,"state_code":"NT","country_id":181,"country_code":"RO","latitude":"47.26151000","longitude":"26.41170000"},{"id":"92759","name":"Comuna Rediu","state_id":4731,"state_code":"NT","country_id":181,"country_code":"RO","latitude":"46.75000000","longitude":"26.56667000"},{"id":"92788","name":"Comuna Rom\u00e2ni","state_id":4731,"state_code":"NT","country_id":181,"country_code":"RO","latitude":"46.80242000","longitude":"26.69945000"},{"id":"92809","name":"Comuna Ruginoasa","state_id":4731,"state_code":"NT","country_id":181,"country_code":"RO","latitude":"46.97447000","longitude":"26.70674000"},{"id":"92862","name":"Comuna Sagna","state_id":4731,"state_code":"NT","country_id":181,"country_code":"RO","latitude":"46.96806000","longitude":"27.01670000"},{"id":"93078","name":"Comuna Sabaoani","state_id":4731,"state_code":"NT","country_id":181,"country_code":"RO","latitude":"47.00187000","longitude":"26.88525000"},{"id":"93117","name":"Comuna Savinesti","state_id":4731,"state_code":"NT","country_id":181,"country_code":"RO","latitude":"46.86469000","longitude":"26.48400000"},{"id":"92914","name":"Comuna Secuieni","state_id":4731,"state_code":"NT","country_id":181,"country_code":"RO","latitude":"46.86853000","longitude":"26.81062000"},{"id":"93021","name":"Comuna Stanita","state_id":4731,"state_code":"NT","country_id":181,"country_code":"RO","latitude":"47.01216000","longitude":"27.13704000"},{"id":"93130","name":"Comuna Tasca","state_id":4731,"state_code":"NT","country_id":181,"country_code":"RO","latitude":"46.88991000","longitude":"26.01069000"},{"id":"93126","name":"Comuna Tarcau","state_id":4731,"state_code":"NT","country_id":181,"country_code":"RO","latitude":"46.82269000","longitude":"26.16264000"},{"id":"93129","name":"Comuna Tazlau","state_id":4731,"state_code":"NT","country_id":181,"country_code":"RO","latitude":"46.72098000","longitude":"26.47003000"},{"id":"93237","name":"Comuna Tamaseni","state_id":4731,"state_code":"NT","country_id":181,"country_code":"RO","latitude":"47.00327000","longitude":"26.95087000"},{"id":"93155","name":"Comuna Timisesti","state_id":4731,"state_code":"NT","country_id":181,"country_code":"RO","latitude":"47.22939000","longitude":"26.51982000"},{"id":"93192","name":"Comuna Trifesti","state_id":4731,"state_code":"NT","country_id":181,"country_code":"RO","latitude":"46.90906000","longitude":"26.83311000"},{"id":"93208","name":"Comuna Tupilati","state_id":4731,"state_code":"NT","country_id":181,"country_code":"RO","latitude":"47.08147000","longitude":"26.64158000"},{"id":"93280","name":"Comuna Urecheni","state_id":4731,"state_code":"NT","country_id":181,"country_code":"RO","latitude":"47.17764000","longitude":"26.53424000"},{"id":"93327","name":"Comuna Valea Ursului","state_id":4731,"state_code":"NT","country_id":181,"country_code":"RO","latitude":"46.79452000","longitude":"27.08166000"},{"id":"93436","name":"Comuna V\u00e2natori Neamt","state_id":4731,"state_code":"NT","country_id":181,"country_code":"RO","latitude":"47.23534000","longitude":"26.27700000"},{"id":"93458","name":"Comuna Valeni","state_id":4731,"state_code":"NT","country_id":181,"country_code":"RO","latitude":"47.02964000","longitude":"26.71532000"},{"id":"93486","name":"Comuna Zanesti","state_id":4731,"state_code":"NT","country_id":181,"country_code":"RO","latitude":"46.82573000","longitude":"26.56213000"},{"id":"93623","name":"Cordun","state_id":4731,"state_code":"NT","country_id":181,"country_code":"RO","latitude":"46.95000000","longitude":"26.86667000"},{"id":"93668","name":"Costisa","state_id":4731,"state_code":"NT","country_id":181,"country_code":"RO","latitude":"46.75000000","longitude":"26.65000000"},{"id":"93677","name":"Cotu Vame\u0219","state_id":4731,"state_code":"NT","country_id":181,"country_code":"RO","latitude":"46.90600000","longitude":"26.95535000"},{"id":"93702","name":"Cracaul Negru","state_id":4731,"state_code":"NT","country_id":181,"country_code":"RO","latitude":"47.09363000","longitude":"26.24061000"},{"id":"93753","name":"Cracaoani","state_id":4731,"state_code":"NT","country_id":181,"country_code":"RO","latitude":"47.09836000","longitude":"26.31111000"},{"id":"93764","name":"Cuejdiu","state_id":4731,"state_code":"NT","country_id":181,"country_code":"RO","latitude":"46.99040000","longitude":"26.29455000"},{"id":"93781","name":"Cut","state_id":4731,"state_code":"NT","country_id":181,"country_code":"RO","latitude":"46.88258000","longitude":"26.41928000"},{"id":"94121","name":"Damuc","state_id":4731,"state_code":"NT","country_id":181,"country_code":"RO","latitude":"46.80000000","longitude":"25.90000000"},{"id":"93951","name":"Dobreni","state_id":4731,"state_code":"NT","country_id":181,"country_code":"RO","latitude":"46.98333000","longitude":"26.41667000"},{"id":"93974","name":"Dochia","state_id":4731,"state_code":"NT","country_id":181,"country_code":"RO","latitude":"46.90731000","longitude":"26.56763000"},{"id":"93976","name":"Dodeni","state_id":4731,"state_code":"NT","country_id":181,"country_code":"RO","latitude":"46.92587000","longitude":"26.09277000"},{"id":"93984","name":"Dolhe\u0219ti","state_id":4731,"state_code":"NT","country_id":181,"country_code":"RO","latitude":"47.21189000","longitude":"26.06738000"},{"id":"93987","name":"Doljesti","state_id":4731,"state_code":"NT","country_id":181,"country_code":"RO","latitude":"47.03333000","longitude":"26.98333000"},{"id":"94015","name":"Dragomiresti","state_id":4731,"state_code":"NT","country_id":181,"country_code":"RO","latitude":"47.01667000","longitude":"26.53333000"},{"id":"94063","name":"Dragane\u0219ti","state_id":4731,"state_code":"NT","country_id":181,"country_code":"RO","latitude":"47.30886000","longitude":"26.40551000"},{"id":"94073","name":"Dulcesti","state_id":4731,"state_code":"NT","country_id":181,"country_code":"RO","latitude":"46.96667000","longitude":"26.76667000"},{"id":"94080","name":"Dumbrava","state_id":4731,"state_code":"NT","country_id":181,"country_code":"RO","latitude":"47.21620000","longitude":"26.46309000"},{"id":"94081","name":"Dumbrava Rosie","state_id":4731,"state_code":"NT","country_id":181,"country_code":"RO","latitude":"46.88333000","longitude":"26.43333000"},{"id":"97141","name":"\u021aolici","state_id":4731,"state_code":"NT","country_id":181,"country_code":"RO","latitude":"47.11840000","longitude":"26.44841000"},{"id":"94260","name":"Farcasa","state_id":4731,"state_code":"NT","country_id":181,"country_code":"RO","latitude":"47.16667000","longitude":"25.83333000"},{"id":"94270","name":"Faurei","state_id":4731,"state_code":"NT","country_id":181,"country_code":"RO","latitude":"46.91667000","longitude":"26.68333000"},{"id":"94173","name":"Filioara","state_id":4731,"state_code":"NT","country_id":181,"country_code":"RO","latitude":"47.16040000","longitude":"26.27920000"},{"id":"94476","name":"G\u00e2dinti","state_id":4731,"state_code":"NT","country_id":181,"country_code":"RO","latitude":"46.93333000","longitude":"27.01667000"},{"id":"94487","name":"G\u00e2rcina","state_id":4731,"state_code":"NT","country_id":181,"country_code":"RO","latitude":"46.97691000","longitude":"26.34573000"},{"id":"94312","name":"Gheraesti","state_id":4731,"state_code":"NT","country_id":181,"country_code":"RO","latitude":"47.01667000","longitude":"26.81667000"},{"id":"94328","name":"Ghindaoani","state_id":4731,"state_code":"NT","country_id":181,"country_code":"RO","latitude":"47.10983000","longitude":"26.33909000"},{"id":"94348","name":"Girov","state_id":4731,"state_code":"NT","country_id":181,"country_code":"RO","latitude":"46.95000000","longitude":"26.51667000"},{"id":"94397","name":"Go\u0219mani","state_id":4731,"state_code":"NT","country_id":181,"country_code":"RO","latitude":"46.83620000","longitude":"26.71522000"},{"id":"94414","name":"Grinties","state_id":4731,"state_code":"NT","country_id":181,"country_code":"RO","latitude":"47.05000000","longitude":"25.86667000"},{"id":"94431","name":"Grumazesti","state_id":4731,"state_code":"NT","country_id":181,"country_code":"RO","latitude":"47.13333000","longitude":"26.36667000"},{"id":"94522","name":"Hangu","state_id":4731,"state_code":"NT","country_id":181,"country_code":"RO","latitude":"47.05000000","longitude":"26.03333000"},{"id":"94539","name":"Hlape\u0219ti","state_id":4731,"state_code":"NT","country_id":181,"country_code":"RO","latitude":"47.03817000","longitude":"26.59842000"},{"id":"94541","name":"Hociungi","state_id":4731,"state_code":"NT","country_id":181,"country_code":"RO","latitude":"46.81311000","longitude":"26.77596000"},{"id":"94563","name":"Horia","state_id":4731,"state_code":"NT","country_id":181,"country_code":"RO","latitude":"46.90698000","longitude":"26.91919000"},{"id":"94577","name":"Humule\u0219ti","state_id":4731,"state_code":"NT","country_id":181,"country_code":"RO","latitude":"47.19846000","longitude":"26.35273000"},{"id":"94637","name":"Icusesti","state_id":4731,"state_code":"NT","country_id":181,"country_code":"RO","latitude":"46.80000000","longitude":"26.93333000"},{"id":"94674","name":"Ion Creanga","state_id":4731,"state_code":"NT","country_id":181,"country_code":"RO","latitude":"46.87029000","longitude":"26.98023000"},{"id":"94703","name":"Izvoare","state_id":4731,"state_code":"NT","country_id":181,"country_code":"RO","latitude":"46.74699000","longitude":"26.80221000"},{"id":"94850","name":"Lumini\u0219","state_id":4731,"state_code":"NT","country_id":181,"country_code":"RO","latitude":"46.81332000","longitude":"26.45275000"},{"id":"94855","name":"Lunca","state_id":4731,"state_code":"NT","country_id":181,"country_code":"RO","latitude":"47.22765000","longitude":"26.29979000"},{"id":"94933","name":"Mastacan","state_id":4731,"state_code":"NT","country_id":181,"country_code":"RO","latitude":"46.78918000","longitude":"26.48677000"},{"id":"95268","name":"Margineni","state_id":4731,"state_code":"NT","country_id":181,"country_code":"RO","latitude":"46.90000000","longitude":"26.63333000"},{"id":"95018","name":"Miron Costin","state_id":4731,"state_code":"NT","country_id":181,"country_code":"RO","latitude":"46.92030000","longitude":"26.80567000"},{"id":"95066","name":"Moldoveni","state_id":4731,"state_code":"NT","country_id":181,"country_code":"RO","latitude":"46.83333000","longitude":"26.76667000"},{"id":"95168","name":"Municipiul Piatra-Neamt","state_id":4731,"state_code":"NT","country_id":181,"country_code":"RO","latitude":"46.92336000","longitude":"26.37380000"},{"id":"95172","name":"Municipiul Roman","state_id":4731,"state_code":"NT","country_id":181,"country_code":"RO","latitude":"46.92973000","longitude":"26.93678000"},{"id":"95318","name":"Negre\u0219ti","state_id":4731,"state_code":"NT","country_id":181,"country_code":"RO","latitude":"47.02938000","longitude":"26.37958000"},{"id":"95326","name":"Nem\u021bi\u0219or","state_id":4731,"state_code":"NT","country_id":181,"country_code":"RO","latitude":"47.23962000","longitude":"26.27209000"},{"id":"95349","name":"Nisipore\u0219ti","state_id":4731,"state_code":"NT","country_id":181,"country_code":"RO","latitude":"47.07720000","longitude":"26.73791000"},{"id":"95380","name":"Oan\u021bu","state_id":4731,"state_code":"NT","country_id":181,"country_code":"RO","latitude":"46.90970000","longitude":"26.19887000"},{"id":"95413","name":"Oglinzi","state_id":4731,"state_code":"NT","country_id":181,"country_code":"RO","latitude":"47.25055000","longitude":"26.35026000"},{"id":"95441","name":"Oniceni","state_id":4731,"state_code":"NT","country_id":181,"country_code":"RO","latitude":"46.81667000","longitude":"27.15000000"},{"id":"95463","name":"Oras Bicaz","state_id":4731,"state_code":"NT","country_id":181,"country_code":"RO","latitude":"46.94890000","longitude":"26.07982000"},{"id":"95579","name":"Oras Roznov","state_id":4731,"state_code":"NT","country_id":181,"country_code":"RO","latitude":"46.83850000","longitude":"26.51277000"},{"id":"95608","name":"Oras T\u00e2rgu Neamt","state_id":4731,"state_code":"NT","country_id":181,"country_code":"RO","latitude":"47.19698000","longitude":"26.36414000"},{"id":"95993","name":"P\u00e2ncesti","state_id":4731,"state_code":"NT","country_id":181,"country_code":"RO","latitude":"46.90296000","longitude":"27.15314000"},{"id":"95995","name":"P\u00e2ngarati","state_id":4731,"state_code":"NT","country_id":181,"country_code":"RO","latitude":"46.93333000","longitude":"26.15000000"},{"id":"95996","name":"P\u00e2ngaracior","state_id":4731,"state_code":"NT","country_id":181,"country_code":"RO","latitude":"46.93333000","longitude":"26.21667000"},{"id":"96022","name":"Pastraveni","state_id":4731,"state_code":"NT","country_id":181,"country_code":"RO","latitude":"47.16667000","longitude":"26.56667000"},{"id":"95751","name":"Petricani","state_id":4731,"state_code":"NT","country_id":181,"country_code":"RO","latitude":"47.16667000","longitude":"26.46667000"},{"id":"95773","name":"Piatra Soimului","state_id":4731,"state_code":"NT","country_id":181,"country_code":"RO","latitude":"46.83333000","longitude":"26.43333000"},{"id":"95771","name":"Piatra Neamt","state_id":4731,"state_code":"NT","country_id":181,"country_code":"RO","latitude":"46.91667000","longitude":"26.33333000"},{"id":"95792","name":"Pilde\u0219ti","state_id":4731,"state_code":"NT","country_id":181,"country_code":"RO","latitude":"46.99675000","longitude":"26.82558000"},{"id":"95794","name":"Pipirig","state_id":4731,"state_code":"NT","country_id":181,"country_code":"RO","latitude":"47.25000000","longitude":"26.06667000"},{"id":"95848","name":"Podoleni","state_id":4731,"state_code":"NT","country_id":181,"country_code":"RO","latitude":"46.80000000","longitude":"26.61667000"},{"id":"95872","name":"Poiana Cracaoani","state_id":4731,"state_code":"NT","country_id":181,"country_code":"RO","latitude":"47.06667000","longitude":"26.31667000"},{"id":"95882","name":"Poiana Teiului","state_id":4731,"state_code":"NT","country_id":181,"country_code":"RO","latitude":"47.10000000","longitude":"25.96667000"},{"id":"95885","name":"Poienari","state_id":4731,"state_code":"NT","country_id":181,"country_code":"RO","latitude":"46.88777000","longitude":"27.12765000"},{"id":"95890","name":"Poieni","state_id":4731,"state_code":"NT","country_id":181,"country_code":"RO","latitude":"46.83333000","longitude":"26.35000000"},{"id":"95900","name":"Poloboc","state_id":4731,"state_code":"NT","country_id":181,"country_code":"RO","latitude":"46.76109000","longitude":"26.54975000"},{"id":"96193","name":"Radeni","state_id":4731,"state_code":"NT","country_id":181,"country_code":"RO","latitude":"47.14260000","longitude":"26.53703000"},{"id":"96211","name":"Raucesti","state_id":4731,"state_code":"NT","country_id":181,"country_code":"RO","latitude":"47.25000000","longitude":"26.41667000"},{"id":"96215","name":"Razboienii de Jos","state_id":4731,"state_code":"NT","country_id":181,"country_code":"RO","latitude":"47.06887000","longitude":"26.56374000"},{"id":"96076","name":"Rediu","state_id":4731,"state_code":"NT","country_id":181,"country_code":"RO","latitude":"46.75598000","longitude":"26.56254000"},{"id":"96105","name":"Roman","state_id":4731,"state_code":"NT","country_id":181,"country_code":"RO","latitude":"46.92119000","longitude":"26.92646000"},{"id":"96115","name":"Rom\u00e2ni","state_id":4731,"state_code":"NT","country_id":181,"country_code":"RO","latitude":"46.78333000","longitude":"26.68333000"},{"id":"96120","name":"Rotunda","state_id":4731,"state_code":"NT","country_id":181,"country_code":"RO","latitude":"47.02210000","longitude":"26.96266000"},{"id":"96125","name":"Roznov","state_id":4731,"state_code":"NT","country_id":181,"country_code":"RO","latitude":"46.83333000","longitude":"26.51667000"},{"id":"96149","name":"Ruginoasa","state_id":4731,"state_code":"NT","country_id":181,"country_code":"RO","latitude":"46.98622000","longitude":"26.70635000"},{"id":"96161","name":"Ruseni","state_id":4731,"state_code":"NT","country_id":181,"country_code":"RO","latitude":"46.79841000","longitude":"26.53943000"},{"id":"96219","name":"Sabasa","state_id":4731,"state_code":"NT","country_id":181,"country_code":"RO","latitude":"47.20174000","longitude":"25.81760000"},{"id":"96228","name":"Sagna","state_id":4731,"state_code":"NT","country_id":181,"country_code":"RO","latitude":"46.98333000","longitude":"27.01667000"},{"id":"105988","name":"Sabaoani","state_id":4731,"state_code":"NT","country_id":181,"country_code":"RO","latitude":"47.01667000","longitude":"26.85000000"},{"id":"106047","name":"Savinesti","state_id":4731,"state_code":"NT","country_id":181,"country_code":"RO","latitude":"46.85000000","longitude":"26.46667000"},{"id":"96315","name":"Secuieni","state_id":4731,"state_code":"NT","country_id":181,"country_code":"RO","latitude":"46.85000000","longitude":"26.83333000"},{"id":"96343","name":"Sili\u0219tea","state_id":4731,"state_code":"NT","country_id":181,"country_code":"RO","latitude":"46.77781000","longitude":"26.69303000"},{"id":"96368","name":"Slobozia","state_id":4731,"state_code":"NT","country_id":181,"country_code":"RO","latitude":"46.84892000","longitude":"26.53344000"},{"id":"96471","name":"St\u00e2nca","state_id":4731,"state_code":"NT","country_id":181,"country_code":"RO","latitude":"47.23069000","longitude":"26.13139000"},{"id":"96482","name":"Stanita","state_id":4731,"state_code":"NT","country_id":181,"country_code":"RO","latitude":"47.01667000","longitude":"27.10000000"},{"id":"96427","name":"Stejaru","state_id":4731,"state_code":"NT","country_id":181,"country_code":"RO","latitude":"46.91888000","longitude":"26.18023000"},{"id":"106065","name":"Tasca","state_id":4731,"state_code":"NT","country_id":181,"country_code":"RO","latitude":"46.90000000","longitude":"26.01667000"},{"id":"106060","name":"Tarcau","state_id":4731,"state_code":"NT","country_id":181,"country_code":"RO","latitude":"46.86667000","longitude":"26.13333000"},{"id":"106064","name":"Tazlau","state_id":4731,"state_code":"NT","country_id":181,"country_code":"RO","latitude":"46.71667000","longitude":"26.46667000"},{"id":"96586","name":"T\u00e2rgu Neamt","state_id":4731,"state_code":"NT","country_id":181,"country_code":"RO","latitude":"47.20000000","longitude":"26.36667000"},{"id":"96607","name":"Tamaseni","state_id":4731,"state_code":"NT","country_id":181,"country_code":"RO","latitude":"46.98333000","longitude":"26.93333000"},{"id":"106077","name":"Telec","state_id":4731,"state_code":"NT","country_id":181,"country_code":"RO","latitude":"46.87979000","longitude":"25.87775000"},{"id":"106101","name":"Timisesti","state_id":4731,"state_code":"NT","country_id":181,"country_code":"RO","latitude":"47.23333000","longitude":"26.55000000"},{"id":"106134","name":"Topoli\u021ba","state_id":4731,"state_code":"NT","country_id":181,"country_code":"RO","latitude":"47.16787000","longitude":"26.38345000"},{"id":"106146","name":"Traian","state_id":4731,"state_code":"NT","country_id":181,"country_code":"RO","latitude":"46.83335000","longitude":"26.57655000"},{"id":"106155","name":"Trifesti","state_id":4731,"state_code":"NT","country_id":181,"country_code":"RO","latitude":"46.91667000","longitude":"26.81667000"},{"id":"96550","name":"Tupilati","state_id":4731,"state_code":"NT","country_id":181,"country_code":"RO","latitude":"47.06667000","longitude":"26.63333000"},{"id":"96674","name":"Urecheni","state_id":4731,"state_code":"NT","country_id":181,"country_code":"RO","latitude":"47.16667000","longitude":"26.51667000"},{"id":"96709","name":"Valea Arini","state_id":4731,"state_code":"NT","country_id":181,"country_code":"RO","latitude":"47.12694000","longitude":"26.29377000"},{"id":"96755","name":"Valea Seaca","state_id":4731,"state_code":"NT","country_id":181,"country_code":"RO","latitude":"47.13944000","longitude":"26.29956000"},{"id":"96761","name":"Valea Ursului","state_id":4731,"state_code":"NT","country_id":181,"country_code":"RO","latitude":"46.81667000","longitude":"27.08333000"},{"id":"96933","name":"V\u00e2natori-Neamt","state_id":4731,"state_code":"NT","country_id":181,"country_code":"RO","latitude":"47.20000000","longitude":"26.31667000"},{"id":"96955","name":"Vadurele","state_id":4731,"state_code":"NT","country_id":181,"country_code":"RO","latitude":"46.72958000","longitude":"26.57173000"},{"id":"96960","name":"Valeni","state_id":4731,"state_code":"NT","country_id":181,"country_code":"RO","latitude":"46.90291000","longitude":"26.38945000"},{"id":"96818","name":"Viisoara","state_id":4731,"state_code":"NT","country_id":181,"country_code":"RO","latitude":"46.93333000","longitude":"26.23333000"},{"id":"97011","name":"Zanesti","state_id":4731,"state_code":"NT","country_id":181,"country_code":"RO","latitude":"46.81667000","longitude":"26.55000000"}]