[{"id":"90014","name":"Aschileu Dorna","state_id":4734,"state_code":"CJ","country_id":181,"country_code":"RO","latitude":"46.98333000","longitude":"23.48333000"},{"id":"89894","name":"Aghire\u0219u","state_id":4734,"state_code":"CJ","country_id":181,"country_code":"RO","latitude":"46.87209000","longitude":"23.23773000"},{"id":"89895","name":"Aghire\u0219u-Fabrici","state_id":4734,"state_code":"CJ","country_id":181,"country_code":"RO","latitude":"46.86690000","longitude":"23.27129000"},{"id":"89906","name":"Aiton","state_id":4734,"state_code":"CJ","country_id":181,"country_code":"RO","latitude":"46.68333000","longitude":"23.73333000"},{"id":"89941","name":"Alunis","state_id":4734,"state_code":"CJ","country_id":181,"country_code":"RO","latitude":"47.03333000","longitude":"23.75000000"},{"id":"89969","name":"Apahida","state_id":4734,"state_code":"CJ","country_id":181,"country_code":"RO","latitude":"46.81667000","longitude":"23.75000000"},{"id":"97099","name":"Taga","state_id":4734,"state_code":"CJ","country_id":181,"country_code":"RO","latitude":"46.95000000","longitude":"24.05000000"},{"id":"90022","name":"Baciu","state_id":4734,"state_code":"CJ","country_id":181,"country_code":"RO","latitude":"46.80000000","longitude":"23.51667000"},{"id":"90496","name":"Baisoara","state_id":4734,"state_code":"CJ","country_id":181,"country_code":"RO","latitude":"46.58333000","longitude":"23.46667000"},{"id":"90091","name":"Belis","state_id":4734,"state_code":"CJ","country_id":181,"country_code":"RO","latitude":"46.65000000","longitude":"23.03333000"},{"id":"90174","name":"Bob\u00e2lna","state_id":4734,"state_code":"CJ","country_id":181,"country_code":"RO","latitude":"47.14385000","longitude":"23.64461000"},{"id":"90192","name":"Bogdanesti","state_id":4734,"state_code":"CJ","country_id":181,"country_code":"RO","latitude":"46.63333000","longitude":"23.13333000"},{"id":"90219","name":"Bon\u021bida","state_id":4734,"state_code":"CJ","country_id":181,"country_code":"RO","latitude":"46.91550000","longitude":"23.81475000"},{"id":"90239","name":"Borsa","state_id":4734,"state_code":"CJ","country_id":181,"country_code":"RO","latitude":"46.93333000","longitude":"23.66667000"},{"id":"90430","name":"Buza","state_id":4734,"state_code":"CJ","country_id":181,"country_code":"RO","latitude":"46.90000000","longitude":"24.15000000"},{"id":"93822","name":"C\u00e2tcau","state_id":4734,"state_code":"CJ","country_id":181,"country_code":"RO","latitude":"47.20000000","longitude":"23.78333000"},{"id":"93797","name":"C\u00e2mpia Turzii","state_id":4734,"state_code":"CJ","country_id":181,"country_code":"RO","latitude":"46.55000000","longitude":"23.88333000"},{"id":"93885","name":"Caseiu","state_id":4734,"state_code":"CJ","country_id":181,"country_code":"RO","latitude":"47.18333000","longitude":"23.86667000"},{"id":"93825","name":"Caianu","state_id":4734,"state_code":"CJ","country_id":181,"country_code":"RO","latitude":"46.78460000","longitude":"23.91850000"},{"id":"93826","name":"Caianu Mic","state_id":4734,"state_code":"CJ","country_id":181,"country_code":"RO","latitude":"46.78333000","longitude":"23.91667000"},{"id":"93852","name":"Calatele","state_id":4734,"state_code":"CJ","country_id":181,"country_code":"RO","latitude":"46.76667000","longitude":"23.01667000"},{"id":"93851","name":"Calarasi","state_id":4734,"state_code":"CJ","country_id":181,"country_code":"RO","latitude":"46.48333000","longitude":"23.86667000"},{"id":"93854","name":"Camarasu","state_id":4734,"state_code":"CJ","country_id":181,"country_code":"RO","latitude":"46.78333000","longitude":"24.13333000"},{"id":"93861","name":"Capusu Mare","state_id":4734,"state_code":"CJ","country_id":181,"country_code":"RO","latitude":"46.78333000","longitude":"23.30000000"},{"id":"93879","name":"Catina","state_id":4734,"state_code":"CJ","country_id":181,"country_code":"RO","latitude":"46.85000000","longitude":"24.18333000"},{"id":"90602","name":"Ceanu Mare","state_id":4734,"state_code":"CJ","country_id":181,"country_code":"RO","latitude":"46.66667000","longitude":"23.95000000"},{"id":"90669","name":"Chinteni","state_id":4734,"state_code":"CJ","country_id":181,"country_code":"RO","latitude":"46.86667000","longitude":"23.53333000"},{"id":"90685","name":"Chiuie\u0219ti","state_id":4734,"state_code":"CJ","country_id":181,"country_code":"RO","latitude":"47.29686000","longitude":"23.87553000"},{"id":"90740","name":"Ciucea","state_id":4734,"state_code":"CJ","country_id":181,"country_code":"RO","latitude":"46.95000000","longitude":"22.81667000"},{"id":"90758","name":"Ciurila","state_id":4734,"state_code":"CJ","country_id":181,"country_code":"RO","latitude":"46.65000000","longitude":"23.55000000"},{"id":"90771","name":"Cluj-Napoca","state_id":4734,"state_code":"CJ","country_id":181,"country_code":"RO","latitude":"46.76667000","longitude":"23.60000000"},{"id":"90790","name":"Cojocna","state_id":4734,"state_code":"CJ","country_id":181,"country_code":"RO","latitude":"46.75000000","longitude":"23.83333000"},{"id":"90910","name":"Comuna Aschileu","state_id":4734,"state_code":"CJ","country_id":181,"country_code":"RO","latitude":"46.98498000","longitude":"23.48468000"},{"id":"90830","name":"Comuna Aghiresu","state_id":4734,"state_code":"CJ","country_id":181,"country_code":"RO","latitude":"46.87785000","longitude":"23.25320000"},{"id":"90836","name":"Comuna Aiton","state_id":4734,"state_code":"CJ","country_id":181,"country_code":"RO","latitude":"46.68275000","longitude":"23.71608000"},{"id":"90860","name":"Comuna Alunis","state_id":4734,"state_code":"CJ","country_id":181,"country_code":"RO","latitude":"47.05595000","longitude":"23.74365000"},{"id":"90876","name":"Comuna Apahida","state_id":4734,"state_code":"CJ","country_id":181,"country_code":"RO","latitude":"46.78296000","longitude":"23.74433000"},{"id":"93567","name":"Comuna Taga","state_id":4734,"state_code":"CJ","country_id":181,"country_code":"RO","latitude":"46.95100000","longitude":"24.02605000"},{"id":"90914","name":"Comuna Baciu","state_id":4734,"state_code":"CJ","country_id":181,"country_code":"RO","latitude":"46.82010000","longitude":"23.49036000"},{"id":"91208","name":"Comuna Baisoara","state_id":4734,"state_code":"CJ","country_id":181,"country_code":"RO","latitude":"46.58331000","longitude":"23.39349000"},{"id":"90955","name":"Comuna Belis","state_id":4734,"state_code":"CJ","country_id":181,"country_code":"RO","latitude":"46.65246000","longitude":"22.95213000"},{"id":"91013","name":"Comuna Bob\u00e2lna","state_id":4734,"state_code":"CJ","country_id":181,"country_code":"RO","latitude":"47.13319000","longitude":"23.65163000"},{"id":"91044","name":"Comuna Bontida","state_id":4734,"state_code":"CJ","country_id":181,"country_code":"RO","latitude":"46.90036000","longitude":"23.82228000"},{"id":"91057","name":"Comuna Borsa","state_id":4734,"state_code":"CJ","country_id":181,"country_code":"RO","latitude":"46.92402000","longitude":"23.64940000"},{"id":"91178","name":"Comuna Buza","state_id":4734,"state_code":"CJ","country_id":181,"country_code":"RO","latitude":"46.90492000","longitude":"24.18041000"},{"id":"91558","name":"Comuna C\u00e2tcau","state_id":4734,"state_code":"CJ","country_id":181,"country_code":"RO","latitude":"47.23058000","longitude":"23.79331000"},{"id":"91564","name":"Comuna C\u00e3pusu Mare","state_id":4734,"state_code":"CJ","country_id":181,"country_code":"RO","latitude":"46.78746000","longitude":"23.23462000"},{"id":"91598","name":"Comuna Caseiu","state_id":4734,"state_code":"CJ","country_id":181,"country_code":"RO","latitude":"47.23810000","longitude":"23.86404000"},{"id":"91567","name":"Comuna Caianu","state_id":4734,"state_code":"CJ","country_id":181,"country_code":"RO","latitude":"46.80670000","longitude":"23.90883000"},{"id":"91579","name":"Comuna Calatele","state_id":4734,"state_code":"CJ","country_id":181,"country_code":"RO","latitude":"46.76282000","longitude":"23.03046000"},{"id":"91578","name":"Comuna Calarasi","state_id":4734,"state_code":"CJ","country_id":181,"country_code":"RO","latitude":"46.49376000","longitude":"23.85359000"},{"id":"91580","name":"Comuna Camarasu","state_id":4734,"state_code":"CJ","country_id":181,"country_code":"RO","latitude":"46.78695000","longitude":"24.11369000"},{"id":"91594","name":"Comuna Catina","state_id":4734,"state_code":"CJ","country_id":181,"country_code":"RO","latitude":"46.85179000","longitude":"24.16497000"},{"id":"91273","name":"Comuna Ceanu Mare","state_id":4734,"state_code":"CJ","country_id":181,"country_code":"RO","latitude":"46.65324000","longitude":"23.94586000"},{"id":"91316","name":"Comuna Chinteni","state_id":4734,"state_code":"CJ","country_id":181,"country_code":"RO","latitude":"46.88822000","longitude":"23.55319000"},{"id":"91327","name":"Comuna Chiuiesti","state_id":4734,"state_code":"CJ","country_id":181,"country_code":"RO","latitude":"47.32292000","longitude":"23.92016000"},{"id":"91362","name":"Comuna Ciucea","state_id":4734,"state_code":"CJ","country_id":181,"country_code":"RO","latitude":"46.95981000","longitude":"22.84363000"},{"id":"91376","name":"Comuna Ciurila","state_id":4734,"state_code":"CJ","country_id":181,"country_code":"RO","latitude":"46.63372000","longitude":"23.53979000"},{"id":"91395","name":"Comuna Cojocna","state_id":4734,"state_code":"CJ","country_id":181,"country_code":"RO","latitude":"46.72137000","longitude":"23.83949000"},{"id":"91438","name":"Comuna Cornesti","state_id":4734,"state_code":"CJ","country_id":181,"country_code":"RO","latitude":"47.02811000","longitude":"23.68500000"},{"id":"91537","name":"Comuna Cuzdrioara","state_id":4734,"state_code":"CJ","country_id":181,"country_code":"RO","latitude":"47.18274000","longitude":"23.93248000"},{"id":"91731","name":"Comuna Dab\u00e2ca","state_id":4734,"state_code":"CJ","country_id":181,"country_code":"RO","latitude":"46.96989000","longitude":"23.69456000"},{"id":"91756","name":"Comuna Feleacu","state_id":4734,"state_code":"CJ","country_id":181,"country_code":"RO","latitude":"46.70345000","longitude":"23.64021000"},{"id":"91769","name":"Comuna Fizesu Gherlii","state_id":4734,"state_code":"CJ","country_id":181,"country_code":"RO","latitude":"46.99442000","longitude":"23.94727000"},{"id":"91770","name":"Comuna Floresti","state_id":4734,"state_code":"CJ","country_id":181,"country_code":"RO","latitude":"46.73375000","longitude":"23.47861000"},{"id":"91780","name":"Comuna Frata","state_id":4734,"state_code":"CJ","country_id":181,"country_code":"RO","latitude":"46.69878000","longitude":"24.05385000"},{"id":"91967","name":"Comuna G\u00e2rb\u00e3u","state_id":4734,"state_code":"CJ","country_id":181,"country_code":"RO","latitude":"46.84059000","longitude":"23.37049000"},{"id":"91835","name":"Comuna Geaca","state_id":4734,"state_code":"CJ","country_id":181,"country_code":"RO","latitude":"46.88141000","longitude":"24.06256000"},{"id":"91868","name":"Comuna Gilau","state_id":4734,"state_code":"CJ","country_id":181,"country_code":"RO","latitude":"46.72607000","longitude":"23.34909000"},{"id":"92055","name":"Comuna Iara","state_id":4734,"state_code":"CJ","country_id":181,"country_code":"RO","latitude":"46.54268000","longitude":"23.52749000"},{"id":"92059","name":"Comuna Iclod","state_id":4734,"state_code":"CJ","country_id":181,"country_code":"RO","latitude":"46.99174000","longitude":"23.81618000"},{"id":"92112","name":"Comuna Izvoru Crisului","state_id":4734,"state_code":"CJ","country_id":181,"country_code":"RO","latitude":"46.84542000","longitude":"23.10025000"},{"id":"92120","name":"Comuna Jichisu De Jos","state_id":4734,"state_code":"CJ","country_id":181,"country_code":"RO","latitude":"47.12028000","longitude":"23.76788000"},{"id":"92132","name":"Comuna Jucu","state_id":4734,"state_code":"CJ","country_id":181,"country_code":"RO","latitude":"46.84958000","longitude":"23.80953000"},{"id":"92197","name":"Comuna Luna","state_id":4734,"state_code":"CJ","country_id":181,"country_code":"RO","latitude":"46.47522000","longitude":"23.94928000"},{"id":"92371","name":"Comuna M\u00e2nastireni","state_id":4734,"state_code":"CJ","country_id":181,"country_code":"RO","latitude":"46.79131000","longitude":"23.09871000"},{"id":"92375","name":"Comuna M\u00e3guri-R\u00e3c\u00e3t\u00e3u","state_id":4734,"state_code":"CJ","country_id":181,"country_code":"RO","latitude":"46.63948000","longitude":"23.19485000"},{"id":"92410","name":"Comuna Margau","state_id":4734,"state_code":"CJ","country_id":181,"country_code":"RO","latitude":"46.75677000","longitude":"22.94429000"},{"id":"92411","name":"Comuna Marisel","state_id":4734,"state_code":"CJ","country_id":181,"country_code":"RO","latitude":"46.68422000","longitude":"23.11466000"},{"id":"92263","name":"Comuna Mica","state_id":4734,"state_code":"CJ","country_id":181,"country_code":"RO","latitude":"47.14436000","longitude":"23.97593000"},{"id":"92273","name":"Comuna Mihai Viteazu","state_id":4734,"state_code":"CJ","country_id":181,"country_code":"RO","latitude":"46.53477000","longitude":"23.71595000"},{"id":"92293","name":"Comuna Mintiu Gherlii","state_id":4734,"state_code":"CJ","country_id":181,"country_code":"RO","latitude":"47.07323000","longitude":"23.92731000"},{"id":"92314","name":"Comuna Mociu","state_id":4734,"state_code":"CJ","country_id":181,"country_code":"RO","latitude":"46.79232000","longitude":"24.02853000"},{"id":"92325","name":"Comuna Moldovenesti","state_id":4734,"state_code":"CJ","country_id":181,"country_code":"RO","latitude":"46.47350000","longitude":"23.68905000"},{"id":"92431","name":"Comuna Negreni","state_id":4734,"state_code":"CJ","country_id":181,"country_code":"RO","latitude":"46.95224000","longitude":"22.75835000"},{"id":"92535","name":"Comuna Panticeu","state_id":4734,"state_code":"CJ","country_id":181,"country_code":"RO","latitude":"47.04079000","longitude":"23.55639000"},{"id":"92710","name":"Comuna P\u00e3latca","state_id":4734,"state_code":"CJ","country_id":181,"country_code":"RO","latitude":"46.87358000","longitude":"23.98288000"},{"id":"92564","name":"Comuna Petrestii De Jos","state_id":4734,"state_code":"CJ","country_id":181,"country_code":"RO","latitude":"46.58162000","longitude":"23.62191000"},{"id":"92602","name":"Comuna Ploscos","state_id":4734,"state_code":"CJ","country_id":181,"country_code":"RO","latitude":"46.66066000","longitude":"23.84322000"},{"id":"92640","name":"Comuna Poieni","state_id":4734,"state_code":"CJ","country_id":181,"country_code":"RO","latitude":"46.88361000","longitude":"22.86041000"},{"id":"92829","name":"Comuna R\u00e2\u0219ca","state_id":4734,"state_code":"CJ","country_id":181,"country_code":"RO","latitude":"46.73082000","longitude":"23.15413000"},{"id":"92756","name":"Comuna Recea Cristur","state_id":4734,"state_code":"CJ","country_id":181,"country_code":"RO","latitude":"47.12155000","longitude":"23.54554000"},{"id":"93050","name":"Comuna S\u00e2ncraiu","state_id":4734,"state_code":"CJ","country_id":181,"country_code":"RO","latitude":"46.83410000","longitude":"22.99135000"},{"id":"93060","name":"Comuna S\u00e2nmartin","state_id":4734,"state_code":"CJ","country_id":181,"country_code":"RO","latitude":"47.00708000","longitude":"24.07336000"},{"id":"93062","name":"Comuna S\u00e2npaul","state_id":4734,"state_code":"CJ","country_id":181,"country_code":"RO","latitude":"46.89597000","longitude":"23.41731000"},{"id":"93074","name":"Comuna S\u00e3cuieu","state_id":4734,"state_code":"CJ","country_id":181,"country_code":"RO","latitude":"46.81600000","longitude":"22.86010000"},{"id":"93103","name":"Comuna Sandulesti","state_id":4734,"state_code":"CJ","country_id":181,"country_code":"RO","latitude":"46.58887000","longitude":"23.73049000"},{"id":"93119","name":"Comuna Savadisla","state_id":4734,"state_code":"CJ","country_id":181,"country_code":"RO","latitude":"46.66540000","longitude":"23.44808000"},{"id":"92925","name":"Comuna Sic","state_id":4734,"state_code":"CJ","country_id":181,"country_code":"RO","latitude":"46.93134000","longitude":"23.89615000"},{"id":"93023","name":"Comuna Suatu","state_id":4734,"state_code":"CJ","country_id":181,"country_code":"RO","latitude":"46.75372000","longitude":"23.95820000"},{"id":"93194","name":"Comuna Tritenii De Jos","state_id":4734,"state_code":"CJ","country_id":181,"country_code":"RO","latitude":"46.58735000","longitude":"24.00139000"},{"id":"93213","name":"Comuna Tureni","state_id":4734,"state_code":"CJ","country_id":181,"country_code":"RO","latitude":"46.63917000","longitude":"23.67684000"},{"id":"93270","name":"Comuna Unguras","state_id":4734,"state_code":"CJ","country_id":181,"country_code":"RO","latitude":"47.11667000","longitude":"24.05000000"},{"id":"93289","name":"Comuna Vad","state_id":4734,"state_code":"CJ","country_id":181,"country_code":"RO","latitude":"47.20634000","longitude":"23.71403000"},{"id":"93307","name":"Comuna Valea Ierii","state_id":4734,"state_code":"CJ","country_id":181,"country_code":"RO","latitude":"46.64086000","longitude":"23.31997000"},{"id":"93358","name":"Comuna Viisoara","state_id":4734,"state_code":"CJ","country_id":181,"country_code":"RO","latitude":"46.55377000","longitude":"23.93583000"},{"id":"93416","name":"Comuna Vultureni","state_id":4734,"state_code":"CJ","country_id":181,"country_code":"RO","latitude":"46.95597000","longitude":"23.56762000"},{"id":"93605","name":"Copaceni","state_id":4734,"state_code":"CJ","country_id":181,"country_code":"RO","latitude":"46.59675000","longitude":"23.73886000"},{"id":"93634","name":"Cornesti","state_id":4734,"state_code":"CJ","country_id":181,"country_code":"RO","latitude":"47.03333000","longitude":"23.68333000"},{"id":"93788","name":"Cuzdrioara","state_id":4734,"state_code":"CJ","country_id":181,"country_code":"RO","latitude":"47.16667000","longitude":"23.91667000"},{"id":"94115","name":"Dab\u00e2ca","state_id":4734,"state_code":"CJ","country_id":181,"country_code":"RO","latitude":"46.98333000","longitude":"23.66667000"},{"id":"93910","name":"Dej","state_id":4734,"state_code":"CJ","country_id":181,"country_code":"RO","latitude":"47.15000000","longitude":"23.86667000"},{"id":"93931","name":"Dezmir","state_id":4734,"state_code":"CJ","country_id":181,"country_code":"RO","latitude":"46.76475000","longitude":"23.72451000"},{"id":"94154","name":"Feleacu","state_id":4734,"state_code":"CJ","country_id":181,"country_code":"RO","latitude":"46.71667000","longitude":"23.61667000"},{"id":"94181","name":"Fizesu Gherlii","state_id":4734,"state_code":"CJ","country_id":181,"country_code":"RO","latitude":"47.01667000","longitude":"23.98333000"},{"id":"94185","name":"Floresti","state_id":4734,"state_code":"CJ","country_id":181,"country_code":"RO","latitude":"46.74574000","longitude":"23.49375000"},{"id":"94202","name":"Frata","state_id":4734,"state_code":"CJ","country_id":181,"country_code":"RO","latitude":"46.70000000","longitude":"24.05000000"},{"id":"94485","name":"G\u00e2rbau","state_id":4734,"state_code":"CJ","country_id":181,"country_code":"RO","latitude":"46.83305000","longitude":"23.35240000"},{"id":"94285","name":"Geaca","state_id":4734,"state_code":"CJ","country_id":181,"country_code":"RO","latitude":"46.86667000","longitude":"24.10000000"},{"id":"94304","name":"Gheorghieni","state_id":4734,"state_code":"CJ","country_id":181,"country_code":"RO","latitude":"46.71393000","longitude":"23.68853000"},{"id":"94308","name":"Gherla","state_id":4734,"state_code":"CJ","country_id":181,"country_code":"RO","latitude":"47.03333000","longitude":"23.91667000"},{"id":"94344","name":"Gilau","state_id":4734,"state_code":"CJ","country_id":181,"country_code":"RO","latitude":"46.73245000","longitude":"23.36174000"},{"id":"94572","name":"Huedin","state_id":4734,"state_code":"CJ","country_id":181,"country_code":"RO","latitude":"46.86667000","longitude":"23.05000000"},{"id":"94624","name":"Iara","state_id":4734,"state_code":"CJ","country_id":181,"country_code":"RO","latitude":"46.55000000","longitude":"23.51667000"},{"id":"94634","name":"Iclod","state_id":4734,"state_code":"CJ","country_id":181,"country_code":"RO","latitude":"46.98333000","longitude":"23.80000000"},{"id":"94718","name":"Izvoru Crisului","state_id":4734,"state_code":"CJ","country_id":181,"country_code":"RO","latitude":"46.83333000","longitude":"23.10000000"},{"id":"94731","name":"Jichisu de Jos","state_id":4734,"state_code":"CJ","country_id":181,"country_code":"RO","latitude":"47.11667000","longitude":"23.80000000"},{"id":"94851","name":"Luna","state_id":4734,"state_code":"CJ","country_id":181,"country_code":"RO","latitude":"46.50659000","longitude":"23.91959000"},{"id":"94852","name":"Luna de Sus","state_id":4734,"state_code":"CJ","country_id":181,"country_code":"RO","latitude":"46.74313000","longitude":"23.43539000"},{"id":"94874","name":"Luncani","state_id":4734,"state_code":"CJ","country_id":181,"country_code":"RO","latitude":"46.47274000","longitude":"23.95095000"},{"id":"95219","name":"M\u00e2nastireni","state_id":4734,"state_code":"CJ","country_id":181,"country_code":"RO","latitude":"46.76667000","longitude":"23.08333000"},{"id":"95246","name":"Maguri","state_id":4734,"state_code":"CJ","country_id":181,"country_code":"RO","latitude":"46.62849000","longitude":"23.10294000"},{"id":"95247","name":"Maguri-Racatau","state_id":4734,"state_code":"CJ","country_id":181,"country_code":"RO","latitude":"46.64500000","longitude":"23.19700000"},{"id":"95275","name":"Margau","state_id":4734,"state_code":"CJ","country_id":181,"country_code":"RO","latitude":"46.75000000","longitude":"22.96667000"},{"id":"95276","name":"Marisel","state_id":4734,"state_code":"CJ","country_id":181,"country_code":"RO","latitude":"46.65000000","longitude":"23.13333000"},{"id":"94948","name":"Mera","state_id":4734,"state_code":"CJ","country_id":181,"country_code":"RO","latitude":"46.81525000","longitude":"23.45405000"},{"id":"94964","name":"Mica","state_id":4734,"state_code":"CJ","country_id":181,"country_code":"RO","latitude":"47.13333000","longitude":"23.93333000"},{"id":"94980","name":"Mihai Viteazu","state_id":4734,"state_code":"CJ","country_id":181,"country_code":"RO","latitude":"46.53333000","longitude":"23.75000000"},{"id":"95009","name":"Mintiu Gherlii","state_id":4734,"state_code":"CJ","country_id":181,"country_code":"RO","latitude":"47.05000000","longitude":"23.95000000"},{"id":"95045","name":"Mociu","state_id":4734,"state_code":"CJ","country_id":181,"country_code":"RO","latitude":"46.80000000","longitude":"24.03333000"},{"id":"95063","name":"Moldovenesti","state_id":4734,"state_code":"CJ","country_id":181,"country_code":"RO","latitude":"46.50000000","longitude":"23.65000000"},{"id":"95130","name":"Municipiul C\u00e2mpia Turzii","state_id":4734,"state_code":"CJ","country_id":181,"country_code":"RO","latitude":"46.54417000","longitude":"23.88472000"},{"id":"95126","name":"Municipiul Cluj-Napoca","state_id":4734,"state_code":"CJ","country_id":181,"country_code":"RO","latitude":"46.77791000","longitude":"23.60512000"},{"id":"95135","name":"Municipiul Dej","state_id":4734,"state_code":"CJ","country_id":181,"country_code":"RO","latitude":"47.12783000","longitude":"23.87504000"},{"id":"95146","name":"Municipiul Gherla","state_id":4734,"state_code":"CJ","country_id":181,"country_code":"RO","latitude":"47.01431000","longitude":"23.88134000"},{"id":"95189","name":"Municipiul Turda","state_id":4734,"state_code":"CJ","country_id":181,"country_code":"RO","latitude":"46.57456000","longitude":"23.78574000"},{"id":"95314","name":"Negreni","state_id":4734,"state_code":"CJ","country_id":181,"country_code":"RO","latitude":"46.95378000","longitude":"22.76347000"},{"id":"95347","name":"Nire\u0219","state_id":4734,"state_code":"CJ","country_id":181,"country_code":"RO","latitude":"47.11499000","longitude":"23.98092000"},{"id":"95394","name":"Ocna Dejului","state_id":4734,"state_code":"CJ","country_id":181,"country_code":"RO","latitude":"47.11581000","longitude":"23.85934000"},{"id":"95530","name":"Oras Huedin","state_id":4734,"state_code":"CJ","country_id":181,"country_code":"RO","latitude":"46.87204000","longitude":"23.03935000"},{"id":"95709","name":"Panticeu","state_id":4734,"state_code":"CJ","country_id":181,"country_code":"RO","latitude":"47.03333000","longitude":"23.56667000"},{"id":"96010","name":"Padureni","state_id":4734,"state_code":"CJ","country_id":181,"country_code":"RO","latitude":"46.59316000","longitude":"24.02700000"},{"id":"96011","name":"Palatca","state_id":4734,"state_code":"CJ","country_id":181,"country_code":"RO","latitude":"46.85000000","longitude":"23.98333000"},{"id":"95748","name":"Petrestii de Jos","state_id":4734,"state_code":"CJ","country_id":181,"country_code":"RO","latitude":"46.58333000","longitude":"23.65000000"},{"id":"95828","name":"Plosco\u0219","state_id":4734,"state_code":"CJ","country_id":181,"country_code":"RO","latitude":"46.64303000","longitude":"23.84663000"},{"id":"95891","name":"Poieni","state_id":4734,"state_code":"CJ","country_id":181,"country_code":"RO","latitude":"46.91880000","longitude":"22.85826000"},{"id":"96179","name":"R\u00e2\u0219ca","state_id":4734,"state_code":"CJ","country_id":181,"country_code":"RO","latitude":"46.73967000","longitude":"23.10625000"},{"id":"96205","name":"Rascruci","state_id":4734,"state_code":"CJ","country_id":181,"country_code":"RO","latitude":"46.90569000","longitude":"23.76860000"},{"id":"96072","name":"Recea Cristur","state_id":4734,"state_code":"CJ","country_id":181,"country_code":"RO","latitude":"47.06667000","longitude":"23.53333000"},{"id":"96150","name":"Ruga\u0219e\u0219ti","state_id":4734,"state_code":"CJ","country_id":181,"country_code":"RO","latitude":"47.23147000","longitude":"23.87326000"},{"id":"96526","name":"S\u00e2ncraiu","state_id":4734,"state_code":"CJ","country_id":181,"country_code":"RO","latitude":"46.83333000","longitude":"22.98333000"},{"id":"96537","name":"S\u00e2nmarghita","state_id":4734,"state_code":"CJ","country_id":181,"country_code":"RO","latitude":"47.15649000","longitude":"23.99461000"},{"id":"96538","name":"S\u00e2nmartin","state_id":4734,"state_code":"CJ","country_id":181,"country_code":"RO","latitude":"46.90000000","longitude":"23.56667000"},{"id":"96539","name":"S\u00e2nnicoara","state_id":4734,"state_code":"CJ","country_id":181,"country_code":"RO","latitude":"46.78990000","longitude":"23.72570000"},{"id":"96542","name":"S\u00e2npaul","state_id":4734,"state_code":"CJ","country_id":181,"country_code":"RO","latitude":"46.88333000","longitude":"23.41667000"},{"id":"105998","name":"Sacuieu","state_id":4734,"state_code":"CJ","country_id":181,"country_code":"RO","latitude":"46.82335000","longitude":"22.88824000"},{"id":"106026","name":"Sandulesti","state_id":4734,"state_code":"CJ","country_id":181,"country_code":"RO","latitude":"46.58333000","longitude":"23.71667000"},{"id":"106049","name":"Savadisla","state_id":4734,"state_code":"CJ","country_id":181,"country_code":"RO","latitude":"46.68333000","longitude":"23.45000000"},{"id":"96333","name":"Sic","state_id":4734,"state_code":"CJ","country_id":181,"country_code":"RO","latitude":"46.93333000","longitude":"23.88333000"},{"id":"96411","name":"Soporu de C\u00e2mpie","state_id":4734,"state_code":"CJ","country_id":181,"country_code":"RO","latitude":"46.69618000","longitude":"24.00658000"},{"id":"96485","name":"Suatu","state_id":4734,"state_code":"CJ","country_id":181,"country_code":"RO","latitude":"46.76667000","longitude":"23.96667000"},{"id":"96487","name":"Suceagu","state_id":4734,"state_code":"CJ","country_id":181,"country_code":"RO","latitude":"46.78432000","longitude":"23.46511000"},{"id":"106158","name":"Tritenii de Jos","state_id":4734,"state_code":"CJ","country_id":181,"country_code":"RO","latitude":"46.58333000","longitude":"24.00000000"},{"id":"106159","name":"Tritenii de Sus","state_id":4734,"state_code":"CJ","country_id":181,"country_code":"RO","latitude":"46.60544000","longitude":"23.99849000"},{"id":"96558","name":"Turda","state_id":4734,"state_code":"CJ","country_id":181,"country_code":"RO","latitude":"46.56667000","longitude":"23.78333000"},{"id":"96561","name":"Tureni","state_id":4734,"state_code":"CJ","country_id":181,"country_code":"RO","latitude":"46.62934000","longitude":"23.70240000"},{"id":"96657","name":"Unguras","state_id":4734,"state_code":"CJ","country_id":181,"country_code":"RO","latitude":"47.11667000","longitude":"24.05000000"},{"id":"96672","name":"Urca","state_id":4734,"state_code":"CJ","country_id":181,"country_code":"RO","latitude":"46.54885000","longitude":"23.96187000"},{"id":"96694","name":"Vad","state_id":4734,"state_code":"CJ","country_id":181,"country_code":"RO","latitude":"47.20000000","longitude":"23.75000000"},{"id":"96704","name":"Vaida-Camara\u0219","state_id":4734,"state_code":"CJ","country_id":181,"country_code":"RO","latitude":"46.82823000","longitude":"23.94724000"},{"id":"96727","name":"Valea Ierii","state_id":4734,"state_code":"CJ","country_id":181,"country_code":"RO","latitude":"46.65000000","longitude":"23.35000000"},{"id":"96820","name":"Viisoara","state_id":4734,"state_code":"CJ","country_id":181,"country_code":"RO","latitude":"46.55000000","longitude":"23.91667000"},{"id":"96907","name":"Vultureni","state_id":4734,"state_code":"CJ","country_id":181,"country_code":"RO","latitude":"46.96667000","longitude":"23.56667000"}]