[{"id":"89880","name":"Adea","state_id":4739,"state_code":"AR","country_id":181,"country_code":"RO","latitude":"46.55511000","longitude":"21.58433000"},{"id":"89902","name":"Agri\u0219u Mare","state_id":4739,"state_code":"AR","country_id":181,"country_code":"RO","latitude":"46.27243000","longitude":"21.75558000"},{"id":"89935","name":"Almas","state_id":4739,"state_code":"AR","country_id":181,"country_code":"RO","latitude":"46.28333000","longitude":"22.23333000"},{"id":"89955","name":"Andrei \u0218aguna","state_id":4739,"state_code":"AR","country_id":181,"country_code":"RO","latitude":"46.28810000","longitude":"21.39175000"},{"id":"89970","name":"Apateu","state_id":4739,"state_code":"AR","country_id":181,"country_code":"RO","latitude":"46.61667000","longitude":"21.78333000"},{"id":"89977","name":"Arad","state_id":4739,"state_code":"AR","country_id":181,"country_code":"RO","latitude":"46.18333000","longitude":"21.31667000"},{"id":"89980","name":"Archis","state_id":4739,"state_code":"AR","country_id":181,"country_code":"RO","latitude":"46.48333000","longitude":"22.05000000"},{"id":"97028","name":"Sagu","state_id":4739,"state_code":"AR","country_id":181,"country_code":"RO","latitude":"46.05000000","longitude":"21.28333000"},{"id":"97034","name":"Seitin","state_id":4739,"state_code":"AR","country_id":181,"country_code":"RO","latitude":"46.10000000","longitude":"20.85000000"},{"id":"97062","name":"Sistarovat","state_id":4739,"state_code":"AR","country_id":181,"country_code":"RO","latitude":"46.01667000","longitude":"21.73333000"},{"id":"97043","name":"Sicula","state_id":4739,"state_code":"AR","country_id":181,"country_code":"RO","latitude":"46.43333000","longitude":"21.75000000"},{"id":"97048","name":"Silindia","state_id":4739,"state_code":"AR","country_id":181,"country_code":"RO","latitude":"46.35000000","longitude":"21.91667000"},{"id":"97049","name":"Simand","state_id":4739,"state_code":"AR","country_id":181,"country_code":"RO","latitude":"46.43333000","longitude":"21.45000000"},{"id":"97058","name":"Siria","state_id":4739,"state_code":"AR","country_id":181,"country_code":"RO","latitude":"46.26667000","longitude":"21.63333000"},{"id":"97064","name":"Sofronea","state_id":4739,"state_code":"AR","country_id":181,"country_code":"RO","latitude":"46.26667000","longitude":"21.30000000"},{"id":"90069","name":"Bata","state_id":4739,"state_code":"AR","country_id":181,"country_code":"RO","latitude":"46.01667000","longitude":"22.03333000"},{"id":"90454","name":"B\u00e2rsa","state_id":4739,"state_code":"AR","country_id":181,"country_code":"RO","latitude":"46.38333000","longitude":"22.06667000"},{"id":"90460","name":"B\u00e2rzava","state_id":4739,"state_code":"AR","country_id":181,"country_code":"RO","latitude":"46.11667000","longitude":"21.98333000"},{"id":"90090","name":"Beliu","state_id":4739,"state_code":"AR","country_id":181,"country_code":"RO","latitude":"46.48333000","longitude":"21.98333000"},{"id":"90139","name":"Birchis","state_id":4739,"state_code":"AR","country_id":181,"country_code":"RO","latitude":"45.96667000","longitude":"22.16667000"},{"id":"90176","name":"Bocsig","state_id":4739,"state_code":"AR","country_id":181,"country_code":"RO","latitude":"46.41667000","longitude":"21.95000000"},{"id":"90279","name":"Brazii","state_id":4739,"state_code":"AR","country_id":181,"country_code":"RO","latitude":"46.23333000","longitude":"22.33333000"},{"id":"90426","name":"Buteni","state_id":4739,"state_code":"AR","country_id":181,"country_code":"RO","latitude":"46.31667000","longitude":"22.11667000"},{"id":"90568","name":"Caporal Alexa","state_id":4739,"state_code":"AR","country_id":181,"country_code":"RO","latitude":"46.33793000","longitude":"21.58316000"},{"id":"93866","name":"Carand","state_id":4739,"state_code":"AR","country_id":181,"country_code":"RO","latitude":"46.45000000","longitude":"22.08333000"},{"id":"90627","name":"Cermei","state_id":4739,"state_code":"AR","country_id":181,"country_code":"RO","latitude":"46.55000000","longitude":"21.85000000"},{"id":"90657","name":"Cherelu\u0219","state_id":4739,"state_code":"AR","country_id":181,"country_code":"RO","latitude":"46.46860000","longitude":"21.70706000"},{"id":"90658","name":"Chesin\u021b","state_id":4739,"state_code":"AR","country_id":181,"country_code":"RO","latitude":"46.04973000","longitude":"21.57944000"},{"id":"90687","name":"Chisineu-Cris","state_id":4739,"state_code":"AR","country_id":181,"country_code":"RO","latitude":"46.52509000","longitude":"21.51844000"},{"id":"90664","name":"Chier","state_id":4739,"state_code":"AR","country_id":181,"country_code":"RO","latitude":"46.34199000","longitude":"21.82488000"},{"id":"90683","name":"Chisindia","state_id":4739,"state_code":"AR","country_id":181,"country_code":"RO","latitude":"46.28333000","longitude":"22.10000000"},{"id":"90704","name":"Cintei","state_id":4739,"state_code":"AR","country_id":181,"country_code":"RO","latitude":"46.44434000","longitude":"21.56556000"},{"id":"90855","name":"Comuna Almas","state_id":4739,"state_code":"AR","country_id":181,"country_code":"RO","latitude":"46.28480000","longitude":"22.23173000"},{"id":"90877","name":"Comuna Apateu","state_id":4739,"state_code":"AR","country_id":181,"country_code":"RO","latitude":"46.62598000","longitude":"21.82530000"},{"id":"90884","name":"Comuna Archis","state_id":4739,"state_code":"AR","country_id":181,"country_code":"RO","latitude":"46.48333000","longitude":"22.09663000"},{"id":"93496","name":"Comuna Sagu","state_id":4739,"state_code":"AR","country_id":181,"country_code":"RO","latitude":"46.04254000","longitude":"21.34239000"},{"id":"93503","name":"Comuna Seitin","state_id":4739,"state_code":"AR","country_id":181,"country_code":"RO","latitude":"46.10858000","longitude":"20.84464000"},{"id":"93508","name":"Comuna Sepreus","state_id":4739,"state_code":"AR","country_id":181,"country_code":"RO","latitude":"46.57125000","longitude":"21.73417000"},{"id":"93533","name":"Comuna Sistarovat","state_id":4739,"state_code":"AR","country_id":181,"country_code":"RO","latitude":"45.98649000","longitude":"21.75589000"},{"id":"93513","name":"Comuna Sicula","state_id":4739,"state_code":"AR","country_id":181,"country_code":"RO","latitude":"46.45723000","longitude":"21.75137000"},{"id":"93519","name":"Comuna Silindia","state_id":4739,"state_code":"AR","country_id":181,"country_code":"RO","latitude":"46.33611000","longitude":"21.93488000"},{"id":"93520","name":"Comuna Simand","state_id":4739,"state_code":"AR","country_id":181,"country_code":"RO","latitude":"46.42400000","longitude":"21.45145000"},{"id":"93529","name":"Comuna Siria","state_id":4739,"state_code":"AR","country_id":181,"country_code":"RO","latitude":"46.28470000","longitude":"21.65419000"},{"id":"93535","name":"Comuna Sofronea","state_id":4739,"state_code":"AR","country_id":181,"country_code":"RO","latitude":"46.26814000","longitude":"21.29059000"},{"id":"90939","name":"Comuna Bata","state_id":4739,"state_code":"AR","country_id":181,"country_code":"RO","latitude":"45.99641000","longitude":"22.07805000"},{"id":"91191","name":"Comuna B\u00e2rsa","state_id":4739,"state_code":"AR","country_id":181,"country_code":"RO","latitude":"46.38410000","longitude":"22.04459000"},{"id":"91197","name":"Comuna B\u00e2rzava","state_id":4739,"state_code":"AR","country_id":181,"country_code":"RO","latitude":"46.09910000","longitude":"22.06096000"},{"id":"90954","name":"Comuna Beliu","state_id":4739,"state_code":"AR","country_id":181,"country_code":"RO","latitude":"46.52965000","longitude":"21.99566000"},{"id":"90992","name":"Comuna Birchis","state_id":4739,"state_code":"AR","country_id":181,"country_code":"RO","latitude":"45.96987000","longitude":"22.16845000"},{"id":"91015","name":"Comuna Bocsig","state_id":4739,"state_code":"AR","country_id":181,"country_code":"RO","latitude":"46.41893000","longitude":"21.98424000"},{"id":"91087","name":"Comuna Brazii","state_id":4739,"state_code":"AR","country_id":181,"country_code":"RO","latitude":"46.22177000","longitude":"22.32613000"},{"id":"91174","name":"Comuna Buteni","state_id":4739,"state_code":"AR","country_id":181,"country_code":"RO","latitude":"46.33119000","longitude":"22.11472000"},{"id":"91586","name":"Comuna Carand","state_id":4739,"state_code":"AR","country_id":181,"country_code":"RO","latitude":"46.45551000","longitude":"22.05755000"},{"id":"91290","name":"Comuna Cermei","state_id":4739,"state_code":"AR","country_id":181,"country_code":"RO","latitude":"46.55433000","longitude":"21.87084000"},{"id":"91326","name":"Comuna Chisindia","state_id":4739,"state_code":"AR","country_id":181,"country_code":"RO","latitude":"46.26509000","longitude":"22.08572000"},{"id":"91412","name":"Comuna Conop","state_id":4739,"state_code":"AR","country_id":181,"country_code":"RO","latitude":"46.10401000","longitude":"21.88047000"},{"id":"91467","name":"Comuna Covasint","state_id":4739,"state_code":"AR","country_id":181,"country_code":"RO","latitude":"46.20571000","longitude":"21.60944000"},{"id":"91485","name":"Comuna Craiva","state_id":4739,"state_code":"AR","country_id":181,"country_code":"RO","latitude":"46.59969000","longitude":"21.97908000"},{"id":"91621","name":"Comuna Dezna","state_id":4739,"state_code":"AR","country_id":181,"country_code":"RO","latitude":"46.40997000","longitude":"22.22726000"},{"id":"91625","name":"Comuna Dieci","state_id":4739,"state_code":"AR","country_id":181,"country_code":"RO","latitude":"46.32071000","longitude":"22.22373000"},{"id":"91666","name":"Comuna Doroban\u021bi","state_id":4739,"state_code":"AR","country_id":181,"country_code":"RO","latitude":"46.35022000","longitude":"21.24441000"},{"id":"91810","name":"Comuna F\u00e2nt\u00e2nele","state_id":4739,"state_code":"AR","country_id":181,"country_code":"RO","latitude":"46.12441000","longitude":"21.38111000"},{"id":"91758","name":"Comuna Felnac","state_id":4739,"state_code":"AR","country_id":181,"country_code":"RO","latitude":"46.12223000","longitude":"21.16704000"},{"id":"91787","name":"Comuna Frumuseni","state_id":4739,"state_code":"AR","country_id":181,"country_code":"RO","latitude":"46.10180000","longitude":"21.45836000"},{"id":"91861","name":"Comuna Ghioroc","state_id":4739,"state_code":"AR","country_id":181,"country_code":"RO","latitude":"46.15322000","longitude":"21.59651000"},{"id":"91943","name":"Comuna Graniceri","state_id":4739,"state_code":"AR","country_id":181,"country_code":"RO","latitude":"46.50539000","longitude":"21.33672000"},{"id":"91957","name":"Comuna Gurahont","state_id":4739,"state_code":"AR","country_id":181,"country_code":"RO","latitude":"46.29220000","longitude":"22.33506000"},{"id":"92046","name":"Comuna Hasmas","state_id":4739,"state_code":"AR","country_id":181,"country_code":"RO","latitude":"46.52217000","longitude":"22.07003000"},{"id":"92038","name":"Comuna Halmagiu","state_id":4739,"state_code":"AR","country_id":181,"country_code":"RO","latitude":"46.27536000","longitude":"22.58183000"},{"id":"92039","name":"Comuna Halmagel","state_id":4739,"state_code":"AR","country_id":181,"country_code":"RO","latitude":"46.27662000","longitude":"22.63180000"},{"id":"92067","name":"Comuna Ignesti","state_id":4739,"state_code":"AR","country_id":181,"country_code":"RO","latitude":"46.43388000","longitude":"22.18227000"},{"id":"92092","name":"Comuna Iratosu","state_id":4739,"state_code":"AR","country_id":181,"country_code":"RO","latitude":"46.29414000","longitude":"21.18750000"},{"id":"92173","name":"Comuna Livada","state_id":4739,"state_code":"AR","country_id":181,"country_code":"RO","latitude":"46.21924000","longitude":"21.38746000"},{"id":"92227","name":"Comuna Macea","state_id":4739,"state_code":"AR","country_id":181,"country_code":"RO","latitude":"46.40094000","longitude":"21.33187000"},{"id":"92310","name":"Comuna Misca","state_id":4739,"state_code":"AR","country_id":181,"country_code":"RO","latitude":"46.62016000","longitude":"21.65353000"},{"id":"92329","name":"Comuna Moneasa","state_id":4739,"state_code":"AR","country_id":181,"country_code":"RO","latitude":"46.44443000","longitude":"22.25323000"},{"id":"92493","name":"Comuna Olari","state_id":4739,"state_code":"AR","country_id":181,"country_code":"RO","latitude":"46.38673000","longitude":"21.54522000"},{"id":"92728","name":"Comuna Paulis","state_id":4739,"state_code":"AR","country_id":181,"country_code":"RO","latitude":"46.12506000","longitude":"21.60246000"},{"id":"92546","name":"Comuna Peregu Mare","state_id":4739,"state_code":"AR","country_id":181,"country_code":"RO","latitude":"46.23377000","longitude":"20.90612000"},{"id":"92566","name":"Comuna Petris","state_id":4739,"state_code":"AR","country_id":181,"country_code":"RO","latitude":"46.06770000","longitude":"22.39523000"},{"id":"92584","name":"Comuna Pilu","state_id":4739,"state_code":"AR","country_id":181,"country_code":"RO","latitude":"46.59727000","longitude":"21.34711000"},{"id":"92593","name":"Comuna Plescuta","state_id":4739,"state_code":"AR","country_id":181,"country_code":"RO","latitude":"46.28315000","longitude":"22.43178000"},{"id":"93118","name":"Comuna Sav\u00e2rsin","state_id":4739,"state_code":"AR","country_id":181,"country_code":"RO","latitude":"46.02527000","longitude":"22.26514000"},{"id":"92916","name":"Comuna Secusigiu","state_id":4739,"state_code":"AR","country_id":181,"country_code":"RO","latitude":"46.09260000","longitude":"21.00295000"},{"id":"92920","name":"Comuna Seleus","state_id":4739,"state_code":"AR","country_id":181,"country_code":"RO","latitude":"46.37886000","longitude":"21.74875000"},{"id":"92921","name":"Comuna Semlac","state_id":4739,"state_code":"AR","country_id":181,"country_code":"RO","latitude":"46.11260000","longitude":"20.93210000"},{"id":"92941","name":"Comuna Sintea Mare","state_id":4739,"state_code":"AR","country_id":181,"country_code":"RO","latitude":"46.51684000","longitude":"21.60800000"},{"id":"92968","name":"Comuna Socodor","state_id":4739,"state_code":"AR","country_id":181,"country_code":"RO","latitude":"46.51010000","longitude":"21.44128000"},{"id":"93128","name":"Comuna Taut","state_id":4739,"state_code":"AR","country_id":181,"country_code":"RO","latitude":"46.26383000","longitude":"21.96747000"},{"id":"93230","name":"Comuna T\u00e2rnova","state_id":4739,"state_code":"AR","country_id":181,"country_code":"RO","latitude":"46.29054000","longitude":"21.80388000"},{"id":"93288","name":"Comuna Ususau","state_id":4739,"state_code":"AR","country_id":181,"country_code":"RO","latitude":"46.06781000","longitude":"21.81490000"},{"id":"93441","name":"Comuna V\u00e2rfurile","state_id":4739,"state_code":"AR","country_id":181,"country_code":"RO","latitude":"46.33689000","longitude":"22.51984000"},{"id":"93465","name":"Comuna Varadia de Mures","state_id":4739,"state_code":"AR","country_id":181,"country_code":"RO","latitude":"46.04619000","longitude":"22.15651000"},{"id":"93365","name":"Comuna Vinga","state_id":4739,"state_code":"AR","country_id":181,"country_code":"RO","latitude":"46.02249000","longitude":"21.15244000"},{"id":"93383","name":"Comuna Vladimirescu","state_id":4739,"state_code":"AR","country_id":181,"country_code":"RO","latitude":"46.16509000","longitude":"21.40411000"},{"id":"93484","name":"Comuna Zabrani","state_id":4739,"state_code":"AR","country_id":181,"country_code":"RO","latitude":"46.06310000","longitude":"21.58529000"},{"id":"93485","name":"Comuna Zadareni","state_id":4739,"state_code":"AR","country_id":181,"country_code":"RO","latitude":"46.13077000","longitude":"21.20866000"},{"id":"93488","name":"Comuna Zarand","state_id":4739,"state_code":"AR","country_id":181,"country_code":"RO","latitude":"46.43911000","longitude":"21.56909000"},{"id":"93474","name":"Comuna Zerind","state_id":4739,"state_code":"AR","country_id":181,"country_code":"RO","latitude":"46.63087000","longitude":"21.50777000"},{"id":"93477","name":"Comuna Zimandu Nou","state_id":4739,"state_code":"AR","country_id":181,"country_code":"RO","latitude":"46.27496000","longitude":"21.39162000"},{"id":"93592","name":"Conop","state_id":4739,"state_code":"AR","country_id":181,"country_code":"RO","latitude":"46.10186000","longitude":"21.87970000"},{"id":"93682","name":"Covasint","state_id":4739,"state_code":"AR","country_id":181,"country_code":"RO","latitude":"46.20000000","longitude":"21.60000000"},{"id":"93705","name":"Craiva","state_id":4739,"state_code":"AR","country_id":181,"country_code":"RO","latitude":"46.58333000","longitude":"21.96667000"},{"id":"93776","name":"Curtici","state_id":4739,"state_code":"AR","country_id":181,"country_code":"RO","latitude":"46.35000000","longitude":"21.30000000"},{"id":"93782","name":"Cuvin","state_id":4739,"state_code":"AR","country_id":181,"country_code":"RO","latitude":"46.17001000","longitude":"21.59360000"},{"id":"93932","name":"Dezna","state_id":4739,"state_code":"AR","country_id":181,"country_code":"RO","latitude":"46.40000000","longitude":"22.25000000"},{"id":"93936","name":"Dieci","state_id":4739,"state_code":"AR","country_id":181,"country_code":"RO","latitude":"46.31667000","longitude":"22.25000000"},{"id":"93996","name":"Dorgos","state_id":4739,"state_code":"AR","country_id":181,"country_code":"RO","latitude":"46.05000000","longitude":"21.83333000"},{"id":"94003","name":"Doroban\u021bi","state_id":4739,"state_code":"AR","country_id":181,"country_code":"RO","latitude":"46.35022000","longitude":"21.24441000"},{"id":"94029","name":"Drau\u021b","state_id":4739,"state_code":"AR","country_id":181,"country_code":"RO","latitude":"46.26048000","longitude":"21.80924000"},{"id":"97140","name":"\u021aipar","state_id":4739,"state_code":"AR","country_id":181,"country_code":"RO","latitude":"46.47563000","longitude":"21.63431000"},{"id":"97116","name":"\u0218epreu\u0219","state_id":4739,"state_code":"AR","country_id":181,"country_code":"RO","latitude":"46.57125000","longitude":"21.73417000"},{"id":"97121","name":"\u0218iclau","state_id":4739,"state_code":"AR","country_id":181,"country_code":"RO","latitude":"46.49124000","longitude":"21.36834000"},{"id":"94238","name":"F\u00e2nt\u00e2nele","state_id":4739,"state_code":"AR","country_id":181,"country_code":"RO","latitude":"46.12370000","longitude":"21.38420000"},{"id":"94156","name":"Felnac","state_id":4739,"state_code":"AR","country_id":181,"country_code":"RO","latitude":"46.11667000","longitude":"21.15000000"},{"id":"94214","name":"Frumu\u0219eni","state_id":4739,"state_code":"AR","country_id":181,"country_code":"RO","latitude":"46.10252000","longitude":"21.46167000"},{"id":"94281","name":"Gal\u0219a","state_id":4739,"state_code":"AR","country_id":181,"country_code":"RO","latitude":"46.28810000","longitude":"21.65137000"},{"id":"94333","name":"Ghioroc","state_id":4739,"state_code":"AR","country_id":181,"country_code":"RO","latitude":"46.15000000","longitude":"21.58333000"},{"id":"94444","name":"Graniceri","state_id":4739,"state_code":"AR","country_id":181,"country_code":"RO","latitude":"46.51667000","longitude":"21.30000000"},{"id":"94468","name":"Gurahont","state_id":4739,"state_code":"AR","country_id":181,"country_code":"RO","latitude":"46.26667000","longitude":"22.35000000"},{"id":"94470","name":"Gurba","state_id":4739,"state_code":"AR","country_id":181,"country_code":"RO","latitude":"46.46756000","longitude":"21.78789000"},{"id":"94610","name":"Ha\u0219ma\u0219","state_id":4739,"state_code":"AR","country_id":181,"country_code":"RO","latitude":"46.50000000","longitude":"22.08333000"},{"id":"94599","name":"Halmagiu","state_id":4739,"state_code":"AR","country_id":181,"country_code":"RO","latitude":"46.26667000","longitude":"22.58333000"},{"id":"94600","name":"Halmagel","state_id":4739,"state_code":"AR","country_id":181,"country_code":"RO","latitude":"46.26667000","longitude":"22.61667000"},{"id":"94561","name":"Horia","state_id":4739,"state_code":"AR","country_id":181,"country_code":"RO","latitude":"46.20847000","longitude":"21.46287000"},{"id":"94650","name":"Ignesti","state_id":4739,"state_code":"AR","country_id":181,"country_code":"RO","latitude":"46.40000000","longitude":"22.16667000"},{"id":"94667","name":"Ineu","state_id":4739,"state_code":"AR","country_id":181,"country_code":"RO","latitude":"46.43372000","longitude":"21.84048000"},{"id":"94686","name":"Iratosu","state_id":4739,"state_code":"AR","country_id":181,"country_code":"RO","latitude":"46.31667000","longitude":"21.20000000"},{"id":"94804","name":"Lipova","state_id":4739,"state_code":"AR","country_id":181,"country_code":"RO","latitude":"46.09085000","longitude":"21.69628000"},{"id":"94814","name":"Livada","state_id":4739,"state_code":"AR","country_id":181,"country_code":"RO","latitude":"46.22284000","longitude":"21.38403000"},{"id":"94903","name":"Macea","state_id":4739,"state_code":"AR","country_id":181,"country_code":"RO","latitude":"46.38333000","longitude":"21.30000000"},{"id":"94908","name":"Mailat","state_id":4739,"state_code":"AR","country_id":181,"country_code":"RO","latitude":"46.04189000","longitude":"21.10702000"},{"id":"95215","name":"M\u00e2ndruloc","state_id":4739,"state_code":"AR","country_id":181,"country_code":"RO","latitude":"46.14863000","longitude":"21.46570000"},{"id":"95226","name":"M\u00e2sca","state_id":4739,"state_code":"AR","country_id":181,"country_code":"RO","latitude":"46.30000000","longitude":"21.68333000"},{"id":"95230","name":"Maderat","state_id":4739,"state_code":"AR","country_id":181,"country_code":"RO","latitude":"46.29493000","longitude":"21.71137000"},{"id":"95264","name":"Mana\u0219tur","state_id":4739,"state_code":"AR","country_id":181,"country_code":"RO","latitude":"46.00949000","longitude":"21.13362000"},{"id":"95035","name":"Mi\u0219ca","state_id":4739,"state_code":"AR","country_id":181,"country_code":"RO","latitude":"46.60280000","longitude":"21.59998000"},{"id":"95068","name":"Moneasa","state_id":4739,"state_code":"AR","country_id":181,"country_code":"RO","latitude":"46.45000000","longitude":"22.25000000"},{"id":"95109","name":"Municipiul Arad","state_id":4739,"state_code":"AR","country_id":181,"country_code":"RO","latitude":"46.17745000","longitude":"21.31348000"},{"id":"95296","name":"Nadab","state_id":4739,"state_code":"AR","country_id":181,"country_code":"RO","latitude":"46.48195000","longitude":"21.51178000"},{"id":"95297","name":"Nada\u0219","state_id":4739,"state_code":"AR","country_id":181,"country_code":"RO","latitude":"46.22490000","longitude":"21.95036000"},{"id":"95367","name":"Nadlac","state_id":4739,"state_code":"AR","country_id":181,"country_code":"RO","latitude":"46.16667000","longitude":"20.75000000"},{"id":"95332","name":"Neudorf","state_id":4739,"state_code":"AR","country_id":181,"country_code":"RO","latitude":"46.06960000","longitude":"21.61899000"},{"id":"95424","name":"Olari","state_id":4739,"state_code":"AR","country_id":181,"country_code":"RO","latitude":"46.38333000","longitude":"21.55000000"},{"id":"95492","name":"Oras Chisineu-Cris","state_id":4739,"state_code":"AR","country_id":181,"country_code":"RO","latitude":"46.52178000","longitude":"21.51295000"},{"id":"95502","name":"Oras Curtici","state_id":4739,"state_code":"AR","country_id":181,"country_code":"RO","latitude":"46.34358000","longitude":"21.31051000"},{"id":"95534","name":"Oras Ineu","state_id":4739,"state_code":"AR","country_id":181,"country_code":"RO","latitude":"46.42709000","longitude":"21.84185000"},{"id":"95538","name":"Oras Lipova","state_id":4739,"state_code":"AR","country_id":181,"country_code":"RO","latitude":"46.09061000","longitude":"21.69465000"},{"id":"95553","name":"Oras N\u00e3dlac","state_id":4739,"state_code":"AR","country_id":181,"country_code":"RO","latitude":"46.16664000","longitude":"20.74871000"},{"id":"95575","name":"Oras P\u00e2ncota","state_id":4739,"state_code":"AR","country_id":181,"country_code":"RO","latitude":"46.31205000","longitude":"21.70163000"},{"id":"95597","name":"Oras S\u00e2ntana","state_id":4739,"state_code":"AR","country_id":181,"country_code":"RO","latitude":"46.34622000","longitude":"21.50402000"},{"id":"95585","name":"Oras Sebis","state_id":4739,"state_code":"AR","country_id":181,"country_code":"RO","latitude":"46.38771000","longitude":"22.15480000"},{"id":"95994","name":"P\u00e2ncota","state_id":4739,"state_code":"AR","country_id":181,"country_code":"RO","latitude":"46.33333000","longitude":"21.70000000"},{"id":"96032","name":"Paulis","state_id":4739,"state_code":"AR","country_id":181,"country_code":"RO","latitude":"46.11667000","longitude":"21.58333000"},{"id":"95722","name":"Pecica","state_id":4739,"state_code":"AR","country_id":181,"country_code":"RO","latitude":"46.16667000","longitude":"21.06667000"},{"id":"95725","name":"Peregu Mare","state_id":4739,"state_code":"AR","country_id":181,"country_code":"RO","latitude":"46.23333000","longitude":"20.90000000"},{"id":"95726","name":"Peregu Mic","state_id":4739,"state_code":"AR","country_id":181,"country_code":"RO","latitude":"46.25021000","longitude":"20.94885000"},{"id":"95753","name":"Petris","state_id":4739,"state_code":"AR","country_id":181,"country_code":"RO","latitude":"46.05000000","longitude":"22.38333000"},{"id":"95793","name":"Pilu","state_id":4739,"state_code":"AR","country_id":181,"country_code":"RO","latitude":"46.56667000","longitude":"21.35000000"},{"id":"95811","name":"Plescuta","state_id":4739,"state_code":"AR","country_id":181,"country_code":"RO","latitude":"46.30000000","longitude":"22.43333000"},{"id":"96051","name":"Radna","state_id":4739,"state_code":"AR","country_id":181,"country_code":"RO","latitude":"46.09444000","longitude":"21.68732000"},{"id":"96254","name":"Satu Mare","state_id":4739,"state_code":"AR","country_id":181,"country_code":"RO","latitude":"46.06628000","longitude":"20.95826000"},{"id":"96521","name":"S\u00e2mbateni","state_id":4739,"state_code":"AR","country_id":181,"country_code":"RO","latitude":"46.14110000","longitude":"21.52689000"},{"id":"96532","name":"S\u00e2nmartin","state_id":4739,"state_code":"AR","country_id":181,"country_code":"RO","latitude":"46.41653000","longitude":"21.34821000"},{"id":"96544","name":"S\u00e2npetru German","state_id":4739,"state_code":"AR","country_id":181,"country_code":"RO","latitude":"46.11327000","longitude":"21.04932000"},{"id":"105976","name":"S\u00e2ntana","state_id":4739,"state_code":"AR","country_id":181,"country_code":"RO","latitude":"46.35000000","longitude":"21.50000000"},{"id":"106048","name":"Sav\u00e2rsin","state_id":4739,"state_code":"AR","country_id":181,"country_code":"RO","latitude":"46.01667000","longitude":"22.23333000"},{"id":"96304","name":"Sebis","state_id":4739,"state_code":"AR","country_id":181,"country_code":"RO","latitude":"46.36667000","longitude":"22.11667000"},{"id":"96317","name":"Secusigiu","state_id":4739,"state_code":"AR","country_id":181,"country_code":"RO","latitude":"46.08333000","longitude":"20.98333000"},{"id":"96324","name":"Seleus","state_id":4739,"state_code":"AR","country_id":181,"country_code":"RO","latitude":"46.38333000","longitude":"21.71667000"},{"id":"96325","name":"Semlac","state_id":4739,"state_code":"AR","country_id":181,"country_code":"RO","latitude":"46.11667000","longitude":"20.93333000"},{"id":"96356","name":"Sintea Mare","state_id":4739,"state_code":"AR","country_id":181,"country_code":"RO","latitude":"46.51667000","longitude":"21.60000000"},{"id":"96396","name":"Socodor","state_id":4739,"state_code":"AR","country_id":181,"country_code":"RO","latitude":"46.51667000","longitude":"21.43333000"},{"id":"106063","name":"Taut","state_id":4739,"state_code":"AR","country_id":181,"country_code":"RO","latitude":"46.28333000","longitude":"21.91667000"},{"id":"96595","name":"T\u00e2rnova","state_id":4739,"state_code":"AR","country_id":181,"country_code":"RO","latitude":"46.31667000","longitude":"21.80000000"},{"id":"96564","name":"Turnu","state_id":4739,"state_code":"AR","country_id":181,"country_code":"RO","latitude":"46.25764000","longitude":"21.12657000"},{"id":"96691","name":"Ususau","state_id":4739,"state_code":"AR","country_id":181,"country_code":"RO","latitude":"46.07063000","longitude":"21.81371000"},{"id":"96932","name":"V\u00e2natori","state_id":4739,"state_code":"AR","country_id":181,"country_code":"RO","latitude":"46.62456000","longitude":"21.67332000"},{"id":"96940","name":"V\u00e2rfurile","state_id":4739,"state_code":"AR","country_id":181,"country_code":"RO","latitude":"46.31667000","longitude":"22.51667000"},{"id":"96973","name":"Varadia de Mures","state_id":4739,"state_code":"AR","country_id":181,"country_code":"RO","latitude":"46.01667000","longitude":"22.15000000"},{"id":"96832","name":"Vinga","state_id":4739,"state_code":"AR","country_id":181,"country_code":"RO","latitude":"46.01667000","longitude":"21.20000000"},{"id":"96857","name":"Vladimirescu","state_id":4739,"state_code":"AR","country_id":181,"country_code":"RO","latitude":"46.16628000","longitude":"21.40102000"},{"id":"97009","name":"Zabrani","state_id":4739,"state_code":"AR","country_id":181,"country_code":"RO","latitude":"46.06667000","longitude":"21.55000000"},{"id":"97010","name":"Zadareni","state_id":4739,"state_code":"AR","country_id":181,"country_code":"RO","latitude":"46.13274000","longitude":"21.21821000"},{"id":"97014","name":"Zarand","state_id":4739,"state_code":"AR","country_id":181,"country_code":"RO","latitude":"46.40000000","longitude":"21.65000000"},{"id":"96989","name":"Zerind","state_id":4739,"state_code":"AR","country_id":181,"country_code":"RO","latitude":"46.61667000","longitude":"21.51667000"},{"id":"96993","name":"Zimandu Nou","state_id":4739,"state_code":"AR","country_id":181,"country_code":"RO","latitude":"46.28333000","longitude":"21.40000000"}]