[{"id":"89889","name":"Ada\u0219eni","state_id":4740,"state_code":"BT","country_id":181,"country_code":"RO","latitude":"48.06920000","longitude":"26.93789000"},{"id":"89909","name":"Alba","state_id":4740,"state_code":"BT","country_id":181,"country_code":"RO","latitude":"48.15859000","longitude":"26.47736000"},{"id":"89916","name":"Albesti","state_id":4740,"state_code":"BT","country_id":181,"country_code":"RO","latitude":"47.70000000","longitude":"27.06667000"},{"id":"90009","name":"Avrameni","state_id":4740,"state_code":"BT","country_id":181,"country_code":"RO","latitude":"48.01667000","longitude":"26.95000000"},{"id":"97038","name":"Sendriceni","state_id":4740,"state_code":"BT","country_id":181,"country_code":"RO","latitude":"47.95171000","longitude":"26.32817000"},{"id":"97086","name":"Stefanesti-Sat","state_id":4740,"state_code":"BT","country_id":181,"country_code":"RO","latitude":"47.78333000","longitude":"27.18333000"},{"id":"97088","name":"Stiubieni","state_id":4740,"state_code":"BT","country_id":181,"country_code":"RO","latitude":"47.96667000","longitude":"26.78333000"},{"id":"90035","name":"Bajura","state_id":4740,"state_code":"BT","country_id":181,"country_code":"RO","latitude":"48.20119000","longitude":"26.53987000"},{"id":"90057","name":"Baranca","state_id":4740,"state_code":"BT","country_id":181,"country_code":"RO","latitude":"48.19651000","longitude":"26.47893000"},{"id":"90517","name":"Baluseni","state_id":4740,"state_code":"BT","country_id":181,"country_code":"RO","latitude":"47.66667000","longitude":"26.80000000"},{"id":"90160","name":"Bl\u00e2ndesti","state_id":4740,"state_code":"BT","country_id":181,"country_code":"RO","latitude":"47.70000000","longitude":"26.86667000"},{"id":"90173","name":"Bobule\u0219ti","state_id":4740,"state_code":"BT","country_id":181,"country_code":"RO","latitude":"47.75135000","longitude":"27.22697000"},{"id":"90248","name":"Botosani","state_id":4740,"state_code":"BT","country_id":181,"country_code":"RO","latitude":"47.75000000","longitude":"26.66667000"},{"id":"90328","name":"Braesti","state_id":4740,"state_code":"BT","country_id":181,"country_code":"RO","latitude":"47.86667000","longitude":"26.45000000"},{"id":"90296","name":"Brehuie\u0219ti","state_id":4740,"state_code":"BT","country_id":181,"country_code":"RO","latitude":"47.70194000","longitude":"26.54472000"},{"id":"90307","name":"Broscauti","state_id":4740,"state_code":"BT","country_id":181,"country_code":"RO","latitude":"47.95000000","longitude":"26.45000000"},{"id":"90343","name":"Bucecea","state_id":4740,"state_code":"BT","country_id":181,"country_code":"RO","latitude":"47.76667000","longitude":"26.43333000"},{"id":"90359","name":"Bucovineni","state_id":4740,"state_code":"BT","country_id":181,"country_code":"RO","latitude":"47.85000000","longitude":"26.33333000"},{"id":"93806","name":"C\u00e2ndesti","state_id":4740,"state_code":"BT","country_id":181,"country_code":"RO","latitude":"47.93333000","longitude":"26.20000000"},{"id":"93849","name":"Calarasi","state_id":4740,"state_code":"BT","country_id":181,"country_code":"RO","latitude":"47.61667000","longitude":"27.26667000"},{"id":"93881","name":"Catamare\u0219ti-Deal","state_id":4740,"state_code":"BT","country_id":181,"country_code":"RO","latitude":"47.76999000","longitude":"26.59897000"},{"id":"93696","name":"Cotusca","state_id":4740,"state_code":"BT","country_id":181,"country_code":"RO","latitude":"48.13333000","longitude":"26.85000000"},{"id":"93699","name":"Co\u0219ula","state_id":4740,"state_code":"BT","country_id":181,"country_code":"RO","latitude":"47.62570000","longitude":"26.77827000"},{"id":"90826","name":"Comuna Adaseni","state_id":4740,"state_code":"BT","country_id":181,"country_code":"RO","latitude":"48.06287000","longitude":"26.95205000"},{"id":"90839","name":"Comuna Albesti","state_id":4740,"state_code":"BT","country_id":181,"country_code":"RO","latitude":"47.68387000","longitude":"27.08704000"},{"id":"90906","name":"Comuna Avrameni","state_id":4740,"state_code":"BT","country_id":181,"country_code":"RO","latitude":"48.02439000","longitude":"26.95734000"},{"id":"93507","name":"Comuna Sendriceni","state_id":4740,"state_code":"BT","country_id":181,"country_code":"RO","latitude":"47.94657000","longitude":"26.32957000"},{"id":"93556","name":"Comuna Stiubieni","state_id":4740,"state_code":"BT","country_id":181,"country_code":"RO","latitude":"47.97903000","longitude":"26.76420000"},{"id":"91220","name":"Comuna Baluseni","state_id":4740,"state_code":"BT","country_id":181,"country_code":"RO","latitude":"47.67758000","longitude":"26.77855000"},{"id":"91004","name":"Comuna Bl\u00e2ndesti","state_id":4740,"state_code":"BT","country_id":181,"country_code":"RO","latitude":"47.71218000","longitude":"26.89193000"},{"id":"91119","name":"Comuna Braesti","state_id":4740,"state_code":"BT","country_id":181,"country_code":"RO","latitude":"47.84903000","longitude":"26.45715000"},{"id":"91102","name":"Comuna Broscauti","state_id":4740,"state_code":"BT","country_id":181,"country_code":"RO","latitude":"47.95596000","longitude":"26.46648000"},{"id":"91547","name":"Comuna C\u00e2ndesti","state_id":4740,"state_code":"BT","country_id":181,"country_code":"RO","latitude":"47.92325000","longitude":"26.22050000"},{"id":"91576","name":"Comuna Calarasi","state_id":4740,"state_code":"BT","country_id":181,"country_code":"RO","latitude":"47.60340000","longitude":"27.27766000"},{"id":"91479","name":"Comuna Cosula","state_id":4740,"state_code":"BT","country_id":181,"country_code":"RO","latitude":"47.61915000","longitude":"26.78553000"},{"id":"91483","name":"Comuna Cotusca","state_id":4740,"state_code":"BT","country_id":181,"country_code":"RO","latitude":"48.12109000","longitude":"26.87179000"},{"id":"91411","name":"Comuna Concesti","state_id":4740,"state_code":"BT","country_id":181,"country_code":"RO","latitude":"48.14676000","longitude":"26.57937000"},{"id":"91421","name":"Comuna Copalau","state_id":4740,"state_code":"BT","country_id":181,"country_code":"RO","latitude":"47.61120000","longitude":"26.86778000"},{"id":"91433","name":"Comuna Corlateni","state_id":4740,"state_code":"BT","country_id":181,"country_code":"RO","latitude":"47.93121000","longitude":"26.58515000"},{"id":"91441","name":"Comuna Corni","state_id":4740,"state_code":"BT","country_id":181,"country_code":"RO","latitude":"47.64025000","longitude":"26.60869000"},{"id":"91497","name":"Comuna Cristesti","state_id":4740,"state_code":"BT","country_id":181,"country_code":"RO","latitude":"47.61482000","longitude":"26.71546000"},{"id":"91500","name":"Comuna Cristinesti","state_id":4740,"state_code":"BT","country_id":181,"country_code":"RO","latitude":"48.10199000","longitude":"26.36951000"},{"id":"91529","name":"Comuna Curtesti","state_id":4740,"state_code":"BT","country_id":181,"country_code":"RO","latitude":"47.70275000","longitude":"26.64109000"},{"id":"91727","name":"Comuna D\u00e2ngeni","state_id":4740,"state_code":"BT","country_id":181,"country_code":"RO","latitude":"47.84762000","longitude":"26.94817000"},{"id":"91616","name":"Comuna Dersca","state_id":4740,"state_code":"BT","country_id":181,"country_code":"RO","latitude":"47.98958000","longitude":"26.21496000"},{"id":"91627","name":"Comuna Dimacheni","state_id":4740,"state_code":"BT","country_id":181,"country_code":"RO","latitude":"47.91832000","longitude":"26.54362000"},{"id":"91646","name":"Comuna Dob\u00e2rceni","state_id":4740,"state_code":"BT","country_id":181,"country_code":"RO","latitude":"47.83289000","longitude":"27.07611000"},{"id":"91696","name":"Comuna Draguseni","state_id":4740,"state_code":"BT","country_id":181,"country_code":"RO","latitude":"48.03290000","longitude":"26.81987000"},{"id":"91725","name":"Comuna Durnesti","state_id":4740,"state_code":"BT","country_id":181,"country_code":"RO","latitude":"47.76992000","longitude":"27.09406000"},{"id":"91788","name":"Comuna Frumusica","state_id":4740,"state_code":"BT","country_id":181,"country_code":"RO","latitude":"47.52602000","longitude":"26.87967000"},{"id":"91838","name":"Comuna George Enescu","state_id":4740,"state_code":"BT","country_id":181,"country_code":"RO","latitude":"48.03617000","longitude":"26.51437000"},{"id":"91901","name":"Comuna Gorbanesti","state_id":4740,"state_code":"BT","country_id":181,"country_code":"RO","latitude":"47.77450000","longitude":"26.88143000"},{"id":"91993","name":"Comuna Hav\u00e2rna","state_id":4740,"state_code":"BT","country_id":181,"country_code":"RO","latitude":"48.05683000","longitude":"26.68314000"},{"id":"92041","name":"Comuna Hanesti","state_id":4740,"state_code":"BT","country_id":181,"country_code":"RO","latitude":"47.91987000","longitude":"27.01151000"},{"id":"92001","name":"Comuna Hiliseu-Horia","state_id":4740,"state_code":"BT","country_id":181,"country_code":"RO","latitude":"48.01336000","longitude":"26.29685000"},{"id":"92003","name":"Comuna Hlipiceni","state_id":4740,"state_code":"BT","country_id":181,"country_code":"RO","latitude":"47.60401000","longitude":"27.17080000"},{"id":"92026","name":"Comuna Hudesti","state_id":4740,"state_code":"BT","country_id":181,"country_code":"RO","latitude":"48.15280000","longitude":"26.50102000"},{"id":"92058","name":"Comuna Ibanesti","state_id":4740,"state_code":"BT","country_id":181,"country_code":"RO","latitude":"48.04435000","longitude":"26.40450000"},{"id":"92151","name":"Comuna Leorda","state_id":4740,"state_code":"BT","country_id":181,"country_code":"RO","latitude":"47.81862000","longitude":"26.45408000"},{"id":"92187","name":"Comuna Lozna","state_id":4740,"state_code":"BT","country_id":181,"country_code":"RO","latitude":"47.94410000","longitude":"26.28694000"},{"id":"92199","name":"Comuna Lunca","state_id":4740,"state_code":"BT","country_id":181,"country_code":"RO","latitude":"47.62751000","longitude":"26.99240000"},{"id":"92239","name":"Comuna Manoleasa","state_id":4740,"state_code":"BT","country_id":181,"country_code":"RO","latitude":"48.00852000","longitude":"27.07951000"},{"id":"92272","name":"Comuna Mihai Eminescu","state_id":4740,"state_code":"BT","country_id":181,"country_code":"RO","latitude":"47.76632000","longitude":"26.56267000"},{"id":"92283","name":"Comuna Mihaileni","state_id":4740,"state_code":"BT","country_id":181,"country_code":"RO","latitude":"47.95552000","longitude":"26.16204000"},{"id":"92286","name":"Comuna Mihalaseni","state_id":4740,"state_code":"BT","country_id":181,"country_code":"RO","latitude":"47.87956000","longitude":"27.09620000"},{"id":"92291","name":"Comuna Mileanca","state_id":4740,"state_code":"BT","country_id":181,"country_code":"RO","latitude":"48.09121000","longitude":"26.72965000"},{"id":"92306","name":"Comuna Mitoc","state_id":4740,"state_code":"BT","country_id":181,"country_code":"RO","latitude":"48.11288000","longitude":"27.00423000"},{"id":"92447","name":"Comuna Nicseni","state_id":4740,"state_code":"BT","country_id":181,"country_code":"RO","latitude":"47.86170000","longitude":"26.66023000"},{"id":"92717","name":"Comuna Paltinis","state_id":4740,"state_code":"BT","country_id":181,"country_code":"RO","latitude":"48.23494000","longitude":"26.68555000"},{"id":"92649","name":"Comuna Pom\u00e2rla","state_id":4740,"state_code":"BT","country_id":181,"country_code":"RO","latitude":"48.06225000","longitude":"26.32090000"},{"id":"92688","name":"Comuna Prajeni","state_id":4740,"state_code":"BT","country_id":181,"country_code":"RO","latitude":"47.49577000","longitude":"27.02386000"},{"id":"92831","name":"Comuna R\u00e3d\u00e3uti-Prut","state_id":4740,"state_code":"BT","country_id":181,"country_code":"RO","latitude":"48.22492000","longitude":"26.81304000"},{"id":"92838","name":"Comuna Rachiti","state_id":4740,"state_code":"BT","country_id":181,"country_code":"RO","latitude":"47.77282000","longitude":"26.68847000"},{"id":"92853","name":"Comuna Rauseni","state_id":4740,"state_code":"BT","country_id":181,"country_code":"RO","latitude":"47.55941000","longitude":"27.22551000"},{"id":"92772","name":"Comuna Ripiceni","state_id":4740,"state_code":"BT","country_id":181,"country_code":"RO","latitude":"47.91899000","longitude":"27.13958000"},{"id":"92781","name":"Comuna Roma","state_id":4740,"state_code":"BT","country_id":181,"country_code":"RO","latitude":"47.84497000","longitude":"26.57084000"},{"id":"92786","name":"Comuna Rom\u00e2nesti","state_id":4740,"state_code":"BT","country_id":181,"country_code":"RO","latitude":"47.70860000","longitude":"27.23491000"},{"id":"92871","name":"Comuna Santa Mare","state_id":4740,"state_code":"BT","country_id":181,"country_code":"RO","latitude":"47.63308000","longitude":"27.30260000"},{"id":"93022","name":"Comuna Stauceni","state_id":4740,"state_code":"BT","country_id":181,"country_code":"RO","latitude":"47.72142000","longitude":"26.77471000"},{"id":"93030","name":"Comuna Suharau","state_id":4740,"state_code":"BT","country_id":181,"country_code":"RO","latitude":"48.11697000","longitude":"26.44743000"},{"id":"93032","name":"Comuna Sulita","state_id":4740,"state_code":"BT","country_id":181,"country_code":"RO","latitude":"47.63723000","longitude":"26.93510000"},{"id":"93162","name":"Comuna Todireni","state_id":4740,"state_code":"BT","country_id":181,"country_code":"RO","latitude":"47.61386000","longitude":"27.10122000"},{"id":"93197","name":"Comuna Trusesti","state_id":4740,"state_code":"BT","country_id":181,"country_code":"RO","latitude":"47.78058000","longitude":"26.98911000"},{"id":"93200","name":"Comuna Tudora","state_id":4740,"state_code":"BT","country_id":181,"country_code":"RO","latitude":"47.50773000","longitude":"26.63397000"},{"id":"93278","name":"Comuna Unteni","state_id":4740,"state_code":"BT","country_id":181,"country_code":"RO","latitude":"47.81164000","longitude":"26.77886000"},{"id":"93271","name":"Comuna Ungureni","state_id":4740,"state_code":"BT","country_id":181,"country_code":"RO","latitude":"47.90384000","longitude":"26.76051000"},{"id":"93439","name":"Comuna V\u00e2rfu C\u00e2mpului","state_id":4740,"state_code":"BT","country_id":181,"country_code":"RO","latitude":"47.86108000","longitude":"26.31529000"},{"id":"93450","name":"Comuna Vaculesti","state_id":4740,"state_code":"BT","country_id":181,"country_code":"RO","latitude":"47.88229000","longitude":"26.38590000"},{"id":"93362","name":"Comuna Viisoara","state_id":4740,"state_code":"BT","country_id":181,"country_code":"RO","latitude":"48.16752000","longitude":"26.74267000"},{"id":"93385","name":"Comuna Vladeni","state_id":4740,"state_code":"BT","country_id":181,"country_code":"RO","latitude":"47.72216000","longitude":"26.50880000"},{"id":"93393","name":"Comuna Vlasinesti","state_id":4740,"state_code":"BT","country_id":181,"country_code":"RO","latitude":"47.93988000","longitude":"26.91901000"},{"id":"93405","name":"Comuna Vorniceni","state_id":4740,"state_code":"BT","country_id":181,"country_code":"RO","latitude":"47.96004000","longitude":"26.64699000"},{"id":"93406","name":"Comuna Vorona","state_id":4740,"state_code":"BT","country_id":181,"country_code":"RO","latitude":"47.57859000","longitude":"26.61380000"},{"id":"93582","name":"Comuna Cordareni","state_id":4740,"state_code":"BT","country_id":181,"country_code":"RO","latitude":"48.00420000","longitude":"26.59106000"},{"id":"93589","name":"Concesti","state_id":4740,"state_code":"BT","country_id":181,"country_code":"RO","latitude":"48.16667000","longitude":"26.55000000"},{"id":"93608","name":"Copalau","state_id":4740,"state_code":"BT","country_id":181,"country_code":"RO","latitude":"47.61667000","longitude":"26.83333000"},{"id":"93624","name":"Cordareni","state_id":4740,"state_code":"BT","country_id":181,"country_code":"RO","latitude":"47.98333000","longitude":"26.58333000"},{"id":"93626","name":"Corlateni","state_id":4740,"state_code":"BT","country_id":181,"country_code":"RO","latitude":"47.93333000","longitude":"26.55000000"},{"id":"93636","name":"Corni","state_id":4740,"state_code":"BT","country_id":181,"country_code":"RO","latitude":"47.65000000","longitude":"26.58333000"},{"id":"93663","name":"Coste\u0219ti","state_id":4740,"state_code":"BT","country_id":181,"country_code":"RO","latitude":"47.80032000","longitude":"26.67584000"},{"id":"93718","name":"Cristesti","state_id":4740,"state_code":"BT","country_id":181,"country_code":"RO","latitude":"47.63333000","longitude":"26.73333000"},{"id":"93724","name":"Cristinesti","state_id":4740,"state_code":"BT","country_id":181,"country_code":"RO","latitude":"48.10000000","longitude":"26.38333000"},{"id":"93775","name":"Curtesti","state_id":4740,"state_code":"BT","country_id":181,"country_code":"RO","latitude":"47.71667000","longitude":"26.65000000"},{"id":"93894","name":"Darabani","state_id":4740,"state_code":"BT","country_id":181,"country_code":"RO","latitude":"48.18333000","longitude":"26.58333000"},{"id":"94108","name":"D\u00e2ngeni","state_id":4740,"state_code":"BT","country_id":181,"country_code":"RO","latitude":"47.85000000","longitude":"26.96667000"},{"id":"93923","name":"Dersca","state_id":4740,"state_code":"BT","country_id":181,"country_code":"RO","latitude":"47.98333000","longitude":"26.20000000"},{"id":"93937","name":"Dimacheni","state_id":4740,"state_code":"BT","country_id":181,"country_code":"RO","latitude":"47.91139000","longitude":"26.54560000"},{"id":"93972","name":"Dob\u00e2rceni","state_id":4740,"state_code":"BT","country_id":181,"country_code":"RO","latitude":"47.81667000","longitude":"27.06667000"},{"id":"94002","name":"Doroban\u021bi","state_id":4740,"state_code":"BT","country_id":181,"country_code":"RO","latitude":"47.88234000","longitude":"26.64723000"},{"id":"94006","name":"Dorohoi","state_id":4740,"state_code":"BT","country_id":181,"country_code":"RO","latitude":"47.95000000","longitude":"26.40000000"},{"id":"94010","name":"Drac\u0219ani","state_id":4740,"state_code":"BT","country_id":181,"country_code":"RO","latitude":"47.62945000","longitude":"26.93029000"},{"id":"94030","name":"Draxini","state_id":4740,"state_code":"BT","country_id":181,"country_code":"RO","latitude":"47.65000000","longitude":"26.81667000"},{"id":"94049","name":"Draguseni","state_id":4740,"state_code":"BT","country_id":181,"country_code":"RO","latitude":"48.01667000","longitude":"26.81667000"},{"id":"94093","name":"Dumbravi\u021ba","state_id":4740,"state_code":"BT","country_id":181,"country_code":"RO","latitude":"48.01900000","longitude":"26.42724000"},{"id":"94094","name":"Dumeni","state_id":4740,"state_code":"BT","country_id":181,"country_code":"RO","latitude":"48.00724000","longitude":"26.54287000"},{"id":"94102","name":"Durnesti","state_id":4740,"state_code":"BT","country_id":181,"country_code":"RO","latitude":"47.76667000","longitude":"27.10000000"},{"id":"97133","name":"\u0218tefane\u0219ti","state_id":4740,"state_code":"BT","country_id":181,"country_code":"RO","latitude":"47.79169000","longitude":"27.20053000"},{"id":"97135","name":"\u0218upitca","state_id":4740,"state_code":"BT","country_id":181,"country_code":"RO","latitude":"47.60941000","longitude":"26.78359000"},{"id":"94191","name":"Flam\u00e2nzi","state_id":4740,"state_code":"BT","country_id":181,"country_code":"RO","latitude":"47.55000000","longitude":"26.86667000"},{"id":"94211","name":"Frumusica","state_id":4740,"state_code":"BT","country_id":181,"country_code":"RO","latitude":"47.53333000","longitude":"26.90000000"},{"id":"94293","name":"George Enescu","state_id":4740,"state_code":"BT","country_id":181,"country_code":"RO","latitude":"48.03333000","longitude":"26.48333000"},{"id":"94383","name":"Gorbanesti","state_id":4740,"state_code":"BT","country_id":181,"country_code":"RO","latitude":"47.78333000","longitude":"26.85000000"},{"id":"94524","name":"Hav\u00e2rna","state_id":4740,"state_code":"BT","country_id":181,"country_code":"RO","latitude":"48.06667000","longitude":"26.65000000"},{"id":"94603","name":"Hanesti","state_id":4740,"state_code":"BT","country_id":181,"country_code":"RO","latitude":"47.91667000","longitude":"26.98333000"},{"id":"94536","name":"Hiliseu-Horia","state_id":4740,"state_code":"BT","country_id":181,"country_code":"RO","latitude":"48.03333000","longitude":"26.25000000"},{"id":"94538","name":"Hlipiceni","state_id":4740,"state_code":"BT","country_id":181,"country_code":"RO","latitude":"47.60000000","longitude":"27.15000000"},{"id":"94571","name":"Hudesti","state_id":4740,"state_code":"BT","country_id":181,"country_code":"RO","latitude":"48.15000000","longitude":"26.50000000"},{"id":"94614","name":"Iacobeni","state_id":4740,"state_code":"BT","country_id":181,"country_code":"RO","latitude":"47.86115000","longitude":"26.91304000"},{"id":"94632","name":"Ibanesti","state_id":4740,"state_code":"BT","country_id":181,"country_code":"RO","latitude":"48.06667000","longitude":"26.36667000"},{"id":"94638","name":"Icu\u0219eni","state_id":4740,"state_code":"BT","country_id":181,"country_code":"RO","latitude":"47.59269000","longitude":"26.59605000"},{"id":"94680","name":"Iona\u0219eni","state_id":4740,"state_code":"BT","country_id":181,"country_code":"RO","latitude":"47.73029000","longitude":"26.99329000"},{"id":"94745","name":"Jolde\u0219ti","state_id":4740,"state_code":"BT","country_id":181,"country_code":"RO","latitude":"47.56004000","longitude":"26.57705000"},{"id":"94778","name":"Leorda","state_id":4740,"state_code":"BT","country_id":181,"country_code":"RO","latitude":"47.81667000","longitude":"26.45000000"},{"id":"94836","name":"Lozna","state_id":4740,"state_code":"BT","country_id":181,"country_code":"RO","latitude":"47.95144000","longitude":"26.27723000"},{"id":"94859","name":"Lunca","state_id":4740,"state_code":"BT","country_id":181,"country_code":"RO","latitude":"47.61667000","longitude":"26.98333000"},{"id":"94923","name":"Manoleasa","state_id":4740,"state_code":"BT","country_id":181,"country_code":"RO","latitude":"47.98333000","longitude":"27.06667000"},{"id":"95214","name":"M\u00e2ndre\u0219ti","state_id":4740,"state_code":"BT","country_id":181,"country_code":"RO","latitude":"47.73333000","longitude":"26.48333000"},{"id":"94993","name":"Mihaileni","state_id":4740,"state_code":"BT","country_id":181,"country_code":"RO","latitude":"47.96667000","longitude":"26.15000000"},{"id":"94997","name":"Mihalaseni","state_id":4740,"state_code":"BT","country_id":181,"country_code":"RO","latitude":"47.88333000","longitude":"27.06667000"},{"id":"95004","name":"Mileanca","state_id":4740,"state_code":"BT","country_id":181,"country_code":"RO","latitude":"48.08333000","longitude":"26.70000000"},{"id":"95010","name":"Miorcani","state_id":4740,"state_code":"BT","country_id":181,"country_code":"RO","latitude":"48.20223000","longitude":"26.85279000"},{"id":"95030","name":"Mitoc","state_id":4740,"state_code":"BT","country_id":181,"country_code":"RO","latitude":"48.10000000","longitude":"27.03333000"},{"id":"95037","name":"Mlenau\u021bi","state_id":4740,"state_code":"BT","country_id":181,"country_code":"RO","latitude":"48.12663000","longitude":"26.48961000"},{"id":"95115","name":"Municipiul Botosani","state_id":4740,"state_code":"BT","country_id":181,"country_code":"RO","latitude":"47.73984000","longitude":"26.67156000"},{"id":"95137","name":"Municipiul Dorohoi","state_id":4740,"state_code":"BT","country_id":181,"country_code":"RO","latitude":"47.96772000","longitude":"26.41685000"},{"id":"95344","name":"Nicseni","state_id":4740,"state_code":"BT","country_id":181,"country_code":"RO","latitude":"47.86667000","longitude":"26.63333000"},{"id":"95333","name":"Nicolae Balcescu","state_id":4740,"state_code":"BT","country_id":181,"country_code":"RO","latitude":"47.56664000","longitude":"26.89629000"},{"id":"95438","name":"Oneaga","state_id":4740,"state_code":"BT","country_id":181,"country_code":"RO","latitude":"47.57626000","longitude":"26.73244000"},{"id":"95630","name":"Oras Stef\u00e3nesti","state_id":4740,"state_code":"BT","country_id":181,"country_code":"RO","latitude":"47.78834000","longitude":"27.20601000"},{"id":"95473","name":"Oras Bucecea","state_id":4740,"state_code":"BT","country_id":181,"country_code":"RO","latitude":"47.77741000","longitude":"26.43966000"},{"id":"95507","name":"Oras Darabani","state_id":4740,"state_code":"BT","country_id":181,"country_code":"RO","latitude":"48.17429000","longitude":"26.61519000"},{"id":"95518","name":"Oras Fl\u00e3m\u00e2nzi","state_id":4740,"state_code":"BT","country_id":181,"country_code":"RO","latitude":"47.56193000","longitude":"26.90381000"},{"id":"95600","name":"Oras S\u00e3veni","state_id":4740,"state_code":"BT","country_id":181,"country_code":"RO","latitude":"47.95998000","longitude":"26.86677000"},{"id":"95668","name":"Ora\u0219eni-Deal","state_id":4740,"state_code":"BT","country_id":181,"country_code":"RO","latitude":"47.67597000","longitude":"26.67671000"},{"id":"95664","name":"Oroftiana","state_id":4740,"state_code":"BT","country_id":181,"country_code":"RO","latitude":"48.17758000","longitude":"26.34856000"},{"id":"96006","name":"Padureni","state_id":4740,"state_code":"BT","country_id":181,"country_code":"RO","latitude":"47.97434000","longitude":"26.31672000"},{"id":"96014","name":"Paltinis","state_id":4740,"state_code":"BT","country_id":181,"country_code":"RO","latitude":"48.21667000","longitude":"26.65000000"},{"id":"95863","name":"Poiana","state_id":4740,"state_code":"BT","country_id":181,"country_code":"RO","latitude":"47.60149000","longitude":"26.60826000"},{"id":"95904","name":"Pom\u00e2rla","state_id":4740,"state_code":"BT","country_id":181,"country_code":"RO","latitude":"48.06667000","longitude":"26.31667000"},{"id":"95970","name":"Prajeni","state_id":4740,"state_code":"BT","country_id":181,"country_code":"RO","latitude":"47.51667000","longitude":"27.01667000"},{"id":"96188","name":"Rachiti","state_id":4740,"state_code":"BT","country_id":181,"country_code":"RO","latitude":"47.76667000","longitude":"26.68333000"},{"id":"96202","name":"Radau\u021bi-Prut","state_id":4740,"state_code":"BT","country_id":181,"country_code":"RO","latitude":"48.23333000","longitude":"26.80000000"},{"id":"96194","name":"Radeni","state_id":4740,"state_code":"BT","country_id":181,"country_code":"RO","latitude":"47.51186000","longitude":"26.89249000"},{"id":"96212","name":"Rauseni","state_id":4740,"state_code":"BT","country_id":181,"country_code":"RO","latitude":"47.56667000","longitude":"27.20000000"},{"id":"96078","name":"Rediu","state_id":4740,"state_code":"BT","country_id":181,"country_code":"RO","latitude":"48.23075000","longitude":"26.77841000"},{"id":"96095","name":"Ripiceni","state_id":4740,"state_code":"BT","country_id":181,"country_code":"RO","latitude":"47.95000000","longitude":"27.13333000"},{"id":"96139","name":"Ro\u0219iori","state_id":4740,"state_code":"BT","country_id":181,"country_code":"RO","latitude":"47.76095000","longitude":"26.72167000"},{"id":"96104","name":"Roma","state_id":4740,"state_code":"BT","country_id":181,"country_code":"RO","latitude":"47.83333000","longitude":"26.60000000"},{"id":"96113","name":"Rom\u00e2ne\u0219ti","state_id":4740,"state_code":"BT","country_id":181,"country_code":"RO","latitude":"47.73141000","longitude":"27.24027000"},{"id":"96240","name":"Santa Mare","state_id":4740,"state_code":"BT","country_id":181,"country_code":"RO","latitude":"47.61667000","longitude":"27.35000000"},{"id":"96242","name":"Sarafine\u0219ti","state_id":4740,"state_code":"BT","country_id":181,"country_code":"RO","latitude":"47.61708000","longitude":"26.60740000"},{"id":"105985","name":"S\u00e2rbi","state_id":4740,"state_code":"BT","country_id":181,"country_code":"RO","latitude":"47.94268000","longitude":"26.91818000"},{"id":"106046","name":"Saveni","state_id":4740,"state_code":"BT","country_id":181,"country_code":"RO","latitude":"47.95000000","longitude":"26.86667000"},{"id":"96472","name":"St\u00e2nce\u0219ti","state_id":4740,"state_code":"BT","country_id":181,"country_code":"RO","latitude":"47.75000000","longitude":"26.60000000"},{"id":"96483","name":"Stauceni","state_id":4740,"state_code":"BT","country_id":181,"country_code":"RO","latitude":"47.71667000","longitude":"26.75000000"},{"id":"96444","name":"Storesti","state_id":4740,"state_code":"BT","country_id":181,"country_code":"RO","latitude":"47.55000000","longitude":"26.86667000"},{"id":"96464","name":"Strateni","state_id":4740,"state_code":"BT","country_id":181,"country_code":"RO","latitude":"47.93677000","longitude":"26.29664000"},{"id":"96456","name":"Stroie\u0219ti","state_id":4740,"state_code":"BT","country_id":181,"country_code":"RO","latitude":"47.61042000","longitude":"26.96562000"},{"id":"96496","name":"Suharau","state_id":4740,"state_code":"BT","country_id":181,"country_code":"RO","latitude":"48.13333000","longitude":"26.41667000"},{"id":"96500","name":"Suli\u021ba","state_id":4740,"state_code":"BT","country_id":181,"country_code":"RO","latitude":"47.65000000","longitude":"26.91667000"},{"id":"106113","name":"Tocileni","state_id":4740,"state_code":"BT","country_id":181,"country_code":"RO","latitude":"47.71104000","longitude":"26.78657000"},{"id":"106114","name":"Todireni","state_id":4740,"state_code":"BT","country_id":181,"country_code":"RO","latitude":"47.61667000","longitude":"27.11667000"},{"id":"106162","name":"Trusesti","state_id":4740,"state_code":"BT","country_id":181,"country_code":"RO","latitude":"47.76667000","longitude":"27.01667000"},{"id":"106166","name":"Tudor Vladimirescu","state_id":4740,"state_code":"BT","country_id":181,"country_code":"RO","latitude":"47.68635000","longitude":"27.17211000"},{"id":"106168","name":"Tudora","state_id":4740,"state_code":"BT","country_id":181,"country_code":"RO","latitude":"47.51667000","longitude":"26.63333000"},{"id":"96671","name":"Unteni","state_id":4740,"state_code":"BT","country_id":181,"country_code":"RO","latitude":"47.80000000","longitude":"26.78333000"},{"id":"96662","name":"Ungureni","state_id":4740,"state_code":"BT","country_id":181,"country_code":"RO","latitude":"47.88176000","longitude":"26.79899000"},{"id":"96663","name":"Ungureni-Jianu","state_id":4740,"state_code":"BT","country_id":181,"country_code":"RO","latitude":"47.88333000","longitude":"26.78333000"},{"id":"96938","name":"V\u00e2rfu C\u00e2mpului","state_id":4740,"state_code":"BT","country_id":181,"country_code":"RO","latitude":"47.84566000","longitude":"26.33056000"},{"id":"96950","name":"Vaculesti","state_id":4740,"state_code":"BT","country_id":181,"country_code":"RO","latitude":"47.88333000","longitude":"26.41667000"},{"id":"96804","name":"Victoria","state_id":4740,"state_code":"BT","country_id":181,"country_code":"RO","latitude":"47.61018000","longitude":"27.16730000"},{"id":"96821","name":"Viisoara","state_id":4740,"state_code":"BT","country_id":181,"country_code":"RO","latitude":"48.16667000","longitude":"26.73333000"},{"id":"96863","name":"Vladeni","state_id":4740,"state_code":"BT","country_id":181,"country_code":"RO","latitude":"47.71667000","longitude":"26.51667000"},{"id":"96864","name":"Vladeni-Deal","state_id":4740,"state_code":"BT","country_id":181,"country_code":"RO","latitude":"47.52250000","longitude":"26.87295000"},{"id":"96872","name":"Vlasinesti","state_id":4740,"state_code":"BT","country_id":181,"country_code":"RO","latitude":"47.93333000","longitude":"26.88333000"},{"id":"96891","name":"Vorniceni","state_id":4740,"state_code":"BT","country_id":181,"country_code":"RO","latitude":"47.98333000","longitude":"26.66667000"},{"id":"96892","name":"Vorona","state_id":4740,"state_code":"BT","country_id":181,"country_code":"RO","latitude":"47.57714000","longitude":"26.63078000"},{"id":"96893","name":"Vorona Teodoru","state_id":4740,"state_code":"BT","country_id":181,"country_code":"RO","latitude":"47.55000000","longitude":"26.60000000"},{"id":"96999","name":"Zlatunoaia","state_id":4740,"state_code":"BT","country_id":181,"country_code":"RO","latitude":"47.65026000","longitude":"27.00743000"}]