[{"id":"89890","name":"Afumati","state_id":4742,"state_code":"DJ","country_id":181,"country_code":"RO","latitude":"44.00000000","longitude":"23.46667000"},{"id":"89938","name":"Almaj","state_id":4742,"state_code":"DJ","country_id":181,"country_code":"RO","latitude":"44.45000000","longitude":"23.71667000"},{"id":"89952","name":"Amarastii de Jos","state_id":4742,"state_code":"DJ","country_id":181,"country_code":"RO","latitude":"43.95000000","longitude":"24.16667000"},{"id":"89953","name":"Amarastii de Sus","state_id":4742,"state_code":"DJ","country_id":181,"country_code":"RO","latitude":"43.98333000","longitude":"24.15000000"},{"id":"89972","name":"Apele Vii","state_id":4742,"state_code":"DJ","country_id":181,"country_code":"RO","latitude":"44.06667000","longitude":"24.06667000"},{"id":"89987","name":"Argetoaia","state_id":4742,"state_code":"DJ","country_id":181,"country_code":"RO","latitude":"44.51667000","longitude":"23.36667000"},{"id":"97053","name":"Simnicu de Sus","state_id":4742,"state_code":"DJ","country_id":181,"country_code":"RO","latitude":"44.38333000","longitude":"23.80000000"},{"id":"97025","name":"\u00centorsura","state_id":4742,"state_code":"DJ","country_id":181,"country_code":"RO","latitude":"44.11226000","longitude":"23.57574000"},{"id":"97109","name":"Tuglui","state_id":4742,"state_code":"DJ","country_id":181,"country_code":"RO","latitude":"44.18333000","longitude":"23.81667000"},{"id":"90067","name":"Basarabi","state_id":4742,"state_code":"DJ","country_id":181,"country_code":"RO","latitude":"44.00561000","longitude":"23.00915000"},{"id":"90442","name":"B\u00e2lta","state_id":4742,"state_code":"DJ","country_id":181,"country_code":"RO","latitude":"44.53564000","longitude":"23.47019000"},{"id":"90446","name":"B\u00e2rca","state_id":4742,"state_code":"DJ","country_id":181,"country_code":"RO","latitude":"43.96667000","longitude":"23.61667000"},{"id":"90484","name":"Bado\u0219i","state_id":4742,"state_code":"DJ","country_id":181,"country_code":"RO","latitude":"44.14723000","longitude":"23.88974000"},{"id":"90494","name":"Bailesti","state_id":4742,"state_code":"DJ","country_id":181,"country_code":"RO","latitude":"44.01667000","longitude":"23.35000000"},{"id":"90076","name":"Bechet","state_id":4742,"state_code":"DJ","country_id":181,"country_code":"RO","latitude":"43.78188000","longitude":"23.95706000"},{"id":"90146","name":"Bistre\u021b","state_id":4742,"state_code":"DJ","country_id":181,"country_code":"RO","latitude":"43.90000000","longitude":"23.50000000"},{"id":"90249","name":"Botosesti-Paia","state_id":4742,"state_code":"DJ","country_id":181,"country_code":"RO","latitude":"44.40000000","longitude":"23.26667000"},{"id":"90250","name":"Boureni","state_id":4742,"state_code":"DJ","country_id":181,"country_code":"RO","latitude":"44.01589000","longitude":"23.43393000"},{"id":"90258","name":"Brabe\u021bi","state_id":4742,"state_code":"DJ","country_id":181,"country_code":"RO","latitude":"43.96098000","longitude":"24.01339000"},{"id":"90259","name":"Brabova","state_id":4742,"state_code":"DJ","country_id":181,"country_code":"RO","latitude":"44.36667000","longitude":"23.43333000"},{"id":"90265","name":"Bralostita","state_id":4742,"state_code":"DJ","country_id":181,"country_code":"RO","latitude":"44.50000000","longitude":"23.51667000"},{"id":"90277","name":"Bratovoe\u0219ti","state_id":4742,"state_code":"DJ","country_id":181,"country_code":"RO","latitude":"44.13333000","longitude":"23.90000000"},{"id":"90324","name":"Bradesti","state_id":4742,"state_code":"DJ","country_id":181,"country_code":"RO","latitude":"44.48333000","longitude":"23.63333000"},{"id":"90282","name":"Breasta","state_id":4742,"state_code":"DJ","country_id":181,"country_code":"RO","latitude":"44.33333000","longitude":"23.68333000"},{"id":"90360","name":"Bucovat","state_id":4742,"state_code":"DJ","country_id":181,"country_code":"RO","latitude":"44.30000000","longitude":"23.75000000"},{"id":"90405","name":"Bulzesti","state_id":4742,"state_code":"DJ","country_id":181,"country_code":"RO","latitude":"44.53333000","longitude":"23.88333000"},{"id":"90562","name":"Calafat","state_id":4742,"state_code":"DJ","country_id":181,"country_code":"RO","latitude":"43.99069000","longitude":"22.93328000"},{"id":"90565","name":"Calopar","state_id":4742,"state_code":"DJ","country_id":181,"country_code":"RO","latitude":"44.16502000","longitude":"23.76060000"},{"id":"90577","name":"Caraula","state_id":4742,"state_code":"DJ","country_id":181,"country_code":"RO","latitude":"44.18333000","longitude":"23.25000000"},{"id":"90581","name":"Carpen","state_id":4742,"state_code":"DJ","country_id":181,"country_code":"RO","latitude":"44.33333000","longitude":"23.25000000"},{"id":"90585","name":"Castranova","state_id":4742,"state_code":"DJ","country_id":181,"country_code":"RO","latitude":"44.11667000","longitude":"24.01667000"},{"id":"90586","name":"Castrele Traiane","state_id":4742,"state_code":"DJ","country_id":181,"country_code":"RO","latitude":"44.22865000","longitude":"23.13921000"},{"id":"90589","name":"Catane","state_id":4742,"state_code":"DJ","country_id":181,"country_code":"RO","latitude":"43.92671000","longitude":"23.41178000"},{"id":"93809","name":"C\u00e2rcea","state_id":4742,"state_code":"DJ","country_id":181,"country_code":"RO","latitude":"44.26917000","longitude":"23.90007000"},{"id":"93817","name":"C\u00e2rna","state_id":4742,"state_code":"DJ","country_id":181,"country_code":"RO","latitude":"43.88613000","longitude":"23.60153000"},{"id":"93850","name":"Calarasi","state_id":4742,"state_code":"DJ","country_id":181,"country_code":"RO","latitude":"43.80000000","longitude":"24.05000000"},{"id":"90612","name":"Celaru","state_id":4742,"state_code":"DJ","country_id":181,"country_code":"RO","latitude":"44.05000000","longitude":"24.13333000"},{"id":"90644","name":"Cerat","state_id":4742,"state_code":"DJ","country_id":181,"country_code":"RO","latitude":"44.06667000","longitude":"23.66667000"},{"id":"90639","name":"Cernatesti","state_id":4742,"state_code":"DJ","country_id":181,"country_code":"RO","latitude":"44.45000000","longitude":"23.43333000"},{"id":"90631","name":"Cernele","state_id":4742,"state_code":"DJ","country_id":181,"country_code":"RO","latitude":"44.33363000","longitude":"23.74140000"},{"id":"90647","name":"Cetate","state_id":4742,"state_code":"DJ","country_id":181,"country_code":"RO","latitude":"44.10000000","longitude":"23.05000000"},{"id":"90727","name":"Cioroia\u0219i","state_id":4742,"state_code":"DJ","country_id":181,"country_code":"RO","latitude":"44.08333000","longitude":"23.45000000"},{"id":"90755","name":"Ciupercenii Noi","state_id":4742,"state_code":"DJ","country_id":181,"country_code":"RO","latitude":"43.90972000","longitude":"22.94833000"},{"id":"90756","name":"Ciupercenii Vechi","state_id":4742,"state_code":"DJ","country_id":181,"country_code":"RO","latitude":"43.94512000","longitude":"22.89469000"},{"id":"90764","name":"Cleanov","state_id":4742,"state_code":"DJ","country_id":181,"country_code":"RO","latitude":"44.35288000","longitude":"23.21032000"},{"id":"93692","name":"Cosoveni","state_id":4742,"state_code":"DJ","country_id":181,"country_code":"RO","latitude":"44.25000000","longitude":"23.93333000"},{"id":"93694","name":"Cotofenii din Dos","state_id":4742,"state_code":"DJ","country_id":181,"country_code":"RO","latitude":"44.43333000","longitude":"23.61667000"},{"id":"93701","name":"Co\u021bofenii din Fa\u021ba","state_id":4742,"state_code":"DJ","country_id":181,"country_code":"RO","latitude":"44.45971000","longitude":"23.65688000"},{"id":"90815","name":"Como\u0219teni","state_id":4742,"state_code":"DJ","country_id":181,"country_code":"RO","latitude":"43.87405000","longitude":"23.86356000"},{"id":"90827","name":"Comuna Afumati","state_id":4742,"state_code":"DJ","country_id":181,"country_code":"RO","latitude":"43.99793000","longitude":"23.44386000"},{"id":"90858","name":"Comuna Alm\u00e3j","state_id":4742,"state_code":"DJ","country_id":181,"country_code":"RO","latitude":"44.44093000","longitude":"23.70915000"},{"id":"90866","name":"Comuna Amarastii de Jos","state_id":4742,"state_code":"DJ","country_id":181,"country_code":"RO","latitude":"43.92611000","longitude":"24.16076000"},{"id":"90867","name":"Comuna Amarastii de Sus","state_id":4742,"state_code":"DJ","country_id":181,"country_code":"RO","latitude":"43.98588000","longitude":"24.16715000"},{"id":"90879","name":"Comuna Apele Vii","state_id":4742,"state_code":"DJ","country_id":181,"country_code":"RO","latitude":"44.06658000","longitude":"24.06611000"},{"id":"90889","name":"Comuna Argetoaia","state_id":4742,"state_code":"DJ","country_id":181,"country_code":"RO","latitude":"44.50920000","longitude":"23.37593000"},{"id":"93523","name":"Comuna Simnicu de Sus","state_id":4742,"state_code":"DJ","country_id":181,"country_code":"RO","latitude":"44.41283000","longitude":"23.78863000"},{"id":"93493","name":"Comuna \u00centorsura","state_id":4742,"state_code":"DJ","country_id":181,"country_code":"RO","latitude":"44.11226000","longitude":"23.57574000"},{"id":"93577","name":"Comuna Tuglui","state_id":4742,"state_code":"DJ","country_id":181,"country_code":"RO","latitude":"44.20034000","longitude":"23.82296000"},{"id":"91185","name":"Comuna B\u00e2rca","state_id":4742,"state_code":"DJ","country_id":181,"country_code":"RO","latitude":"43.96954000","longitude":"23.61782000"},{"id":"90997","name":"Comuna Bistret","state_id":4742,"state_code":"DJ","country_id":181,"country_code":"RO","latitude":"43.90162000","longitude":"23.52291000"},{"id":"91065","name":"Comuna Botosesti-Paia","state_id":4742,"state_code":"DJ","country_id":181,"country_code":"RO","latitude":"44.40390000","longitude":"23.26381000"},{"id":"91072","name":"Comuna Brabova","state_id":4742,"state_code":"DJ","country_id":181,"country_code":"RO","latitude":"44.35864000","longitude":"23.39816000"},{"id":"91075","name":"Comuna Bralostita","state_id":4742,"state_code":"DJ","country_id":181,"country_code":"RO","latitude":"44.50483000","longitude":"23.49123000"},{"id":"91085","name":"Comuna Bratovoesti","state_id":4742,"state_code":"DJ","country_id":181,"country_code":"RO","latitude":"44.13725000","longitude":"23.91445000"},{"id":"91114","name":"Comuna Bradesti","state_id":4742,"state_code":"DJ","country_id":181,"country_code":"RO","latitude":"44.51766000","longitude":"23.61747000"},{"id":"91088","name":"Comuna Breasta","state_id":4742,"state_code":"DJ","country_id":181,"country_code":"RO","latitude":"44.34924000","longitude":"23.67073000"},{"id":"91136","name":"Comuna Bucovat","state_id":4742,"state_code":"DJ","country_id":181,"country_code":"RO","latitude":"44.29453000","longitude":"23.69512000"},{"id":"91160","name":"Comuna Bulzesti","state_id":4742,"state_code":"DJ","country_id":181,"country_code":"RO","latitude":"44.59126000","longitude":"23.87180000"},{"id":"91254","name":"Comuna Caloparu","state_id":4742,"state_code":"DJ","country_id":181,"country_code":"RO","latitude":"44.15560000","longitude":"23.75966000"},{"id":"91259","name":"Comuna Caraula","state_id":4742,"state_code":"DJ","country_id":181,"country_code":"RO","latitude":"44.19287000","longitude":"23.25298000"},{"id":"91262","name":"Comuna Carpen","state_id":4742,"state_code":"DJ","country_id":181,"country_code":"RO","latitude":"44.34169000","longitude":"23.26059000"},{"id":"91265","name":"Comuna Castranova","state_id":4742,"state_code":"DJ","country_id":181,"country_code":"RO","latitude":"44.12778000","longitude":"24.01240000"},{"id":"91267","name":"Comuna Catane","state_id":4742,"state_code":"DJ","country_id":181,"country_code":"RO","latitude":"43.92584000","longitude":"23.41332000"},{"id":"91549","name":"Comuna C\u00e2rcea","state_id":4742,"state_code":"DJ","country_id":181,"country_code":"RO","latitude":"44.26856000","longitude":"23.89801000"},{"id":"91554","name":"Comuna C\u00e2rna","state_id":4742,"state_code":"DJ","country_id":181,"country_code":"RO","latitude":"43.88613000","longitude":"23.60153000"},{"id":"91577","name":"Comuna Calarasi","state_id":4742,"state_code":"DJ","country_id":181,"country_code":"RO","latitude":"43.78416000","longitude":"24.04076000"},{"id":"91279","name":"Comuna Celaru","state_id":4742,"state_code":"DJ","country_id":181,"country_code":"RO","latitude":"44.04192000","longitude":"24.11972000"},{"id":"91301","name":"Comuna Cer\u00e3t","state_id":4742,"state_code":"DJ","country_id":181,"country_code":"RO","latitude":"44.07358000","longitude":"23.67078000"},{"id":"91295","name":"Comuna Cernatesti","state_id":4742,"state_code":"DJ","country_id":181,"country_code":"RO","latitude":"44.44315000","longitude":"23.47578000"},{"id":"91304","name":"Comuna Cetate","state_id":4742,"state_code":"DJ","country_id":181,"country_code":"RO","latitude":"44.09894000","longitude":"23.06370000"},{"id":"91355","name":"Comuna Cioroiasi","state_id":4742,"state_code":"DJ","country_id":181,"country_code":"RO","latitude":"44.08624000","longitude":"23.45207000"},{"id":"91374","name":"Comuna Ciupercenii Noi","state_id":4742,"state_code":"DJ","country_id":181,"country_code":"RO","latitude":"43.92186000","longitude":"22.95877000"},{"id":"91477","name":"Comuna Cosoveni","state_id":4742,"state_code":"DJ","country_id":181,"country_code":"RO","latitude":"44.24628000","longitude":"23.93612000"},{"id":"91480","name":"Comuna Cotofenii din Dos","state_id":4742,"state_code":"DJ","country_id":181,"country_code":"RO","latitude":"44.41282000","longitude":"23.64369000"},{"id":"91481","name":"Comuna Cotofenii din Fata","state_id":4742,"state_code":"DJ","country_id":181,"country_code":"RO","latitude":"44.45275000","longitude":"23.67053000"},{"id":"91741","name":"Comuna Daneti","state_id":4742,"state_code":"DJ","country_id":181,"country_code":"RO","latitude":"43.97750000","longitude":"24.04015000"},{"id":"91617","name":"Comuna Desa","state_id":4742,"state_code":"DJ","country_id":181,"country_code":"RO","latitude":"43.87038000","longitude":"23.03236000"},{"id":"91629","name":"Comuna Diosti","state_id":4742,"state_code":"DJ","country_id":181,"country_code":"RO","latitude":"44.12923000","longitude":"24.17156000"},{"id":"91636","name":"Comuna Dobresti","state_id":4742,"state_code":"DJ","country_id":181,"country_code":"RO","latitude":"43.96771000","longitude":"23.95341000"},{"id":"91643","name":"Comuna Dobrotesti","state_id":4742,"state_code":"DJ","country_id":181,"country_code":"RO","latitude":"43.96749000","longitude":"24.12835000"},{"id":"91685","name":"Comuna Dr\u00e3nic","state_id":4742,"state_code":"DJ","country_id":181,"country_code":"RO","latitude":"44.05601000","longitude":"23.84033000"},{"id":"91692","name":"Comuna Dragotesti","state_id":4742,"state_code":"DJ","country_id":181,"country_code":"RO","latitude":"44.25774000","longitude":"24.08138000"},{"id":"91815","name":"Comuna F\u00e3rcas","state_id":4742,"state_code":"DJ","country_id":181,"country_code":"RO","latitude":"44.61267000","longitude":"23.74081000"},{"id":"91831","name":"Comuna Galicea Mare","state_id":4742,"state_code":"DJ","country_id":181,"country_code":"RO","latitude":"44.09805000","longitude":"23.30967000"},{"id":"91832","name":"Comuna Galiciuica","state_id":4742,"state_code":"DJ","country_id":181,"country_code":"RO","latitude":"44.10189000","longitude":"23.38921000"},{"id":"91963","name":"Comuna G\u00e2ngiova","state_id":4742,"state_code":"DJ","country_id":181,"country_code":"RO","latitude":"43.88621000","longitude":"23.86161000"},{"id":"91844","name":"Comuna Ghercesti","state_id":4742,"state_code":"DJ","country_id":181,"country_code":"RO","latitude":"44.38567000","longitude":"23.92481000"},{"id":"91852","name":"Comuna Ghidici","state_id":4742,"state_code":"DJ","country_id":181,"country_code":"RO","latitude":"43.88899000","longitude":"23.19454000"},{"id":"91858","name":"Comuna Ghindeni","state_id":4742,"state_code":"DJ","country_id":181,"country_code":"RO","latitude":"44.21223000","longitude":"23.92336000"},{"id":"91867","name":"Comuna Gighera","state_id":4742,"state_code":"DJ","country_id":181,"country_code":"RO","latitude":"43.84806000","longitude":"23.80590000"},{"id":"91873","name":"Comuna Giubega","state_id":4742,"state_code":"DJ","country_id":181,"country_code":"RO","latitude":"44.12821000","longitude":"23.41164000"},{"id":"91877","name":"Comuna Giurgita","state_id":4742,"state_code":"DJ","country_id":181,"country_code":"RO","latitude":"44.00721000","longitude":"23.63050000"},{"id":"91891","name":"Comuna Gogosu","state_id":4742,"state_code":"DJ","country_id":181,"country_code":"RO","latitude":"44.41717000","longitude":"23.37842000"},{"id":"91894","name":"Comuna Goicea","state_id":4742,"state_code":"DJ","country_id":181,"country_code":"RO","latitude":"43.92623000","longitude":"23.61845000"},{"id":"91895","name":"Comuna Goiesti","state_id":4742,"state_code":"DJ","country_id":181,"country_code":"RO","latitude":"44.48627000","longitude":"23.75375000"},{"id":"91914","name":"Comuna Grecesti","state_id":4742,"state_code":"DJ","country_id":181,"country_code":"RO","latitude":"44.45468000","longitude":"23.26394000"},{"id":"92113","name":"Comuna Isalnita","state_id":4742,"state_code":"DJ","country_id":181,"country_code":"RO","latitude":"44.39390000","longitude":"23.73711000"},{"id":"92102","name":"Comuna Izvoare","state_id":4742,"state_code":"DJ","country_id":181,"country_code":"RO","latitude":"44.15000000","longitude":"23.28333000"},{"id":"92159","name":"Comuna Leu","state_id":4742,"state_code":"DJ","country_id":181,"country_code":"RO","latitude":"44.17207000","longitude":"24.04971000"},{"id":"92168","name":"Comuna Lipovu","state_id":4742,"state_code":"DJ","country_id":181,"country_code":"RO","latitude":"44.11342000","longitude":"23.62736000"},{"id":"92228","name":"Comuna Maglavit","state_id":4742,"state_code":"DJ","country_id":181,"country_code":"RO","latitude":"44.04339000","longitude":"23.09854000"},{"id":"92236","name":"Comuna Malu Mare","state_id":4742,"state_code":"DJ","country_id":181,"country_code":"RO","latitude":"44.23844000","longitude":"23.85570000"},{"id":"92374","name":"Comuna M\u00e2rsani","state_id":4742,"state_code":"DJ","country_id":181,"country_code":"RO","latitude":"44.01157000","longitude":"24.01919000"},{"id":"92378","name":"Comuna Macesu de Jos","state_id":4742,"state_code":"DJ","country_id":181,"country_code":"RO","latitude":"43.87966000","longitude":"23.68954000"},{"id":"92379","name":"Comuna Macesu de Sus","state_id":4742,"state_code":"DJ","country_id":181,"country_code":"RO","latitude":"43.91667000","longitude":"23.71126000"},{"id":"92253","name":"Comuna Melinesti","state_id":4742,"state_code":"DJ","country_id":181,"country_code":"RO","latitude":"44.56310000","longitude":"23.69530000"},{"id":"92305","name":"Comuna Mischii","state_id":4742,"state_code":"DJ","country_id":181,"country_code":"RO","latitude":"44.42093000","longitude":"23.86238000"},{"id":"92353","name":"Comuna Motatei","state_id":4742,"state_code":"DJ","country_id":181,"country_code":"RO","latitude":"44.08454000","longitude":"23.18856000"},{"id":"92360","name":"Comuna Murgasi","state_id":4742,"state_code":"DJ","country_id":181,"country_code":"RO","latitude":"44.54342000","longitude":"23.82994000"},{"id":"92428","name":"Comuna Negoi","state_id":4742,"state_code":"DJ","country_id":181,"country_code":"RO","latitude":"43.91396000","longitude":"23.37288000"},{"id":"92512","name":"Comuna Orodel","state_id":4742,"state_code":"DJ","country_id":181,"country_code":"RO","latitude":"44.26414000","longitude":"23.27390000"},{"id":"92520","name":"Comuna Ostroveni","state_id":4742,"state_code":"DJ","country_id":181,"country_code":"RO","latitude":"43.82121000","longitude":"23.90789000"},{"id":"92555","name":"Comuna Perisor","state_id":4742,"state_code":"DJ","country_id":181,"country_code":"RO","latitude":"44.15843000","longitude":"23.49214000"},{"id":"92575","name":"Comuna Pielesti","state_id":4742,"state_code":"DJ","country_id":181,"country_code":"RO","latitude":"44.35632000","longitude":"23.97570000"},{"id":"92588","name":"Comuna Piscu Vechi","state_id":4742,"state_code":"DJ","country_id":181,"country_code":"RO","latitude":"43.89938000","longitude":"23.16364000"},{"id":"92594","name":"Comuna Plesoi","state_id":4742,"state_code":"DJ","country_id":181,"country_code":"RO","latitude":"44.35380000","longitude":"23.54284000"},{"id":"92592","name":"Comuna Plenita","state_id":4742,"state_code":"DJ","country_id":181,"country_code":"RO","latitude":"44.22532000","longitude":"23.16364000"},{"id":"92611","name":"Comuna Podari","state_id":4742,"state_code":"DJ","country_id":181,"country_code":"RO","latitude":"44.24394000","longitude":"23.79217000"},{"id":"92629","name":"Comuna Poiana Mare","state_id":4742,"state_code":"DJ","country_id":181,"country_code":"RO","latitude":"43.92040000","longitude":"23.06271000"},{"id":"92670","name":"Comuna Predesti","state_id":4742,"state_code":"DJ","country_id":181,"country_code":"RO","latitude":"44.34640000","longitude":"23.58506000"},{"id":"92743","name":"Comuna Radovan","state_id":4742,"state_code":"DJ","country_id":181,"country_code":"RO","latitude":"44.17687000","longitude":"23.58518000"},{"id":"92749","name":"Comuna Rast","state_id":4742,"state_code":"DJ","country_id":181,"country_code":"RO","latitude":"43.88713000","longitude":"23.28409000"},{"id":"92775","name":"Comuna Robanesti","state_id":4742,"state_code":"DJ","country_id":181,"country_code":"RO","latitude":"44.30356000","longitude":"24.00582000"},{"id":"92780","name":"Comuna Rojiste","state_id":4742,"state_code":"DJ","country_id":181,"country_code":"RO","latitude":"44.02515000","longitude":"23.91865000"},{"id":"92858","name":"Comuna Sadova","state_id":4742,"state_code":"DJ","country_id":181,"country_code":"RO","latitude":"43.88749000","longitude":"23.94622000"},{"id":"93097","name":"Comuna Salcuta","state_id":4742,"state_code":"DJ","country_id":181,"country_code":"RO","latitude":"44.22948000","longitude":"23.45454000"},{"id":"92904","name":"Comuna Scaesti","state_id":4742,"state_code":"DJ","country_id":181,"country_code":"RO","latitude":"44.46591000","longitude":"23.54822000"},{"id":"92909","name":"Comuna Seaca de C\u00e2mp","state_id":4742,"state_code":"DJ","country_id":181,"country_code":"RO","latitude":"43.92824000","longitude":"23.19955000"},{"id":"92910","name":"Comuna Seaca de Padure","state_id":4742,"state_code":"DJ","country_id":181,"country_code":"RO","latitude":"44.37108000","longitude":"23.32359000"},{"id":"92912","name":"Comuna Secu","state_id":4742,"state_code":"DJ","country_id":181,"country_code":"RO","latitude":"44.47854000","longitude":"23.29525000"},{"id":"92933","name":"Comuna Silistea Crucii","state_id":4742,"state_code":"DJ","country_id":181,"country_code":"RO","latitude":"44.04488000","longitude":"23.48194000"},{"id":"92977","name":"Comuna Sopot","state_id":4742,"state_code":"DJ","country_id":181,"country_code":"RO","latitude":"44.39061000","longitude":"23.51252000"},{"id":"93232","name":"Comuna T\u00e3lpas","state_id":4742,"state_code":"DJ","country_id":181,"country_code":"RO","latitude":"44.68256000","longitude":"23.74391000"},{"id":"93132","name":"Comuna Teasc","state_id":4742,"state_code":"DJ","country_id":181,"country_code":"RO","latitude":"44.17820000","longitude":"23.86390000"},{"id":"93143","name":"Comuna Terpezita","state_id":4742,"state_code":"DJ","country_id":181,"country_code":"RO","latitude":"44.30631000","longitude":"23.49202000"},{"id":"93145","name":"Comuna Teslui","state_id":4742,"state_code":"DJ","country_id":181,"country_code":"RO","latitude":"44.20534000","longitude":"24.15241000"},{"id":"93276","name":"Comuna Unirea","state_id":4742,"state_code":"DJ","country_id":181,"country_code":"RO","latitude":"44.15811000","longitude":"23.17936000"},{"id":"93287","name":"Comuna Urzicuta","state_id":4742,"state_code":"DJ","country_id":181,"country_code":"RO","latitude":"44.01485000","longitude":"23.56956000"},{"id":"93323","name":"Comuna Valea Stanciului","state_id":4742,"state_code":"DJ","country_id":181,"country_code":"RO","latitude":"43.98333000","longitude":"23.86667000"},{"id":"93446","name":"Comuna V\u00e2rtop","state_id":4742,"state_code":"DJ","country_id":181,"country_code":"RO","latitude":"44.20873000","longitude":"23.34831000"},{"id":"93447","name":"Comuna V\u00e2rvoru de Jos","state_id":4742,"state_code":"DJ","country_id":181,"country_code":"RO","latitude":"44.24458000","longitude":"23.60636000"},{"id":"93341","name":"Comuna Vela","state_id":4742,"state_code":"DJ","country_id":181,"country_code":"RO","latitude":"44.28526000","longitude":"23.37887000"},{"id":"93342","name":"Comuna Verbita","state_id":4742,"state_code":"DJ","country_id":181,"country_code":"RO","latitude":"44.29305000","longitude":"23.17886000"},{"id":"93704","name":"Craiova","state_id":4742,"state_code":"DJ","country_id":181,"country_code":"RO","latitude":"44.31667000","longitude":"23.80000000"},{"id":"94114","name":"Dabuleni","state_id":4742,"state_code":"DJ","country_id":181,"country_code":"RO","latitude":"43.80000000","longitude":"24.08333000"},{"id":"94129","name":"Daneti","state_id":4742,"state_code":"DJ","country_id":181,"country_code":"RO","latitude":"43.98333000","longitude":"24.05000000"},{"id":"93925","name":"Desa","state_id":4742,"state_code":"DJ","country_id":181,"country_code":"RO","latitude":"43.86667000","longitude":"23.03333000"},{"id":"93939","name":"Diosti","state_id":4742,"state_code":"DJ","country_id":181,"country_code":"RO","latitude":"44.11667000","longitude":"24.18333000"},{"id":"93954","name":"Dobresti","state_id":4742,"state_code":"DJ","country_id":181,"country_code":"RO","latitude":"43.96667000","longitude":"23.95000000"},{"id":"93958","name":"Dobridor","state_id":4742,"state_code":"DJ","country_id":181,"country_code":"RO","latitude":"44.11866000","longitude":"23.16969000"},{"id":"93966","name":"Dobrote\u0219ti","state_id":4742,"state_code":"DJ","country_id":181,"country_code":"RO","latitude":"43.96141000","longitude":"24.12405000"},{"id":"94045","name":"Dragotesti","state_id":4742,"state_code":"DJ","country_id":181,"country_code":"RO","latitude":"44.25000000","longitude":"24.10000000"},{"id":"94065","name":"Dranic","state_id":4742,"state_code":"DJ","country_id":181,"country_code":"RO","latitude":"44.05519000","longitude":"23.84678000"},{"id":"94250","name":"Facai","state_id":4742,"state_code":"DJ","country_id":181,"country_code":"RO","latitude":"44.27356000","longitude":"23.82029000"},{"id":"94263","name":"Farca\u0219","state_id":4742,"state_code":"DJ","country_id":181,"country_code":"RO","latitude":"44.60000000","longitude":"23.75000000"},{"id":"94171","name":"Filiasi","state_id":4742,"state_code":"DJ","country_id":181,"country_code":"RO","latitude":"44.55000000","longitude":"23.51667000"},{"id":"94203","name":"Frato\u0219ti\u021ba","state_id":4742,"state_code":"DJ","country_id":181,"country_code":"RO","latitude":"44.58671000","longitude":"23.57044000"},{"id":"94278","name":"Galicea Mare","state_id":4742,"state_code":"DJ","country_id":181,"country_code":"RO","latitude":"44.10000000","longitude":"23.30000000"},{"id":"94279","name":"Galiciuica","state_id":4742,"state_code":"DJ","country_id":181,"country_code":"RO","latitude":"44.10324000","longitude":"23.39067000"},{"id":"94480","name":"G\u00e2ngiova","state_id":4742,"state_code":"DJ","country_id":181,"country_code":"RO","latitude":"43.90000000","longitude":"23.85000000"},{"id":"94317","name":"Ghidici","state_id":4742,"state_code":"DJ","country_id":181,"country_code":"RO","latitude":"43.89103000","longitude":"23.19454000"},{"id":"94327","name":"Ghindeni","state_id":4742,"state_code":"DJ","country_id":181,"country_code":"RO","latitude":"44.21223000","longitude":"23.92336000"},{"id":"94338","name":"Ghizdave\u0219ti","state_id":4742,"state_code":"DJ","country_id":181,"country_code":"RO","latitude":"44.05757000","longitude":"24.10811000"},{"id":"94343","name":"Gighera","state_id":4742,"state_code":"DJ","country_id":181,"country_code":"RO","latitude":"43.85000000","longitude":"23.80000000"},{"id":"94349","name":"Giubega","state_id":4742,"state_code":"DJ","country_id":181,"country_code":"RO","latitude":"44.12740000","longitude":"23.40757000"},{"id":"94354","name":"Giurgita","state_id":4742,"state_code":"DJ","country_id":181,"country_code":"RO","latitude":"44.01667000","longitude":"23.63333000"},{"id":"94373","name":"Gogosu","state_id":4742,"state_code":"DJ","country_id":181,"country_code":"RO","latitude":"44.41667000","longitude":"23.36667000"},{"id":"94375","name":"Goicea","state_id":4742,"state_code":"DJ","country_id":181,"country_code":"RO","latitude":"43.91667000","longitude":"23.61667000"},{"id":"94376","name":"Goie\u0219ti","state_id":4742,"state_code":"DJ","country_id":181,"country_code":"RO","latitude":"44.48333000","longitude":"23.76667000"},{"id":"94406","name":"Grecesti","state_id":4742,"state_code":"DJ","country_id":181,"country_code":"RO","latitude":"44.45000000","longitude":"23.28333000"},{"id":"94579","name":"Hunia","state_id":4742,"state_code":"DJ","country_id":181,"country_code":"RO","latitude":"44.05532000","longitude":"23.09893000"},{"id":"94721","name":"Isalnita","state_id":4742,"state_code":"DJ","country_id":181,"country_code":"RO","latitude":"44.40000000","longitude":"23.73333000"},{"id":"94702","name":"Izvoare","state_id":4742,"state_code":"DJ","country_id":181,"country_code":"RO","latitude":"44.14773000","longitude":"23.29582000"},{"id":"94789","name":"Leu","state_id":4742,"state_code":"DJ","country_id":181,"country_code":"RO","latitude":"44.18333000","longitude":"24.00000000"},{"id":"94827","name":"Li\u0219teava","state_id":4742,"state_code":"DJ","country_id":181,"country_code":"RO","latitude":"43.83418000","longitude":"23.92022000"},{"id":"94805","name":"Lipovu","state_id":4742,"state_code":"DJ","country_id":181,"country_code":"RO","latitude":"44.10000000","longitude":"23.63333000"},{"id":"94904","name":"Maglavit","state_id":4742,"state_code":"DJ","country_id":181,"country_code":"RO","latitude":"44.03333000","longitude":"23.10000000"},{"id":"94916","name":"Malu Mare","state_id":4742,"state_code":"DJ","country_id":181,"country_code":"RO","latitude":"44.24182000","longitude":"23.85321000"},{"id":"95223","name":"M\u00e2rsani","state_id":4742,"state_code":"DJ","country_id":181,"country_code":"RO","latitude":"44.01667000","longitude":"24.01667000"},{"id":"95227","name":"Macesu de Jos","state_id":4742,"state_code":"DJ","country_id":181,"country_code":"RO","latitude":"43.88333000","longitude":"23.71667000"},{"id":"95228","name":"Macesu de Sus","state_id":4742,"state_code":"DJ","country_id":181,"country_code":"RO","latitude":"43.91667000","longitude":"23.70000000"},{"id":"94947","name":"Melinesti","state_id":4742,"state_code":"DJ","country_id":181,"country_code":"RO","latitude":"44.56667000","longitude":"23.71667000"},{"id":"95027","name":"Mischii","state_id":4742,"state_code":"DJ","country_id":181,"country_code":"RO","latitude":"44.38333000","longitude":"23.85000000"},{"id":"95093","name":"Motatei","state_id":4742,"state_code":"DJ","country_id":181,"country_code":"RO","latitude":"44.08333000","longitude":"23.20000000"},{"id":"95048","name":"Mofleni","state_id":4742,"state_code":"DJ","country_id":181,"country_code":"RO","latitude":"44.30220000","longitude":"23.75848000"},{"id":"95121","name":"Municipiul B\u00e3ilesti","state_id":4742,"state_code":"DJ","country_id":181,"country_code":"RO","latitude":"44.02121000","longitude":"23.34475000"},{"id":"95122","name":"Municipiul Calafat","state_id":4742,"state_code":"DJ","country_id":181,"country_code":"RO","latitude":"43.98979000","longitude":"22.93130000"},{"id":"95128","name":"Municipiul Craiova","state_id":4742,"state_code":"DJ","country_id":181,"country_code":"RO","latitude":"44.31943000","longitude":"23.80875000"},{"id":"95205","name":"Murga\u0219i","state_id":4742,"state_code":"DJ","country_id":181,"country_code":"RO","latitude":"44.49968000","longitude":"23.86698000"},{"id":"95305","name":"Nedeia","state_id":4742,"state_code":"DJ","country_id":181,"country_code":"RO","latitude":"43.84992000","longitude":"23.77643000"},{"id":"95308","name":"Negoi","state_id":4742,"state_code":"DJ","country_id":181,"country_code":"RO","latitude":"43.91396000","longitude":"23.37288000"},{"id":"95310","name":"Negoie\u0219ti","state_id":4742,"state_code":"DJ","country_id":181,"country_code":"RO","latitude":"44.53584000","longitude":"23.72690000"},{"id":"95403","name":"Ocolna","state_id":4742,"state_code":"DJ","country_id":181,"country_code":"RO","latitude":"43.87917000","longitude":"24.13405000"},{"id":"95459","name":"Oras Bechet","state_id":4742,"state_code":"DJ","country_id":181,"country_code":"RO","latitude":"43.78301000","longitude":"23.95870000"},{"id":"95512","name":"Oras D\u00e3buleni","state_id":4742,"state_code":"DJ","country_id":181,"country_code":"RO","latitude":"43.78047000","longitude":"24.08653000"},{"id":"95517","name":"Oras Filiasi","state_id":4742,"state_code":"DJ","country_id":181,"country_code":"RO","latitude":"44.56847000","longitude":"23.55164000"},{"id":"95586","name":"Oras Segarcea","state_id":4742,"state_code":"DJ","country_id":181,"country_code":"RO","latitude":"44.09434000","longitude":"23.74197000"},{"id":"95663","name":"Orodel","state_id":4742,"state_code":"DJ","country_id":181,"country_code":"RO","latitude":"44.23333000","longitude":"23.23333000"},{"id":"95678","name":"Ostroveni","state_id":4742,"state_code":"DJ","country_id":181,"country_code":"RO","latitude":"43.80000000","longitude":"23.90000000"},{"id":"95692","name":"Padea","state_id":4742,"state_code":"DJ","country_id":181,"country_code":"RO","latitude":"44.02128000","longitude":"23.86827000"},{"id":"95738","name":"Peri\u0219or","state_id":4742,"state_code":"DJ","country_id":181,"country_code":"RO","latitude":"44.14331000","longitude":"23.47509000"},{"id":"95775","name":"Pielest\u00ed","state_id":4742,"state_code":"DJ","country_id":181,"country_code":"RO","latitude":"44.33333000","longitude":"23.95000000"},{"id":"95798","name":"Piscu Nou","state_id":4742,"state_code":"DJ","country_id":181,"country_code":"RO","latitude":"43.92400000","longitude":"23.17917000"},{"id":"95799","name":"Piscu Sadovei","state_id":4742,"state_code":"DJ","country_id":181,"country_code":"RO","latitude":"43.87729000","longitude":"23.93687000"},{"id":"95800","name":"Piscu Vechi","state_id":4742,"state_code":"DJ","country_id":181,"country_code":"RO","latitude":"43.90000000","longitude":"23.16667000"},{"id":"95813","name":"Ple\u0219oi","state_id":4742,"state_code":"DJ","country_id":181,"country_code":"RO","latitude":"44.35077000","longitude":"23.53345000"},{"id":"95809","name":"Plenita","state_id":4742,"state_code":"DJ","country_id":181,"country_code":"RO","latitude":"44.21667000","longitude":"23.18333000"},{"id":"95842","name":"Podari","state_id":4742,"state_code":"DJ","country_id":181,"country_code":"RO","latitude":"44.25000000","longitude":"23.78333000"},{"id":"95876","name":"Poiana Mare","state_id":4742,"state_code":"DJ","country_id":181,"country_code":"RO","latitude":"43.91667000","longitude":"23.06667000"},{"id":"95918","name":"Popoveni","state_id":4742,"state_code":"DJ","country_id":181,"country_code":"RO","latitude":"44.28800000","longitude":"23.78208000"},{"id":"95940","name":"Prapor","state_id":4742,"state_code":"DJ","country_id":181,"country_code":"RO","latitude":"43.94487000","longitude":"24.17475000"},{"id":"95941","name":"Preajba","state_id":4742,"state_code":"DJ","country_id":181,"country_code":"RO","latitude":"44.26511000","longitude":"23.85024000"},{"id":"95943","name":"Predesti","state_id":4742,"state_code":"DJ","country_id":181,"country_code":"RO","latitude":"44.35000000","longitude":"23.60000000"},{"id":"95992","name":"Pu\u021buri","state_id":4742,"state_code":"DJ","country_id":181,"country_code":"RO","latitude":"44.13835000","longitude":"24.01017000"},{"id":"96052","name":"Radomir","state_id":4742,"state_code":"DJ","country_id":181,"country_code":"RO","latitude":"44.12115000","longitude":"24.16832000"},{"id":"96054","name":"Radovan","state_id":4742,"state_code":"DJ","country_id":181,"country_code":"RO","latitude":"44.16667000","longitude":"23.61667000"},{"id":"96062","name":"Rast","state_id":4742,"state_code":"DJ","country_id":181,"country_code":"RO","latitude":"43.88333000","longitude":"23.28333000"},{"id":"96183","name":"Racarii de Sus","state_id":4742,"state_code":"DJ","country_id":181,"country_code":"RO","latitude":"44.53539000","longitude":"23.55746000"},{"id":"96103","name":"Roji\u0219te","state_id":4742,"state_code":"DJ","country_id":181,"country_code":"RO","latitude":"44.06683000","longitude":"23.93898000"},{"id":"96225","name":"Sadova","state_id":4742,"state_code":"DJ","country_id":181,"country_code":"RO","latitude":"43.90000000","longitude":"23.95000000"},{"id":"96233","name":"Salcia","state_id":4742,"state_code":"DJ","country_id":181,"country_code":"RO","latitude":"44.48195000","longitude":"23.44645000"},{"id":"96261","name":"Satu Nou Calopar","state_id":4742,"state_code":"DJ","country_id":181,"country_code":"RO","latitude":"44.16667000","longitude":"23.76667000"},{"id":"106014","name":"Salcuta","state_id":4742,"state_code":"DJ","country_id":181,"country_code":"RO","latitude":"44.25000000","longitude":"23.43333000"},{"id":"106015","name":"Salcu\u021ba","state_id":4742,"state_code":"DJ","country_id":181,"country_code":"RO","latitude":"44.15986000","longitude":"23.70247000"},{"id":"106031","name":"Sarata","state_id":4742,"state_code":"DJ","country_id":181,"country_code":"RO","latitude":"43.77436000","longitude":"24.03351000"},{"id":"96295","name":"Scaesti","state_id":4742,"state_code":"DJ","country_id":181,"country_code":"RO","latitude":"44.46667000","longitude":"23.58333000"},{"id":"96300","name":"Seaca de C\u00e2mp","state_id":4742,"state_code":"DJ","country_id":181,"country_code":"RO","latitude":"43.93333000","longitude":"23.21667000"},{"id":"96301","name":"Seaca de Padure","state_id":4742,"state_code":"DJ","country_id":181,"country_code":"RO","latitude":"44.36611000","longitude":"23.30587000"},{"id":"96313","name":"Secu","state_id":4742,"state_code":"DJ","country_id":181,"country_code":"RO","latitude":"44.46667000","longitude":"23.30000000"},{"id":"96314","name":"Secui","state_id":4742,"state_code":"DJ","country_id":181,"country_code":"RO","latitude":"44.19186000","longitude":"23.86319000"},{"id":"96319","name":"Segarcea","state_id":4742,"state_code":"DJ","country_id":181,"country_code":"RO","latitude":"44.10000000","longitude":"23.75000000"},{"id":"96331","name":"Sf\u00e2rcea","state_id":4742,"state_code":"DJ","country_id":181,"country_code":"RO","latitude":"44.48613000","longitude":"23.54661000"},{"id":"96342","name":"Silistea Crucii","state_id":4742,"state_code":"DJ","country_id":181,"country_code":"RO","latitude":"44.03333000","longitude":"23.48333000"},{"id":"96389","name":"Sm\u00e2rdan","state_id":4742,"state_code":"DJ","country_id":181,"country_code":"RO","latitude":"43.93382000","longitude":"22.96592000"},{"id":"96412","name":"Sopot","state_id":4742,"state_code":"DJ","country_id":181,"country_code":"RO","latitude":"44.41667000","longitude":"23.50000000"},{"id":"96603","name":"Talpa\u0219","state_id":4742,"state_code":"DJ","country_id":181,"country_code":"RO","latitude":"44.68227000","longitude":"23.74553000"},{"id":"106067","name":"Teasc","state_id":4742,"state_code":"DJ","country_id":181,"country_code":"RO","latitude":"44.16454000","longitude":"23.86461000"},{"id":"106086","name":"Terpezita","state_id":4742,"state_code":"DJ","country_id":181,"country_code":"RO","latitude":"44.29191000","longitude":"23.50559000"},{"id":"106088","name":"Teslui","state_id":4742,"state_code":"DJ","country_id":181,"country_code":"RO","latitude":"44.20559000","longitude":"24.15482000"},{"id":"96670","name":"Unirea","state_id":4742,"state_code":"DJ","country_id":181,"country_code":"RO","latitude":"44.15000000","longitude":"23.18333000"},{"id":"96689","name":"Urzicuta","state_id":4742,"state_code":"DJ","country_id":181,"country_code":"RO","latitude":"44.01667000","longitude":"23.55000000"},{"id":"96756","name":"Valea Stanciului","state_id":4742,"state_code":"DJ","country_id":181,"country_code":"RO","latitude":"43.98333000","longitude":"23.86667000"},{"id":"96947","name":"V\u00e2rtop","state_id":4742,"state_code":"DJ","country_id":181,"country_code":"RO","latitude":"44.20682000","longitude":"23.34869000"},{"id":"96948","name":"V\u00e2rvoru de Jos","state_id":4742,"state_code":"DJ","country_id":181,"country_code":"RO","latitude":"44.24415000","longitude":"23.60790000"},{"id":"96784","name":"Vela","state_id":4742,"state_code":"DJ","country_id":181,"country_code":"RO","latitude":"44.28333000","longitude":"23.41667000"},{"id":"96785","name":"Verbita","state_id":4742,"state_code":"DJ","country_id":181,"country_code":"RO","latitude":"44.30000000","longitude":"23.16667000"},{"id":"97012","name":"Zanoaga","state_id":4742,"state_code":"DJ","country_id":181,"country_code":"RO","latitude":"44.15511000","longitude":"24.09832000"},{"id":"97020","name":"Zaval","state_id":4742,"state_code":"DJ","country_id":181,"country_code":"RO","latitude":"43.84717000","longitude":"23.84208000"}]