[{"id":"89948","name":"Amara","state_id":4756,"state_code":"BZ","country_id":181,"country_code":"RO","latitude":"45.24866000","longitude":"27.29244000"},{"id":"89949","name":"Amaru","state_id":4756,"state_code":"BZ","country_id":181,"country_code":"RO","latitude":"44.93333000","longitude":"26.58333000"},{"id":"97108","name":"Tintesti","state_id":4756,"state_code":"BZ","country_id":181,"country_code":"RO","latitude":"45.06667000","longitude":"26.86667000"},{"id":"90019","name":"Babeti","state_id":4756,"state_code":"BZ","country_id":181,"country_code":"RO","latitude":"45.31667000","longitude":"26.38333000"},{"id":"90047","name":"Balta Alba","state_id":4756,"state_code":"BZ","country_id":181,"country_code":"RO","latitude":"45.30423000","longitude":"27.28557000"},{"id":"90462","name":"B\u00e2sca Chiojdului","state_id":4756,"state_code":"BZ","country_id":181,"country_code":"RO","latitude":"45.37120000","longitude":"26.18355000"},{"id":"90463","name":"B\u00e2sca Rozilei","state_id":4756,"state_code":"BZ","country_id":181,"country_code":"RO","latitude":"45.45387000","longitude":"26.33714000"},{"id":"90464","name":"B\u00e2scenii de Jos","state_id":4756,"state_code":"BZ","country_id":181,"country_code":"RO","latitude":"45.24708000","longitude":"26.32122000"},{"id":"90465","name":"B\u00e2scenii de Sus","state_id":4756,"state_code":"BZ","country_id":181,"country_code":"RO","latitude":"45.26662000","longitude":"26.27073000"},{"id":"90469","name":"Babeni","state_id":4756,"state_code":"BZ","country_id":181,"country_code":"RO","latitude":"45.44635000","longitude":"26.97875000"},{"id":"90522","name":"Balaceanu","state_id":4756,"state_code":"BZ","country_id":181,"country_code":"RO","latitude":"45.26667000","longitude":"27.15000000"},{"id":"90075","name":"Beceni","state_id":4756,"state_code":"BZ","country_id":181,"country_code":"RO","latitude":"45.38333000","longitude":"26.78333000"},{"id":"90097","name":"Berca","state_id":4756,"state_code":"BZ","country_id":181,"country_code":"RO","latitude":"45.28333000","longitude":"26.68333000"},{"id":"90142","name":"Bisoca","state_id":4756,"state_code":"BZ","country_id":181,"country_code":"RO","latitude":"45.53333000","longitude":"26.70000000"},{"id":"90165","name":"Blajani","state_id":4756,"state_code":"BZ","country_id":181,"country_code":"RO","latitude":"45.31667000","longitude":"26.81667000"},{"id":"90169","name":"Boboc","state_id":4756,"state_code":"BZ","country_id":181,"country_code":"RO","latitude":"45.19570000","longitude":"26.98136000"},{"id":"90211","name":"Boldu","state_id":4756,"state_code":"BZ","country_id":181,"country_code":"RO","latitude":"45.33333000","longitude":"27.23333000"},{"id":"90253","name":"Bozioru","state_id":4756,"state_code":"BZ","country_id":181,"country_code":"RO","latitude":"45.38333000","longitude":"26.48333000"},{"id":"90321","name":"Bradeanu","state_id":4756,"state_code":"BZ","country_id":181,"country_code":"RO","latitude":"44.93333000","longitude":"26.85000000"},{"id":"90330","name":"Braesti","state_id":4756,"state_code":"BZ","country_id":181,"country_code":"RO","latitude":"45.43333000","longitude":"26.50000000"},{"id":"90285","name":"Breaza","state_id":4756,"state_code":"BZ","country_id":181,"country_code":"RO","latitude":"45.10000000","longitude":"26.53333000"},{"id":"90374","name":"Buda","state_id":4756,"state_code":"BZ","country_id":181,"country_code":"RO","latitude":"45.50000000","longitude":"26.90000000"},{"id":"90421","name":"Buruenesti","state_id":4756,"state_code":"BZ","country_id":181,"country_code":"RO","latitude":"45.31667000","longitude":"26.35000000"},{"id":"90435","name":"Buzau","state_id":4756,"state_code":"BZ","country_id":181,"country_code":"RO","latitude":"45.15000000","longitude":"26.83333000"},{"id":"90558","name":"C.a. Rosetti","state_id":4756,"state_code":"BZ","country_id":181,"country_code":"RO","latitude":"45.04622000","longitude":"27.16640000"},{"id":"90597","name":"Ca\u0219oca","state_id":4756,"state_code":"BZ","country_id":181,"country_code":"RO","latitude":"45.48914000","longitude":"26.26706000"},{"id":"90566","name":"Calvini","state_id":4756,"state_code":"BZ","country_id":181,"country_code":"RO","latitude":"45.25000000","longitude":"26.30000000"},{"id":"93834","name":"Caldara\u0219ti","state_id":4756,"state_code":"BZ","country_id":181,"country_code":"RO","latitude":"44.89375000","longitude":"27.03400000"},{"id":"93856","name":"Canesti","state_id":4756,"state_code":"BZ","country_id":181,"country_code":"RO","latitude":"45.40000000","longitude":"26.60000000"},{"id":"93865","name":"Capa\u021b\u00e2ne\u0219ti","state_id":4756,"state_code":"BZ","country_id":181,"country_code":"RO","latitude":"45.18333000","longitude":"26.80000000"},{"id":"93877","name":"Catina","state_id":4756,"state_code":"BZ","country_id":181,"country_code":"RO","latitude":"45.30000000","longitude":"26.25000000"},{"id":"90638","name":"Cernatesti","state_id":4756,"state_code":"BZ","country_id":181,"country_code":"RO","latitude":"45.26667000","longitude":"26.76667000"},{"id":"90668","name":"Chiliile","state_id":4756,"state_code":"BZ","country_id":181,"country_code":"RO","latitude":"45.45000000","longitude":"26.58333000"},{"id":"90674","name":"Chiojdu","state_id":4756,"state_code":"BZ","country_id":181,"country_code":"RO","latitude":"45.35000000","longitude":"26.20000000"},{"id":"90701","name":"Cilibia","state_id":4756,"state_code":"BZ","country_id":181,"country_code":"RO","latitude":"45.06667000","longitude":"27.06667000"},{"id":"90736","name":"Cislau","state_id":4756,"state_code":"BZ","country_id":181,"country_code":"RO","latitude":"45.25000000","longitude":"26.36667000"},{"id":"90776","name":"Cochirleanca","state_id":4756,"state_code":"BZ","country_id":181,"country_code":"RO","latitude":"45.21667000","longitude":"27.03333000"},{"id":"93700","name":"Co\u021batcu","state_id":4756,"state_code":"BZ","country_id":181,"country_code":"RO","latitude":"45.46643000","longitude":"27.01486000"},{"id":"90802","name":"Colti","state_id":4756,"state_code":"BZ","country_id":181,"country_code":"RO","latitude":"45.38333000","longitude":"26.38333000"},{"id":"90863","name":"Comuna Amaru","state_id":4756,"state_code":"BZ","country_id":181,"country_code":"RO","latitude":"44.93770000","longitude":"26.59991000"},{"id":"93576","name":"Comuna Tintesti","state_id":4756,"state_code":"BZ","country_id":181,"country_code":"RO","latitude":"45.07280000","longitude":"26.85786000"},{"id":"90929","name":"Comuna Balta Alba","state_id":4756,"state_code":"BZ","country_id":181,"country_code":"RO","latitude":"45.26376000","longitude":"27.30558000"},{"id":"91223","name":"Comuna Balaceanu","state_id":4756,"state_code":"BZ","country_id":181,"country_code":"RO","latitude":"45.24656000","longitude":"27.13604000"},{"id":"90944","name":"Comuna Beceni","state_id":4756,"state_code":"BZ","country_id":181,"country_code":"RO","latitude":"45.38456000","longitude":"26.76978000"},{"id":"90959","name":"Comuna Berca","state_id":4756,"state_code":"BZ","country_id":181,"country_code":"RO","latitude":"45.30098000","longitude":"26.65989000"},{"id":"90994","name":"Comuna Bisoca","state_id":4756,"state_code":"BZ","country_id":181,"country_code":"RO","latitude":"45.54340000","longitude":"26.70591000"},{"id":"91008","name":"Comuna Blajani","state_id":4756,"state_code":"BZ","country_id":181,"country_code":"RO","latitude":"45.29964000","longitude":"26.81716000"},{"id":"91039","name":"Comuna Boldu","state_id":4756,"state_code":"BZ","country_id":181,"country_code":"RO","latitude":"45.32267000","longitude":"27.24313000"},{"id":"91067","name":"Comuna Bozioru","state_id":4756,"state_code":"BZ","country_id":181,"country_code":"RO","latitude":"45.38987000","longitude":"26.46770000"},{"id":"91111","name":"Comuna Bradeanu","state_id":4756,"state_code":"BZ","country_id":181,"country_code":"RO","latitude":"44.89367000","longitude":"26.86105000"},{"id":"91117","name":"Comuna Braesti","state_id":4756,"state_code":"BZ","country_id":181,"country_code":"RO","latitude":"45.44253000","longitude":"26.49487000"},{"id":"91089","name":"Comuna Breaza","state_id":4756,"state_code":"BZ","country_id":181,"country_code":"RO","latitude":"45.09183000","longitude":"26.53240000"},{"id":"91142","name":"Comuna Buda","state_id":4756,"state_code":"BZ","country_id":181,"country_code":"RO","latitude":"45.50907000","longitude":"26.90434000"},{"id":"91251","name":"Comuna C.A. Rosetti","state_id":4756,"state_code":"BZ","country_id":181,"country_code":"RO","latitude":"45.03678000","longitude":"27.16722000"},{"id":"91255","name":"Comuna Calvini","state_id":4756,"state_code":"BZ","country_id":181,"country_code":"RO","latitude":"45.24906000","longitude":"26.29982000"},{"id":"91582","name":"Comuna Canesti","state_id":4756,"state_code":"BZ","country_id":181,"country_code":"RO","latitude":"45.39711000","longitude":"26.60889000"},{"id":"91593","name":"Comuna Catina","state_id":4756,"state_code":"BZ","country_id":181,"country_code":"RO","latitude":"45.28747000","longitude":"26.24479000"},{"id":"91296","name":"Comuna Cernatesti","state_id":4756,"state_code":"BZ","country_id":181,"country_code":"RO","latitude":"45.29838000","longitude":"26.76260000"},{"id":"91315","name":"Comuna Chiliile","state_id":4756,"state_code":"BZ","country_id":181,"country_code":"RO","latitude":"45.44784000","longitude":"26.59441000"},{"id":"91320","name":"Comuna Chiojdu","state_id":4756,"state_code":"BZ","country_id":181,"country_code":"RO","latitude":"45.36671000","longitude":"26.21840000"},{"id":"91336","name":"Comuna Cilibia","state_id":4756,"state_code":"BZ","country_id":181,"country_code":"RO","latitude":"45.05219000","longitude":"27.04337000"},{"id":"91361","name":"Comuna Cislau","state_id":4756,"state_code":"BZ","country_id":181,"country_code":"RO","latitude":"45.22578000","longitude":"26.37954000"},{"id":"91386","name":"Comuna Cochirleanca","state_id":4756,"state_code":"BZ","country_id":181,"country_code":"RO","latitude":"45.20146000","longitude":"27.01126000"},{"id":"91402","name":"Comuna Colti","state_id":4756,"state_code":"BZ","country_id":181,"country_code":"RO","latitude":"45.39105000","longitude":"26.40723000"},{"id":"91455","name":"Comuna Costesti","state_id":4756,"state_code":"BZ","country_id":181,"country_code":"RO","latitude":"45.06179000","longitude":"26.77321000"},{"id":"91468","name":"Comuna Cozieni","state_id":4756,"state_code":"BZ","country_id":181,"country_code":"RO","latitude":"45.33240000","longitude":"26.49410000"},{"id":"91773","name":"Comuna Florica","state_id":4756,"state_code":"BZ","country_id":181,"country_code":"RO","latitude":"44.90802000","longitude":"26.76627000"},{"id":"91981","name":"Comuna Galbinasi","state_id":4756,"state_code":"BZ","country_id":181,"country_code":"RO","latitude":"45.07439000","longitude":"26.94363000"},{"id":"91849","name":"Comuna Gheraseni","state_id":4756,"state_code":"BZ","country_id":181,"country_code":"RO","latitude":"45.02443000","longitude":"26.80069000"},{"id":"91845","name":"Comuna Ghergheasa","state_id":4756,"state_code":"BZ","country_id":181,"country_code":"RO","latitude":"45.28915000","longitude":"27.19182000"},{"id":"91882","name":"Comuna Glodeanu-Sarat","state_id":4756,"state_code":"BZ","country_id":181,"country_code":"RO","latitude":"44.87601000","longitude":"26.65897000"},{"id":"91881","name":"Comuna Glodeanu-Silistea","state_id":4756,"state_code":"BZ","country_id":181,"country_code":"RO","latitude":"44.83956000","longitude":"26.76757000"},{"id":"91912","name":"Comuna Greabanu","state_id":4756,"state_code":"BZ","country_id":181,"country_code":"RO","latitude":"45.38794000","longitude":"26.96628000"},{"id":"91952","name":"Comuna Gura Teghii","state_id":4756,"state_code":"BZ","country_id":181,"country_code":"RO","latitude":"45.50703000","longitude":"26.43441000"},{"id":"92138","name":"Comuna Largu","state_id":4756,"state_code":"BZ","country_id":181,"country_code":"RO","latitude":"44.97448000","longitude":"27.16261000"},{"id":"92184","name":"Comuna Lopatari","state_id":4756,"state_code":"BZ","country_id":181,"country_code":"RO","latitude":"45.48774000","longitude":"26.55233000"},{"id":"92189","name":"Comuna Luciu","state_id":4756,"state_code":"BZ","country_id":181,"country_code":"RO","latitude":"44.97510000","longitude":"27.05781000"},{"id":"92367","name":"Comuna M\u00e2nzalesti","state_id":4756,"state_code":"BZ","country_id":181,"country_code":"RO","latitude":"45.50414000","longitude":"26.64561000"},{"id":"92389","name":"Comuna Magura","state_id":4756,"state_code":"BZ","country_id":181,"country_code":"RO","latitude":"45.26962000","longitude":"26.55104000"},{"id":"92417","name":"Comuna Maracineni","state_id":4756,"state_code":"BZ","country_id":181,"country_code":"RO","latitude":"45.18902000","longitude":"26.79393000"},{"id":"92409","name":"Comuna Margaritesti","state_id":4756,"state_code":"BZ","country_id":181,"country_code":"RO","latitude":"45.43496000","longitude":"26.83619000"},{"id":"92255","name":"Comuna Merei","state_id":4756,"state_code":"BZ","country_id":181,"country_code":"RO","latitude":"45.13102000","longitude":"26.66127000"},{"id":"92285","name":"Comuna Mihailesti","state_id":4756,"state_code":"BZ","country_id":181,"country_code":"RO","latitude":"44.92518000","longitude":"26.67330000"},{"id":"92338","name":"Comuna Movila Banului","state_id":4756,"state_code":"BZ","country_id":181,"country_code":"RO","latitude":"44.97607000","longitude":"26.70299000"},{"id":"92361","name":"Comuna Murgesti","state_id":4756,"state_code":"BZ","country_id":181,"country_code":"RO","latitude":"45.40612000","longitude":"26.88883000"},{"id":"92461","name":"Comuna Naeni","state_id":4756,"state_code":"BZ","country_id":181,"country_code":"RO","latitude":"45.09968000","longitude":"26.48944000"},{"id":"92484","name":"Comuna Odaile","state_id":4756,"state_code":"BZ","country_id":181,"country_code":"RO","latitude":"45.38458000","longitude":"26.53966000"},{"id":"92528","name":"Comuna Padina","state_id":4756,"state_code":"BZ","country_id":181,"country_code":"RO","latitude":"44.87082000","longitude":"27.11566000"},{"id":"92538","name":"Comuna Pardosi","state_id":4756,"state_code":"BZ","country_id":181,"country_code":"RO","latitude":"45.44989000","longitude":"26.87934000"},{"id":"92707","name":"Comuna P\u00e2rscov","state_id":4756,"state_code":"BZ","country_id":181,"country_code":"RO","latitude":"45.30760000","longitude":"26.55283000"},{"id":"92720","name":"Comuna Panatau","state_id":4756,"state_code":"BZ","country_id":181,"country_code":"RO","latitude":"45.30516000","longitude":"26.39159000"},{"id":"92580","name":"Comuna Pietroasele","state_id":4756,"state_code":"BZ","country_id":181,"country_code":"RO","latitude":"45.10357000","longitude":"26.59143000"},{"id":"92667","name":"Comuna Posta C\u00e2ln\u00e3u","state_id":4756,"state_code":"BZ","country_id":181,"country_code":"RO","latitude":"45.24683000","longitude":"26.86785000"},{"id":"92614","name":"Comuna Podgoria","state_id":4756,"state_code":"BZ","country_id":181,"country_code":"RO","latitude":"45.45591000","longitude":"27.00626000"},{"id":"92695","name":"Comuna Puiesti","state_id":4756,"state_code":"BZ","country_id":181,"country_code":"RO","latitude":"45.39338000","longitude":"27.20850000"},{"id":"92738","name":"Comuna Racoviteni","state_id":4756,"state_code":"BZ","country_id":181,"country_code":"RO","latitude":"45.35025000","longitude":"26.89919000"},{"id":"92824","name":"Comuna R\u00e2mnicelu","state_id":4756,"state_code":"BZ","country_id":181,"country_code":"RO","latitude":"45.37840000","longitude":"27.13293000"},{"id":"92774","name":"Comuna Robeasca","state_id":4756,"state_code":"BZ","country_id":181,"country_code":"RO","latitude":"45.14246000","longitude":"27.14697000"},{"id":"92818","name":"Comuna Rusetu","state_id":4756,"state_code":"BZ","country_id":181,"country_code":"RO","latitude":"44.94214000","longitude":"27.21863000"},{"id":"93089","name":"Comuna Sageata","state_id":4756,"state_code":"BZ","country_id":181,"country_code":"RO","latitude":"45.10063000","longitude":"27.02496000"},{"id":"93090","name":"Comuna Sahateni","state_id":4756,"state_code":"BZ","country_id":181,"country_code":"RO","latitude":"45.02238000","longitude":"26.56344000"},{"id":"93105","name":"Comuna Sapoca","state_id":4756,"state_code":"BZ","country_id":181,"country_code":"RO","latitude":"45.22290000","longitude":"26.75175000"},{"id":"93108","name":"Comuna Sarulesti","state_id":4756,"state_code":"BZ","country_id":181,"country_code":"RO","latitude":"45.48304000","longitude":"26.77864000"},{"id":"92896","name":"Comuna Scortoasa","state_id":4756,"state_code":"BZ","country_id":181,"country_code":"RO","latitude":"45.36204000","longitude":"26.66176000"},{"id":"92900","name":"Comuna Scutelnici","state_id":4756,"state_code":"BZ","country_id":181,"country_code":"RO","latitude":"44.83964000","longitude":"26.93747000"},{"id":"92944","name":"Comuna Siriu","state_id":4756,"state_code":"BZ","country_id":181,"country_code":"RO","latitude":"45.50872000","longitude":"26.24470000"},{"id":"92962","name":"Comuna Smeeni","state_id":4756,"state_code":"BZ","country_id":181,"country_code":"RO","latitude":"44.98816000","longitude":"26.91261000"},{"id":"93013","name":"Comuna St\u00e2lpu","state_id":4756,"state_code":"BZ","country_id":181,"country_code":"RO","latitude":"45.08519000","longitude":"26.70839000"},{"id":"93159","name":"Comuna Tis\u00e3u","state_id":4756,"state_code":"BZ","country_id":181,"country_code":"RO","latitude":"45.19337000","longitude":"26.57321000"},{"id":"93176","name":"Comuna Topliceni","state_id":4756,"state_code":"BZ","country_id":181,"country_code":"RO","latitude":"45.44104000","longitude":"26.98210000"},{"id":"93261","name":"Comuna Ulmeni","state_id":4756,"state_code":"BZ","country_id":181,"country_code":"RO","latitude":"45.06881000","longitude":"26.62364000"},{"id":"93273","name":"Comuna Unguriu","state_id":4756,"state_code":"BZ","country_id":181,"country_code":"RO","latitude":"45.27963000","longitude":"26.64103000"},{"id":"93294","name":"Comuna Vadu Pasii","state_id":4756,"state_code":"BZ","country_id":181,"country_code":"RO","latitude":"45.15743000","longitude":"26.88249000"},{"id":"93320","name":"Comuna Valea R\u00e2mnicului","state_id":4756,"state_code":"BZ","country_id":181,"country_code":"RO","latitude":"45.36174000","longitude":"27.04675000"},{"id":"93324","name":"Comuna Valea Salciei","state_id":4756,"state_code":"BZ","country_id":181,"country_code":"RO","latitude":"45.48818000","longitude":"26.82912000"},{"id":"93428","name":"Comuna V\u00e2lcelele","state_id":4756,"state_code":"BZ","country_id":181,"country_code":"RO","latitude":"45.34430000","longitude":"27.34937000"},{"id":"93346","name":"Comuna Vernesti","state_id":4756,"state_code":"BZ","country_id":181,"country_code":"RO","latitude":"45.20804000","longitude":"26.69650000"},{"id":"93367","name":"Comuna Vintila Voda","state_id":4756,"state_code":"BZ","country_id":181,"country_code":"RO","latitude":"45.45461000","longitude":"26.72385000"},{"id":"93369","name":"Comuna Viperesti","state_id":4756,"state_code":"BZ","country_id":181,"country_code":"RO","latitude":"45.24643000","longitude":"26.44527000"},{"id":"93489","name":"Comuna Zarnesti","state_id":4756,"state_code":"BZ","country_id":181,"country_code":"RO","latitude":"45.30951000","longitude":"26.88100000"},{"id":"93476","name":"Comuna Ziduri","state_id":4756,"state_code":"BZ","country_id":181,"country_code":"RO","latitude":"45.28211000","longitude":"27.05974000"},{"id":"93620","name":"Corbu","state_id":4756,"state_code":"BZ","country_id":181,"country_code":"RO","latitude":"45.32108000","longitude":"26.24936000"},{"id":"93659","name":"Costesti","state_id":4756,"state_code":"BZ","country_id":181,"country_code":"RO","latitude":"45.05000000","longitude":"26.76667000"},{"id":"93684","name":"Cozieni","state_id":4756,"state_code":"BZ","country_id":181,"country_code":"RO","latitude":"45.33333000","longitude":"26.48333000"},{"id":"94106","name":"D\u00e2mbroca","state_id":4756,"state_code":"BZ","country_id":181,"country_code":"RO","latitude":"45.12328000","longitude":"26.95578000"},{"id":"94136","name":"Dascale\u0219ti","state_id":4756,"state_code":"BZ","country_id":181,"country_code":"RO","latitude":"45.40626000","longitude":"27.25039000"},{"id":"93909","name":"Dedule\u0219ti","state_id":4756,"state_code":"BZ","country_id":181,"country_code":"RO","latitude":"45.47003000","longitude":"26.96737000"},{"id":"94189","name":"Florica","state_id":4756,"state_code":"BZ","country_id":181,"country_code":"RO","latitude":"44.90802000","longitude":"26.76627000"},{"id":"94228","name":"Fundeni","state_id":4756,"state_code":"BZ","country_id":181,"country_code":"RO","latitude":"45.29141000","longitude":"26.88028000"},{"id":"94234","name":"Furtune\u0219ti","state_id":4756,"state_code":"BZ","country_id":181,"country_code":"RO","latitude":"45.45940000","longitude":"26.39760000"},{"id":"94503","name":"Galbinasi","state_id":4756,"state_code":"BZ","country_id":181,"country_code":"RO","latitude":"45.08333000","longitude":"26.91667000"},{"id":"94515","name":"Gavane\u0219ti","state_id":4756,"state_code":"BZ","country_id":181,"country_code":"RO","latitude":"45.08825000","longitude":"27.06499000"},{"id":"94313","name":"Gheraseni","state_id":4756,"state_code":"BZ","country_id":181,"country_code":"RO","latitude":"45.02589000","longitude":"26.79128000"},{"id":"94305","name":"Ghergheasa","state_id":4756,"state_code":"BZ","country_id":181,"country_code":"RO","latitude":"45.26667000","longitude":"27.20000000"},{"id":"94361","name":"Glodeanu-Sarat","state_id":4756,"state_code":"BZ","country_id":181,"country_code":"RO","latitude":"44.86667000","longitude":"26.65000000"},{"id":"94360","name":"Glodeanu-Silistea","state_id":4756,"state_code":"BZ","country_id":181,"country_code":"RO","latitude":"44.83333000","longitude":"26.80000000"},{"id":"94442","name":"Grajdana","state_id":4756,"state_code":"BZ","country_id":181,"country_code":"RO","latitude":"45.20865000","longitude":"26.63114000"},{"id":"94404","name":"Grebanu","state_id":4756,"state_code":"BZ","country_id":181,"country_code":"RO","latitude":"45.38333000","longitude":"26.96667000"},{"id":"94405","name":"Greceanca","state_id":4756,"state_code":"BZ","country_id":181,"country_code":"RO","latitude":"45.07863000","longitude":"26.54468000"},{"id":"94432","name":"Grunji","state_id":4756,"state_code":"BZ","country_id":181,"country_code":"RO","latitude":"45.50000000","longitude":"26.65000000"},{"id":"94461","name":"Gura Teghii","state_id":4756,"state_code":"BZ","country_id":181,"country_code":"RO","latitude":"45.48333000","longitude":"26.41667000"},{"id":"94714","name":"Izvoru","state_id":4756,"state_code":"BZ","country_id":181,"country_code":"RO","latitude":"45.19249000","longitude":"26.59154000"},{"id":"94719","name":"Izvoru Dulce","state_id":4756,"state_code":"BZ","country_id":181,"country_code":"RO","latitude":"45.34178000","longitude":"26.77730000"},{"id":"94762","name":"Largu","state_id":4756,"state_code":"BZ","country_id":181,"country_code":"RO","latitude":"44.96667000","longitude":"27.15000000"},{"id":"94799","name":"Limpezi\u0219","state_id":4756,"state_code":"BZ","country_id":181,"country_code":"RO","latitude":"44.95357000","longitude":"26.70490000"},{"id":"94801","name":"Lipia","state_id":4756,"state_code":"BZ","country_id":181,"country_code":"RO","latitude":"45.13970000","longitude":"26.73505000"},{"id":"94833","name":"Lopatari","state_id":4756,"state_code":"BZ","country_id":181,"country_code":"RO","latitude":"45.48333000","longitude":"26.58333000"},{"id":"94838","name":"Luciu","state_id":4756,"state_code":"BZ","country_id":181,"country_code":"RO","latitude":"44.96667000","longitude":"27.08333000"},{"id":"94858","name":"Lunca","state_id":4756,"state_code":"BZ","country_id":181,"country_code":"RO","latitude":"45.00494000","longitude":"27.21335000"},{"id":"94866","name":"Lunca Jari\u0219tei","state_id":4756,"state_code":"BZ","country_id":181,"country_code":"RO","latitude":"45.48231000","longitude":"26.25483000"},{"id":"94870","name":"Lunca Priporului","state_id":4756,"state_code":"BZ","country_id":181,"country_code":"RO","latitude":"45.43909000","longitude":"26.30869000"},{"id":"94939","name":"Maxenu","state_id":4756,"state_code":"BZ","country_id":181,"country_code":"RO","latitude":"45.05162000","longitude":"26.85498000"},{"id":"95216","name":"M\u00e2nzalesti","state_id":4756,"state_code":"BZ","country_id":181,"country_code":"RO","latitude":"45.50000000","longitude":"26.65000000"},{"id":"95240","name":"Magura","state_id":4756,"state_code":"BZ","country_id":181,"country_code":"RO","latitude":"45.26667000","longitude":"26.58333000"},{"id":"95285","name":"Maracineni","state_id":4756,"state_code":"BZ","country_id":181,"country_code":"RO","latitude":"45.20000000","longitude":"26.80000000"},{"id":"95274","name":"Margaritesti","state_id":4756,"state_code":"BZ","country_id":181,"country_code":"RO","latitude":"45.43333000","longitude":"26.83333000"},{"id":"95283","name":"Marun\u021bi\u0219u","state_id":4756,"state_code":"BZ","country_id":181,"country_code":"RO","latitude":"45.28610000","longitude":"26.35421000"},{"id":"95288","name":"Mate\u0219ti","state_id":4756,"state_code":"BZ","country_id":181,"country_code":"RO","latitude":"45.21339000","longitude":"26.75607000"},{"id":"94950","name":"Merei","state_id":4756,"state_code":"BZ","country_id":181,"country_code":"RO","latitude":"45.13333000","longitude":"26.68333000"},{"id":"94994","name":"Mihailesti","state_id":4756,"state_code":"BZ","country_id":181,"country_code":"RO","latitude":"44.91667000","longitude":"26.66667000"},{"id":"95080","name":"Movila Banului","state_id":4756,"state_code":"BZ","country_id":181,"country_code":"RO","latitude":"44.98333000","longitude":"26.68333000"},{"id":"95119","name":"Municipiul Buzau","state_id":4756,"state_code":"BZ","country_id":181,"country_code":"RO","latitude":"45.15046000","longitude":"26.82136000"},{"id":"95174","name":"Municipiul R\u00e2mnicu S\u00e3rat","state_id":4756,"state_code":"BZ","country_id":181,"country_code":"RO","latitude":"45.38324000","longitude":"27.05162000"},{"id":"95207","name":"Murgesti","state_id":4756,"state_code":"BZ","country_id":181,"country_code":"RO","latitude":"45.40000000","longitude":"26.88333000"},{"id":"95369","name":"Naeni","state_id":4756,"state_code":"BZ","country_id":181,"country_code":"RO","latitude":"45.10000000","longitude":"26.48333000"},{"id":"95325","name":"Nehoiu","state_id":4756,"state_code":"BZ","country_id":181,"country_code":"RO","latitude":"45.41667000","longitude":"26.30000000"},{"id":"95411","name":"Odaile","state_id":4756,"state_code":"BZ","country_id":181,"country_code":"RO","latitude":"45.38333000","longitude":"26.55000000"},{"id":"95551","name":"Oras Nehoiu","state_id":4756,"state_code":"BZ","country_id":181,"country_code":"RO","latitude":"45.41538000","longitude":"26.32089000"},{"id":"95576","name":"Oras P\u00e3t\u00e2rlagele","state_id":4756,"state_code":"BZ","country_id":181,"country_code":"RO","latitude":"45.32035000","longitude":"26.34539000"},{"id":"95570","name":"Oras Pogoanele","state_id":4756,"state_code":"BZ","country_id":181,"country_code":"RO","latitude":"44.90555000","longitude":"27.01183000"},{"id":"95656","name":"Oreavu","state_id":4756,"state_code":"BZ","country_id":181,"country_code":"RO","latitude":"45.36826000","longitude":"27.02301000"},{"id":"95694","name":"Padina","state_id":4756,"state_code":"BZ","country_id":181,"country_code":"RO","latitude":"44.83333000","longitude":"27.11667000"},{"id":"95712","name":"Pardosi","state_id":4756,"state_code":"BZ","country_id":181,"country_code":"RO","latitude":"45.36667000","longitude":"26.90000000"},{"id":"96001","name":"P\u00e2rscov","state_id":4756,"state_code":"BZ","country_id":181,"country_code":"RO","latitude":"45.28333000","longitude":"26.55000000"},{"id":"96012","name":"Paltineni","state_id":4756,"state_code":"BZ","country_id":181,"country_code":"RO","latitude":"45.39596000","longitude":"26.32334000"},{"id":"96018","name":"Panatau","state_id":4756,"state_code":"BZ","country_id":181,"country_code":"RO","latitude":"45.32113000","longitude":"26.39442000"},{"id":"96026","name":"Pat\u00e2rlagele","state_id":4756,"state_code":"BZ","country_id":181,"country_code":"RO","latitude":"45.32081000","longitude":"26.36134000"},{"id":"95785","name":"Pietroasele","state_id":4756,"state_code":"BZ","country_id":181,"country_code":"RO","latitude":"45.10000000","longitude":"26.56667000"},{"id":"95787","name":"Pietrosu","state_id":4756,"state_code":"BZ","country_id":181,"country_code":"RO","latitude":"45.05928000","longitude":"26.75827000"},{"id":"95810","name":"Plevna","state_id":4756,"state_code":"BZ","country_id":181,"country_code":"RO","latitude":"45.37815000","longitude":"27.01310000"},{"id":"95937","name":"Posta C\u00e2lnau","state_id":4756,"state_code":"BZ","country_id":181,"country_code":"RO","latitude":"45.23333000","longitude":"26.85000000"},{"id":"95846","name":"Podgoria","state_id":4756,"state_code":"BZ","country_id":181,"country_code":"RO","latitude":"45.41667000","longitude":"27.01667000"},{"id":"95855","name":"Pogoanele","state_id":4756,"state_code":"BZ","country_id":181,"country_code":"RO","latitude":"44.91667000","longitude":"27.00000000"},{"id":"95856","name":"Pogonele","state_id":4756,"state_code":"BZ","country_id":181,"country_code":"RO","latitude":"45.08645000","longitude":"26.86454000"},{"id":"95934","name":"Potoceni","state_id":4756,"state_code":"BZ","country_id":181,"country_code":"RO","latitude":"45.19660000","longitude":"26.77649000"},{"id":"95980","name":"Puie\u0219tii de Jos","state_id":4756,"state_code":"BZ","country_id":181,"country_code":"RO","latitude":"45.40267000","longitude":"27.22013000"},{"id":"96045","name":"Racoviteni","state_id":4756,"state_code":"BZ","country_id":181,"country_code":"RO","latitude":"45.36667000","longitude":"26.90000000"},{"id":"96167","name":"R\u00e2mnicelu","state_id":4756,"state_code":"BZ","country_id":181,"country_code":"RO","latitude":"45.36381000","longitude":"27.11121000"},{"id":"96170","name":"R\u00e2mnicu Sarat","state_id":4756,"state_code":"BZ","country_id":181,"country_code":"RO","latitude":"45.38333000","longitude":"27.05000000"},{"id":"96097","name":"Robeasca","state_id":4756,"state_code":"BZ","country_id":181,"country_code":"RO","latitude":"45.16667000","longitude":"27.13333000"},{"id":"96163","name":"Rusetu","state_id":4756,"state_code":"BZ","country_id":181,"country_code":"RO","latitude":"44.95000000","longitude":"27.21667000"},{"id":"96143","name":"Rubla","state_id":4756,"state_code":"BZ","country_id":181,"country_code":"RO","latitude":"45.35300000","longitude":"27.07525000"},{"id":"106003","name":"Sageata","state_id":4756,"state_code":"BZ","country_id":181,"country_code":"RO","latitude":"45.10000000","longitude":"26.98333000"},{"id":"106004","name":"Sahateni","state_id":4756,"state_code":"BZ","country_id":181,"country_code":"RO","latitude":"45.03333000","longitude":"26.51667000"},{"id":"106009","name":"Salcioara","state_id":4756,"state_code":"BZ","country_id":181,"country_code":"RO","latitude":"45.30874000","longitude":"27.17692000"},{"id":"106027","name":"Sapoca","state_id":4756,"state_code":"BZ","country_id":181,"country_code":"RO","latitude":"45.25000000","longitude":"26.75000000"},{"id":"106034","name":"Sarulesti","state_id":4756,"state_code":"BZ","country_id":181,"country_code":"RO","latitude":"45.50000000","longitude":"26.75000000"},{"id":"96282","name":"Scortoasa","state_id":4756,"state_code":"BZ","country_id":181,"country_code":"RO","latitude":"45.36403000","longitude":"26.66116000"},{"id":"96289","name":"Scurte\u0219ti","state_id":4756,"state_code":"BZ","country_id":181,"country_code":"RO","latitude":"45.13829000","longitude":"26.90397000"},{"id":"96291","name":"Scutelnici","state_id":4756,"state_code":"BZ","country_id":181,"country_code":"RO","latitude":"44.85000000","longitude":"26.91667000"},{"id":"96386","name":"Smeeni","state_id":4756,"state_code":"BZ","country_id":181,"country_code":"RO","latitude":"44.98333000","longitude":"26.85000000"},{"id":"96469","name":"St\u00e2lpu","state_id":4756,"state_code":"BZ","country_id":181,"country_code":"RO","latitude":"45.08333000","longitude":"26.71667000"},{"id":"96475","name":"Stance\u0219ti","state_id":4756,"state_code":"BZ","country_id":181,"country_code":"RO","latitude":"45.12665000","longitude":"26.92319000"},{"id":"96494","name":"Sudi\u021bi","state_id":4756,"state_code":"BZ","country_id":181,"country_code":"RO","latitude":"45.26890000","longitude":"26.87183000"},{"id":"96599","name":"Tabara\u0219ti","state_id":4756,"state_code":"BZ","country_id":181,"country_code":"RO","latitude":"45.07948000","longitude":"26.91943000"},{"id":"106131","name":"Topliceni","state_id":4756,"state_code":"BZ","country_id":181,"country_code":"RO","latitude":"45.41667000","longitude":"27.00000000"},{"id":"96645","name":"Ulmeni","state_id":4756,"state_code":"BZ","country_id":181,"country_code":"RO","latitude":"45.06667000","longitude":"26.65000000"},{"id":"96664","name":"Unguriu","state_id":4756,"state_code":"BZ","country_id":181,"country_code":"RO","latitude":"45.27933000","longitude":"26.63208000"},{"id":"96699","name":"Vadu Pasii","state_id":4756,"state_code":"BZ","country_id":181,"country_code":"RO","latitude":"45.16667000","longitude":"26.90000000"},{"id":"96702","name":"Vadu Sore\u0219ti","state_id":4756,"state_code":"BZ","country_id":181,"country_code":"RO","latitude":"45.31500000","longitude":"26.87748000"},{"id":"96747","name":"Valea Parului","state_id":4756,"state_code":"BZ","country_id":181,"country_code":"RO","latitude":"45.36374000","longitude":"26.77706000"},{"id":"96750","name":"Valea R\u00e2mnicului","state_id":4756,"state_code":"BZ","country_id":181,"country_code":"RO","latitude":"45.36395000","longitude":"27.04197000"},{"id":"96751","name":"Valea Salciei","state_id":4756,"state_code":"BZ","country_id":181,"country_code":"RO","latitude":"45.49622000","longitude":"26.82361000"},{"id":"96921","name":"V\u00e2lcele","state_id":4756,"state_code":"BZ","country_id":181,"country_code":"RO","latitude":"45.08692000","longitude":"26.63353000"},{"id":"96923","name":"V\u00e2lcelele","state_id":4756,"state_code":"BZ","country_id":181,"country_code":"RO","latitude":"45.34430000","longitude":"27.34937000"},{"id":"96791","name":"Vernesti","state_id":4756,"state_code":"BZ","country_id":181,"country_code":"RO","latitude":"45.21667000","longitude":"26.73333000"},{"id":"96836","name":"Vintila Voda","state_id":4756,"state_code":"BZ","country_id":181,"country_code":"RO","latitude":"45.46667000","longitude":"26.71667000"},{"id":"96834","name":"Vintileanca","state_id":4756,"state_code":"BZ","country_id":181,"country_code":"RO","latitude":"44.98500000","longitude":"26.58005000"},{"id":"96838","name":"Viperesti","state_id":4756,"state_code":"BZ","country_id":181,"country_code":"RO","latitude":"45.23333000","longitude":"26.46667000"},{"id":"97015","name":"Zarnesti","state_id":4756,"state_code":"BZ","country_id":181,"country_code":"RO","latitude":"45.30000000","longitude":"26.86667000"},{"id":"97017","name":"Zarne\u0219tii de Slanic","state_id":4756,"state_code":"BZ","country_id":181,"country_code":"RO","latitude":"45.27708000","longitude":"26.75549000"},{"id":"96991","name":"Ziduri","state_id":4756,"state_code":"BZ","country_id":181,"country_code":"RO","latitude":"45.30000000","longitude":"27.08333000"},{"id":"97002","name":"Zore\u0219ti","state_id":4756,"state_code":"BZ","country_id":181,"country_code":"RO","latitude":"45.18177000","longitude":"26.70291000"}]