[{"id":"89984","name":"Ardusat","state_id":4760,"state_code":"MM","country_id":181,"country_code":"RO","latitude":"47.65000000","longitude":"23.36667000"},{"id":"89994","name":"Arinis","state_id":4760,"state_code":"MM","country_id":181,"country_code":"RO","latitude":"47.50000000","longitude":"23.23333000"},{"id":"90001","name":"Asuaju de Sus","state_id":4760,"state_code":"MM","country_id":181,"country_code":"RO","latitude":"47.56667000","longitude":"23.18333000"},{"id":"97069","name":"Somcuta Mare","state_id":4760,"state_code":"MM","country_id":181,"country_code":"RO","latitude":"47.51667000","longitude":"23.46667000"},{"id":"90029","name":"Baia Mare","state_id":4760,"state_code":"MM","country_id":181,"country_code":"RO","latitude":"47.65729000","longitude":"23.56808000"},{"id":"90030","name":"Baia Sprie","state_id":4760,"state_code":"MM","country_id":181,"country_code":"RO","latitude":"47.66189000","longitude":"23.69215000"},{"id":"90455","name":"B\u00e2rsana","state_id":4760,"state_code":"MM","country_id":181,"country_code":"RO","latitude":"47.81667000","longitude":"24.06667000"},{"id":"90498","name":"Baita de sub Codru","state_id":4760,"state_code":"MM","country_id":181,"country_code":"RO","latitude":"47.53333000","longitude":"23.15000000"},{"id":"90500","name":"Bai\u021ba","state_id":4760,"state_code":"MM","country_id":181,"country_code":"RO","latitude":"47.70614000","longitude":"23.49326000"},{"id":"90488","name":"Baile Bor\u0219a","state_id":4760,"state_code":"MM","country_id":181,"country_code":"RO","latitude":"47.68416000","longitude":"24.71391000"},{"id":"90495","name":"Baiut","state_id":4760,"state_code":"MM","country_id":181,"country_code":"RO","latitude":"47.61667000","longitude":"24.00000000"},{"id":"90550","name":"Basesti","state_id":4760,"state_code":"MM","country_id":181,"country_code":"RO","latitude":"47.48333000","longitude":"23.15000000"},{"id":"90096","name":"Berbe\u0219ti","state_id":4760,"state_code":"MM","country_id":181,"country_code":"RO","latitude":"47.84865000","longitude":"23.93448000"},{"id":"90125","name":"Bicaz","state_id":4760,"state_code":"MM","country_id":181,"country_code":"RO","latitude":"47.46667000","longitude":"23.03333000"},{"id":"90144","name":"Bistra","state_id":4760,"state_code":"MM","country_id":181,"country_code":"RO","latitude":"47.86667000","longitude":"24.20000000"},{"id":"90175","name":"Bocicoiu Mare","state_id":4760,"state_code":"MM","country_id":181,"country_code":"RO","latitude":"47.96667000","longitude":"24.00000000"},{"id":"90187","name":"Bogdan Voda","state_id":4760,"state_code":"MM","country_id":181,"country_code":"RO","latitude":"47.69197000","longitude":"24.26605000"},{"id":"90205","name":"Boiu Mare","state_id":4760,"state_code":"MM","country_id":181,"country_code":"RO","latitude":"47.40000000","longitude":"23.58333000"},{"id":"90238","name":"Borsa","state_id":4760,"state_code":"MM","country_id":181,"country_code":"RO","latitude":"47.65527000","longitude":"24.66328000"},{"id":"90222","name":"Borcut","state_id":4760,"state_code":"MM","country_id":181,"country_code":"RO","latitude":"47.48200000","longitude":"23.84071000"},{"id":"90245","name":"Botiza","state_id":4760,"state_code":"MM","country_id":181,"country_code":"RO","latitude":"47.66667000","longitude":"24.15000000"},{"id":"90290","name":"Breb","state_id":4760,"state_code":"MM","country_id":181,"country_code":"RO","latitude":"47.74854000","longitude":"23.90494000"},{"id":"90381","name":"Budesti","state_id":4760,"state_code":"MM","country_id":181,"country_code":"RO","latitude":"47.73333000","longitude":"23.95000000"},{"id":"90592","name":"Cavnic","state_id":4760,"state_code":"MM","country_id":181,"country_code":"RO","latitude":"47.66667000","longitude":"23.86667000"},{"id":"93802","name":"C\u00e2mpulung la Tisa","state_id":4760,"state_code":"MM","country_id":181,"country_code":"RO","latitude":"47.98651000","longitude":"23.77263000"},{"id":"93839","name":"Calinesti","state_id":4760,"state_code":"MM","country_id":181,"country_code":"RO","latitude":"47.78423000","longitude":"23.96961000"},{"id":"90633","name":"Cernesti","state_id":4760,"state_code":"MM","country_id":181,"country_code":"RO","latitude":"47.51667000","longitude":"23.75000000"},{"id":"90654","name":"Chelin\u021ba","state_id":4760,"state_code":"MM","country_id":181,"country_code":"RO","latitude":"47.45311000","longitude":"23.31799000"},{"id":"90698","name":"Cic\u00e2rlau","state_id":4760,"state_code":"MM","country_id":181,"country_code":"RO","latitude":"47.69155000","longitude":"23.40380000"},{"id":"90774","name":"Coa\u0219","state_id":4760,"state_code":"MM","country_id":181,"country_code":"RO","latitude":"47.53957000","longitude":"23.58584000"},{"id":"90801","name":"Coltau","state_id":4760,"state_code":"MM","country_id":181,"country_code":"RO","latitude":"47.59837000","longitude":"23.52459000"},{"id":"90887","name":"Comuna Ardusat","state_id":4760,"state_code":"MM","country_id":181,"country_code":"RO","latitude":"47.63241000","longitude":"23.39156000"},{"id":"90893","name":"Comuna Arinis","state_id":4760,"state_code":"MM","country_id":181,"country_code":"RO","latitude":"47.50757000","longitude":"23.22435000"},{"id":"90899","name":"Comuna Asuaju de Sus","state_id":4760,"state_code":"MM","country_id":181,"country_code":"RO","latitude":"47.55000000","longitude":"23.20000000"},{"id":"93532","name":"Comuna Sisesti","state_id":4760,"state_code":"MM","country_id":181,"country_code":"RO","latitude":"47.61329000","longitude":"23.74104000"},{"id":"93515","name":"Comuna Sieu","state_id":4760,"state_code":"MM","country_id":181,"country_code":"RO","latitude":"47.72462000","longitude":"24.22389000"},{"id":"91192","name":"Comuna B\u00e2rsana","state_id":4760,"state_code":"MM","country_id":181,"country_code":"RO","latitude":"47.81500000","longitude":"24.05731000"},{"id":"91210","name":"Comuna Baita de sub Codru","state_id":4760,"state_code":"MM","country_id":181,"country_code":"RO","latitude":"47.53333000","longitude":"23.15000000"},{"id":"91207","name":"Comuna Baiut","state_id":4760,"state_code":"MM","country_id":181,"country_code":"RO","latitude":"47.60191000","longitude":"24.00180000"},{"id":"91244","name":"Comuna Basesti","state_id":4760,"state_code":"MM","country_id":181,"country_code":"RO","latitude":"47.49608000","longitude":"23.10786000"},{"id":"90982","name":"Comuna Bicaz","state_id":4760,"state_code":"MM","country_id":181,"country_code":"RO","latitude":"47.46241000","longitude":"23.01474000"},{"id":"90996","name":"Comuna Bistra","state_id":4760,"state_code":"MM","country_id":181,"country_code":"RO","latitude":"47.86860000","longitude":"24.19291000"},{"id":"91014","name":"Comuna Bocicoiu Mare","state_id":4760,"state_code":"MM","country_id":181,"country_code":"RO","latitude":"47.94673000","longitude":"24.01121000"},{"id":"91022","name":"Comuna Bogdan Voda","state_id":4760,"state_code":"MM","country_id":181,"country_code":"RO","latitude":"47.69480000","longitude":"24.29548000"},{"id":"91034","name":"Comuna Boiu Mare","state_id":4760,"state_code":"MM","country_id":181,"country_code":"RO","latitude":"47.40202000","longitude":"23.59965000"},{"id":"91062","name":"Comuna Botiza","state_id":4760,"state_code":"MM","country_id":181,"country_code":"RO","latitude":"47.66818000","longitude":"24.15035000"},{"id":"91145","name":"Comuna Budesti","state_id":4760,"state_code":"MM","country_id":181,"country_code":"RO","latitude":"47.74615000","longitude":"23.94569000"},{"id":"91544","name":"Comuna C\u00e2mpulung la Tisa","state_id":4760,"state_code":"MM","country_id":181,"country_code":"RO","latitude":"47.98651000","longitude":"23.77263000"},{"id":"91571","name":"Comuna Calinesti","state_id":4760,"state_code":"MM","country_id":181,"country_code":"RO","latitude":"47.78502000","longitude":"23.97011000"},{"id":"91292","name":"Comuna Cernesti","state_id":4760,"state_code":"MM","country_id":181,"country_code":"RO","latitude":"47.53576000","longitude":"23.78366000"},{"id":"91334","name":"Comuna Cic\u00e2rlau","state_id":4760,"state_code":"MM","country_id":181,"country_code":"RO","latitude":"47.70582000","longitude":"23.38142000"},{"id":"91383","name":"Comuna Coas","state_id":4760,"state_code":"MM","country_id":181,"country_code":"RO","latitude":"47.51282000","longitude":"23.60046000"},{"id":"91401","name":"Comuna Colt\u00e3u","state_id":4760,"state_code":"MM","country_id":181,"country_code":"RO","latitude":"47.60118000","longitude":"23.53450000"},{"id":"91416","name":"Comuna Copalnic Manastur","state_id":4760,"state_code":"MM","country_id":181,"country_code":"RO","latitude":"47.52250000","longitude":"23.68782000"},{"id":"91446","name":"Comuna Coroieni","state_id":4760,"state_code":"MM","country_id":181,"country_code":"RO","latitude":"47.36635000","longitude":"23.77764000"},{"id":"91526","name":"Comuna Cupseni","state_id":4760,"state_code":"MM","country_id":181,"country_code":"RO","latitude":"47.53255000","longitude":"23.94243000"},{"id":"91618","name":"Comuna Desesti","state_id":4760,"state_code":"MM","country_id":181,"country_code":"RO","latitude":"47.77004000","longitude":"23.85900000"},{"id":"91719","name":"Comuna Dumbravita","state_id":4760,"state_code":"MM","country_id":181,"country_code":"RO","latitude":"47.60118000","longitude":"23.65726000"},{"id":"91822","name":"Comuna Farcasa","state_id":4760,"state_code":"MM","country_id":181,"country_code":"RO","latitude":"47.59482000","longitude":"23.34826000"},{"id":"91972","name":"Comuna G\u00e2rdani","state_id":4760,"state_code":"MM","country_id":181,"country_code":"RO","latitude":"47.55135000","longitude":"23.30880000"},{"id":"91874","name":"Comuna Giulesti","state_id":4760,"state_code":"MM","country_id":181,"country_code":"RO","latitude":"47.82215000","longitude":"23.92994000"},{"id":"91928","name":"Comuna Grosi","state_id":4760,"state_code":"MM","country_id":181,"country_code":"RO","latitude":"47.61193000","longitude":"23.58661000"},{"id":"91929","name":"Comuna Grosii Tiblesului","state_id":4760,"state_code":"MM","country_id":181,"country_code":"RO","latitude":"47.48983000","longitude":"24.06368000"},{"id":"92065","name":"Comuna Ieud","state_id":4760,"state_code":"MM","country_id":181,"country_code":"RO","latitude":"47.67739000","longitude":"24.23378000"},{"id":"92221","name":"Comuna Lapus","state_id":4760,"state_code":"MM","country_id":181,"country_code":"RO","latitude":"47.49363000","longitude":"24.00646000"},{"id":"92153","name":"Comuna Leordina","state_id":4760,"state_code":"MM","country_id":181,"country_code":"RO","latitude":"47.78306000","longitude":"24.26401000"},{"id":"92298","name":"Comuna Miresu Mare","state_id":4760,"state_code":"MM","country_id":181,"country_code":"RO","latitude":"47.50011000","longitude":"23.36420000"},{"id":"92323","name":"Comuna Moisei","state_id":4760,"state_code":"MM","country_id":181,"country_code":"RO","latitude":"47.65612000","longitude":"24.53988000"},{"id":"92469","name":"Comuna Oarta De Jos","state_id":4760,"state_code":"MM","country_id":181,"country_code":"RO","latitude":"47.45000000","longitude":"23.10000000"},{"id":"92478","name":"Comuna Ocna Sugatag","state_id":4760,"state_code":"MM","country_id":181,"country_code":"RO","latitude":"47.77493000","longitude":"23.91268000"},{"id":"92499","name":"Comuna Oncesti","state_id":4760,"state_code":"MM","country_id":181,"country_code":"RO","latitude":"47.84814000","longitude":"23.98183000"},{"id":"92567","name":"Comuna Petrova","state_id":4760,"state_code":"MM","country_id":181,"country_code":"RO","latitude":"47.83003000","longitude":"24.21603000"},{"id":"92643","name":"Comuna Poienile de sub Munte","state_id":4760,"state_code":"MM","country_id":181,"country_code":"RO","latitude":"47.82371000","longitude":"24.43674000"},{"id":"92642","name":"Comuna Poienile Izei","state_id":4760,"state_code":"MM","country_id":181,"country_code":"RO","latitude":"47.70309000","longitude":"24.11276000"},{"id":"92754","name":"Comuna Recea","state_id":4760,"state_code":"MM","country_id":181,"country_code":"RO","latitude":"47.63108000","longitude":"23.48610000"},{"id":"92767","name":"Comuna Remeti","state_id":4760,"state_code":"MM","country_id":181,"country_code":"RO","latitude":"47.99630000","longitude":"23.58741000"},{"id":"92765","name":"Comuna Remetea Chioarului","state_id":4760,"state_code":"MM","country_id":181,"country_code":"RO","latitude":"47.52129000","longitude":"23.52891000"},{"id":"92768","name":"Comuna Repedea","state_id":4760,"state_code":"MM","country_id":181,"country_code":"RO","latitude":"47.83212000","longitude":"24.40142000"},{"id":"92789","name":"Comuna Rona de Jos","state_id":4760,"state_code":"MM","country_id":181,"country_code":"RO","latitude":"47.91667000","longitude":"24.01667000"},{"id":"92790","name":"Comuna Rona de Sus","state_id":4760,"state_code":"MM","country_id":181,"country_code":"RO","latitude":"47.90184000","longitude":"24.03877000"},{"id":"92793","name":"Comuna Rozavlea","state_id":4760,"state_code":"MM","country_id":181,"country_code":"RO","latitude":"47.73791000","longitude":"24.20116000"},{"id":"92817","name":"Comuna Ruscova","state_id":4760,"state_code":"MM","country_id":181,"country_code":"RO","latitude":"47.79289000","longitude":"24.28546000"},{"id":"92882","name":"Comuna Satulung","state_id":4760,"state_code":"MM","country_id":181,"country_code":"RO","latitude":"47.57189000","longitude":"23.41978000"},{"id":"93077","name":"Comuna S\u00e3p\u00e2nta","state_id":4760,"state_code":"MM","country_id":181,"country_code":"RO","latitude":"47.96933000","longitude":"23.69818000"},{"id":"93087","name":"Comuna Sacalaseni","state_id":4760,"state_code":"MM","country_id":181,"country_code":"RO","latitude":"47.57041000","longitude":"23.57207000"},{"id":"93081","name":"Comuna Sacel","state_id":4760,"state_code":"MM","country_id":181,"country_code":"RO","latitude":"47.63690000","longitude":"24.43508000"},{"id":"93098","name":"Comuna Salsig","state_id":4760,"state_code":"MM","country_id":181,"country_code":"RO","latitude":"47.51934000","longitude":"23.30270000"},{"id":"93110","name":"Comuna Sarasau","state_id":4760,"state_code":"MM","country_id":181,"country_code":"RO","latitude":"47.95000000","longitude":"23.81667000"},{"id":"93008","name":"Comuna Str\u00e2mtura","state_id":4760,"state_code":"MM","country_id":181,"country_code":"RO","latitude":"47.75156000","longitude":"24.10267000"},{"id":"93027","name":"Comuna Suciu de Sus","state_id":4760,"state_code":"MM","country_id":181,"country_code":"RO","latitude":"47.44309000","longitude":"24.04303000"},{"id":"93291","name":"Comuna Vadu Izei","state_id":4760,"state_code":"MM","country_id":181,"country_code":"RO","latitude":"47.88131000","longitude":"23.96081000"},{"id":"93299","name":"Comuna Valea Chioarului","state_id":4760,"state_code":"MM","country_id":181,"country_code":"RO","latitude":"47.40706000","longitude":"23.46101000"},{"id":"93375","name":"Comuna Viseu de Jos","state_id":4760,"state_code":"MM","country_id":181,"country_code":"RO","latitude":"47.72760000","longitude":"24.36306000"},{"id":"93363","name":"Comuna Vima Mic\u00e3","state_id":4760,"state_code":"MM","country_id":181,"country_code":"RO","latitude":"47.41766000","longitude":"23.68841000"},{"id":"93601","name":"Copalnic Manastur","state_id":4760,"state_code":"MM","country_id":181,"country_code":"RO","latitude":"47.50000000","longitude":"23.68333000"},{"id":"93647","name":"Coroieni","state_id":4760,"state_code":"MM","country_id":181,"country_code":"RO","latitude":"47.36667000","longitude":"23.76667000"},{"id":"93708","name":"Crasna Vi\u0219eului","state_id":4760,"state_code":"MM","country_id":181,"country_code":"RO","latitude":"47.82869000","longitude":"24.23000000"},{"id":"93752","name":"Craciune\u0219ti","state_id":4760,"state_code":"MM","country_id":181,"country_code":"RO","latitude":"47.95551000","longitude":"23.98267000"},{"id":"93771","name":"Cupseni","state_id":4760,"state_code":"MM","country_id":181,"country_code":"RO","latitude":"47.55000000","longitude":"23.93333000"},{"id":"94122","name":"Damacu\u0219eni","state_id":4760,"state_code":"MM","country_id":181,"country_code":"RO","latitude":"47.45709000","longitude":"23.90914000"},{"id":"93926","name":"Desesti","state_id":4760,"state_code":"MM","country_id":181,"country_code":"RO","latitude":"47.76667000","longitude":"23.85000000"},{"id":"94016","name":"Dragomiresti","state_id":4760,"state_code":"MM","country_id":181,"country_code":"RO","latitude":"47.66839000","longitude":"24.29111000"},{"id":"94089","name":"Dumbravita","state_id":4760,"state_code":"MM","country_id":181,"country_code":"RO","latitude":"47.60000000","longitude":"23.65000000"},{"id":"97122","name":"\u0218ieu","state_id":4760,"state_code":"MM","country_id":181,"country_code":"RO","latitude":"47.72462000","longitude":"24.22389000"},{"id":"97129","name":"\u0218ise\u0219ti","state_id":4760,"state_code":"MM","country_id":181,"country_code":"RO","latitude":"47.63506000","longitude":"23.70794000"},{"id":"97136","name":"\u0218urde\u0219ti","state_id":4760,"state_code":"MM","country_id":181,"country_code":"RO","latitude":"47.60215000","longitude":"23.76899000"},{"id":"94261","name":"Farcasa","state_id":4760,"state_code":"MM","country_id":181,"country_code":"RO","latitude":"47.58333000","longitude":"23.33333000"},{"id":"94490","name":"G\u00e2rdani","state_id":4760,"state_code":"MM","country_id":181,"country_code":"RO","latitude":"47.55135000","longitude":"23.30880000"},{"id":"94350","name":"Giulesti","state_id":4760,"state_code":"MM","country_id":181,"country_code":"RO","latitude":"47.81667000","longitude":"23.93333000"},{"id":"94425","name":"Grosi","state_id":4760,"state_code":"MM","country_id":181,"country_code":"RO","latitude":"47.61667000","longitude":"23.61667000"},{"id":"94428","name":"Gro\u0219ii \u021aible\u0219ului","state_id":4760,"state_code":"MM","country_id":181,"country_code":"RO","latitude":"47.48983000","longitude":"24.06368000"},{"id":"94617","name":"Iadara","state_id":4760,"state_code":"MM","country_id":181,"country_code":"RO","latitude":"47.47927000","longitude":"23.39893000"},{"id":"94623","name":"Iapa","state_id":4760,"state_code":"MM","country_id":181,"country_code":"RO","latitude":"47.92513000","longitude":"23.82539000"},{"id":"94644","name":"Ieud","state_id":4760,"state_code":"MM","country_id":181,"country_code":"RO","latitude":"47.67796000","longitude":"24.23399000"},{"id":"94653","name":"Ilba","state_id":4760,"state_code":"MM","country_id":181,"country_code":"RO","latitude":"47.71280000","longitude":"23.35765000"},{"id":"94896","name":"Lapus","state_id":4760,"state_code":"MM","country_id":181,"country_code":"RO","latitude":"47.50000000","longitude":"24.01667000"},{"id":"94899","name":"Lapu\u0219el","state_id":4760,"state_code":"MM","country_id":181,"country_code":"RO","latitude":"47.61830000","longitude":"23.47913000"},{"id":"94780","name":"Leordina","state_id":4760,"state_code":"MM","country_id":181,"country_code":"RO","latitude":"47.78333000","longitude":"24.25000000"},{"id":"94792","name":"Libotin","state_id":4760,"state_code":"MM","country_id":181,"country_code":"RO","latitude":"47.50541000","longitude":"23.96833000"},{"id":"94873","name":"Lunca la Tisa","state_id":4760,"state_code":"MM","country_id":181,"country_code":"RO","latitude":"47.95213000","longitude":"24.05216000"},{"id":"94924","name":"Mara","state_id":4760,"state_code":"MM","country_id":181,"country_code":"RO","latitude":"47.75552000","longitude":"23.83126000"},{"id":"95220","name":"M\u00e2nau","state_id":4760,"state_code":"MM","country_id":181,"country_code":"RO","latitude":"47.48179000","longitude":"23.26247000"},{"id":"95016","name":"Miresu Mare","state_id":4760,"state_code":"MM","country_id":181,"country_code":"RO","latitude":"47.50000000","longitude":"23.33333000"},{"id":"95059","name":"Moisei","state_id":4760,"state_code":"MM","country_id":181,"country_code":"RO","latitude":"47.65562000","longitude":"24.54011000"},{"id":"95111","name":"Municipiul Baia Mare","state_id":4760,"state_code":"MM","country_id":181,"country_code":"RO","latitude":"47.74048000","longitude":"23.60337000"},{"id":"95182","name":"Municipiul Sighetu Marmatiei","state_id":4760,"state_code":"MM","country_id":181,"country_code":"RO","latitude":"47.91914000","longitude":"23.88679000"},{"id":"95351","name":"Nistru","state_id":4760,"state_code":"MM","country_id":181,"country_code":"RO","latitude":"47.72088000","longitude":"23.45495000"},{"id":"95385","name":"Oarta de Jos","state_id":4760,"state_code":"MM","country_id":181,"country_code":"RO","latitude":"47.45827000","longitude":"23.12742000"},{"id":"95399","name":"Ocna Sugatag","state_id":4760,"state_code":"MM","country_id":181,"country_code":"RO","latitude":"47.78333000","longitude":"23.93333000"},{"id":"95437","name":"Once\u0219ti","state_id":4760,"state_code":"MM","country_id":181,"country_code":"RO","latitude":"47.84814000","longitude":"23.98183000"},{"id":"95455","name":"Oras Baia Sprie","state_id":4760,"state_code":"MM","country_id":181,"country_code":"RO","latitude":"47.66446000","longitude":"23.66970000"},{"id":"95468","name":"Oras Borsa","state_id":4760,"state_code":"MM","country_id":181,"country_code":"RO","latitude":"47.66965000","longitude":"24.68846000"},{"id":"95611","name":"Oras Ulmeni","state_id":4760,"state_code":"MM","country_id":181,"country_code":"RO","latitude":"47.46209000","longitude":"23.27925000"},{"id":"95619","name":"Oras Viseu De Sus","state_id":4760,"state_code":"MM","country_id":181,"country_code":"RO","latitude":"47.71493000","longitude":"24.41707000"},{"id":"95651","name":"Ora\u0219 Somcuta Mare","state_id":4760,"state_code":"MM","country_id":181,"country_code":"RO","latitude":"47.51667000","longitude":"23.46667000"},{"id":"95637","name":"Ora\u0219 Cavnic","state_id":4760,"state_code":"MM","country_id":181,"country_code":"RO","latitude":"47.64989000","longitude":"23.82547000"},{"id":"95639","name":"Ora\u0219 Dragomiresti","state_id":4760,"state_code":"MM","country_id":181,"country_code":"RO","latitude":"47.66860000","longitude":"24.29542000"},{"id":"95645","name":"Ora\u0219 Salistea de Sus","state_id":4760,"state_code":"MM","country_id":181,"country_code":"RO","latitude":"47.66019000","longitude":"24.35336000"},{"id":"95644","name":"Ora\u0219 Seini","state_id":4760,"state_code":"MM","country_id":181,"country_code":"RO","latitude":"47.75000000","longitude":"23.28333000"},{"id":"95648","name":"Ora\u0219 T\u00e2rgu Lapus","state_id":4760,"state_code":"MM","country_id":181,"country_code":"RO","latitude":"47.46124000","longitude":"23.85353000"},{"id":"95649","name":"Ora\u0219 Tautii-Magheraus","state_id":4760,"state_code":"MM","country_id":181,"country_code":"RO","latitude":"47.72129000","longitude":"23.48601000"},{"id":"95755","name":"Petrova","state_id":4760,"state_code":"MM","country_id":181,"country_code":"RO","latitude":"47.82981000","longitude":"24.21533000"},{"id":"95895","name":"Poienile de sub Munte","state_id":4760,"state_code":"MM","country_id":181,"country_code":"RO","latitude":"47.81667000","longitude":"24.43333000"},{"id":"95894","name":"Poienile Izei","state_id":4760,"state_code":"MM","country_id":181,"country_code":"RO","latitude":"47.70000000","longitude":"24.11667000"},{"id":"96070","name":"Recea","state_id":4760,"state_code":"MM","country_id":181,"country_code":"RO","latitude":"47.63333000","longitude":"23.51667000"},{"id":"96085","name":"Remeti","state_id":4760,"state_code":"MM","country_id":181,"country_code":"RO","latitude":"47.98333000","longitude":"23.63333000"},{"id":"96083","name":"Remetea Chioarului","state_id":4760,"state_code":"MM","country_id":181,"country_code":"RO","latitude":"47.53333000","longitude":"23.55000000"},{"id":"96087","name":"Repedea","state_id":4760,"state_code":"MM","country_id":181,"country_code":"RO","latitude":"47.83333000","longitude":"24.40000000"},{"id":"96102","name":"Rogoz","state_id":4760,"state_code":"MM","country_id":181,"country_code":"RO","latitude":"47.46749000","longitude":"23.93214000"},{"id":"96116","name":"Rona de Jos","state_id":4760,"state_code":"MM","country_id":181,"country_code":"RO","latitude":"47.91667000","longitude":"24.01667000"},{"id":"96117","name":"Rona de Sus","state_id":4760,"state_code":"MM","country_id":181,"country_code":"RO","latitude":"47.90000000","longitude":"24.05000000"},{"id":"96124","name":"Rozavlea","state_id":4760,"state_code":"MM","country_id":181,"country_code":"RO","latitude":"47.73333000","longitude":"24.21667000"},{"id":"96160","name":"Ruscova","state_id":4760,"state_code":"MM","country_id":181,"country_code":"RO","latitude":"47.79289000","longitude":"24.28546000"},{"id":"96244","name":"Sarasau","state_id":4760,"state_code":"MM","country_id":181,"country_code":"RO","latitude":"47.95510000","longitude":"23.82874000"},{"id":"96251","name":"Sat-\u0218ugatag","state_id":4760,"state_code":"MM","country_id":181,"country_code":"RO","latitude":"47.79796000","longitude":"23.90637000"},{"id":"96262","name":"Satulung","state_id":4760,"state_code":"MM","country_id":181,"country_code":"RO","latitude":"47.56667000","longitude":"23.43333000"},{"id":"105986","name":"S\u00e2rbi","state_id":4760,"state_code":"MM","country_id":181,"country_code":"RO","latitude":"47.76184000","longitude":"23.94490000"},{"id":"106001","name":"Sacala\u0219eni","state_id":4760,"state_code":"MM","country_id":181,"country_code":"RO","latitude":"47.58180000","longitude":"23.56432000"},{"id":"105990","name":"Sacel","state_id":4760,"state_code":"MM","country_id":181,"country_code":"RO","latitude":"47.63333000","longitude":"24.43333000"},{"id":"106018","name":"Salistea de Sus","state_id":4760,"state_code":"MM","country_id":181,"country_code":"RO","latitude":"47.65000000","longitude":"24.35000000"},{"id":"106021","name":"Salsig","state_id":4760,"state_code":"MM","country_id":181,"country_code":"RO","latitude":"47.53333000","longitude":"23.30000000"},{"id":"106029","name":"Sap\u00e2nta","state_id":4760,"state_code":"MM","country_id":181,"country_code":"RO","latitude":"47.96667000","longitude":"23.70000000"},{"id":"106038","name":"Sasar","state_id":4760,"state_code":"MM","country_id":181,"country_code":"RO","latitude":"47.64406000","longitude":"23.49869000"},{"id":"96323","name":"Seini","state_id":4760,"state_code":"MM","country_id":181,"country_code":"RO","latitude":"47.75000000","longitude":"23.28333000"},{"id":"96336","name":"Sighetu Marmatiei","state_id":4760,"state_code":"MM","country_id":181,"country_code":"RO","latitude":"47.93195000","longitude":"23.88603000"},{"id":"96461","name":"Str\u00e2mtura","state_id":4760,"state_code":"MM","country_id":181,"country_code":"RO","latitude":"47.78333000","longitude":"24.13333000"},{"id":"96491","name":"Suciu de Jos","state_id":4760,"state_code":"MM","country_id":181,"country_code":"RO","latitude":"47.44584000","longitude":"23.98250000"},{"id":"96492","name":"Suciu de Sus","state_id":4760,"state_code":"MM","country_id":181,"country_code":"RO","latitude":"47.43333000","longitude":"24.03333000"},{"id":"96585","name":"T\u00e2rgu Lapus","state_id":4760,"state_code":"MM","country_id":181,"country_code":"RO","latitude":"47.45261000","longitude":"23.86539000"},{"id":"96628","name":"Tau\u021bii de Sus","state_id":4760,"state_code":"MM","country_id":181,"country_code":"RO","latitude":"47.65665000","longitude":"23.65841000"},{"id":"96629","name":"Tau\u021bii-Magherau\u0219","state_id":4760,"state_code":"MM","country_id":181,"country_code":"RO","latitude":"47.65000000","longitude":"23.48333000"},{"id":"106106","name":"Tisa","state_id":4760,"state_code":"MM","country_id":181,"country_code":"RO","latitude":"47.94844000","longitude":"23.95768000"},{"id":"96646","name":"Ulmeni","state_id":4760,"state_code":"MM","country_id":181,"country_code":"RO","latitude":"47.46667000","longitude":"23.30000000"},{"id":"96660","name":"Ungureni","state_id":4760,"state_code":"MM","country_id":181,"country_code":"RO","latitude":"47.54631000","longitude":"23.95241000"},{"id":"96696","name":"Vadu Izei","state_id":4760,"state_code":"MM","country_id":181,"country_code":"RO","latitude":"47.88821000","longitude":"23.93209000"},{"id":"96714","name":"Valea Chioarului","state_id":4760,"state_code":"MM","country_id":181,"country_code":"RO","latitude":"47.43333000","longitude":"23.48333000"},{"id":"96764","name":"Valea Vi\u0219eului","state_id":4760,"state_code":"MM","country_id":181,"country_code":"RO","latitude":"47.91203000","longitude":"24.15842000"},{"id":"96959","name":"Valeni","state_id":4760,"state_code":"MM","country_id":181,"country_code":"RO","latitude":"47.78559000","longitude":"24.01625000"},{"id":"96966","name":"Valenii \u0218omcutei","state_id":4760,"state_code":"MM","country_id":181,"country_code":"RO","latitude":"47.47291000","longitude":"23.45138000"},{"id":"96847","name":"Viseu de Jos","state_id":4760,"state_code":"MM","country_id":181,"country_code":"RO","latitude":"47.72558000","longitude":"24.36613000"},{"id":"96848","name":"Viseu de Sus","state_id":4760,"state_code":"MM","country_id":181,"country_code":"RO","latitude":"47.71667000","longitude":"24.43333000"},{"id":"96852","name":"Vi\u0219eu de Mijloc","state_id":4760,"state_code":"MM","country_id":181,"country_code":"RO","latitude":"47.71562000","longitude":"24.40661000"},{"id":"96829","name":"Vima Mica","state_id":4760,"state_code":"MM","country_id":181,"country_code":"RO","latitude":"47.40000000","longitude":"23.71667000"}]