[{"id":"52323","name":"Boffa","state_id":2676,"state_code":"B","country_id":92,"country_code":"GN","latitude":"10.33333000","longitude":"-14.16667000"},{"id":"52325","name":"Bok\u00e9","state_id":2676,"state_code":"B","country_id":92,"country_code":"GN","latitude":"10.93217000","longitude":"-14.29055000"},{"id":"52324","name":"Boke Prefecture","state_id":2676,"state_code":"B","country_id":92,"country_code":"GN","latitude":"11.08333000","longitude":"-14.41667000"},{"id":"52332","name":"Fria","state_id":2676,"state_code":"B","country_id":92,"country_code":"GN","latitude":"10.41667000","longitude":"-13.58333000"},{"id":"52333","name":"Gaoual","state_id":2676,"state_code":"B","country_id":92,"country_code":"GN","latitude":"11.75000000","longitude":"-13.20000000"},{"id":"52334","name":"Gaoual Prefecture","state_id":2676,"state_code":"B","country_id":92,"country_code":"GN","latitude":"11.75000000","longitude":"-13.20000000"},{"id":"52339","name":"Kimbo","state_id":2676,"state_code":"B","country_id":92,"country_code":"GN","latitude":"10.40000000","longitude":"-13.55000000"},{"id":"52342","name":"Koundara","state_id":2676,"state_code":"B","country_id":92,"country_code":"GN","latitude":"12.48333000","longitude":"-13.30000000"},{"id":"52343","name":"Koundara Prefecture","state_id":2676,"state_code":"B","country_id":92,"country_code":"GN","latitude":"12.41667000","longitude":"-13.16667000"},{"id":"52364","name":"Sangu\u00e9ya","state_id":2676,"state_code":"B","country_id":92,"country_code":"GN","latitude":"10.70000000","longitude":"-14.36667000"},{"id":"52374","name":"Youkounkoun","state_id":2676,"state_code":"B","country_id":92,"country_code":"GN","latitude":"12.53110000","longitude":"-13.12240000"}]