[{"id":"57435","name":"Acre","state_id":1366,"state_code":"Z","country_id":106,"country_code":"IL","latitude":"32.92814000","longitude":"35.07647000"},{"id":"57436","name":"Afula","state_id":1366,"state_code":"Z","country_id":106,"country_code":"IL","latitude":"32.60907000","longitude":"35.28920000"},{"id":"57578","name":"\u1e24urfeish","state_id":1366,"state_code":"Z","country_id":106,"country_code":"IL","latitude":"33.01711000","longitude":"35.34835000"},{"id":"57581","name":"\u2018Eilabun","state_id":1366,"state_code":"Z","country_id":106,"country_code":"IL","latitude":"32.83693000","longitude":"35.40029000"},{"id":"57583","name":"\u2018Uzeir","state_id":1366,"state_code":"Z","country_id":106,"country_code":"IL","latitude":"32.79212000","longitude":"35.32984000"},{"id":"57442","name":"Basmat \u1e6cab\u2018un","state_id":1366,"state_code":"Z","country_id":106,"country_code":"IL","latitude":"32.73898000","longitude":"35.15716000"},{"id":"57454","name":"Bir el Maksur","state_id":1366,"state_code":"Z","country_id":106,"country_code":"IL","latitude":"32.77732000","longitude":"35.22069000"},{"id":"57445","name":"Beit Jann","state_id":1366,"state_code":"Z","country_id":106,"country_code":"IL","latitude":"32.96464000","longitude":"35.38152000"},{"id":"57448","name":"Bet She\u2019an","state_id":1366,"state_code":"Z","country_id":106,"country_code":"IL","latitude":"32.49728000","longitude":"35.49632000"},{"id":"57453","name":"Bu\u2018eina","state_id":1366,"state_code":"Z","country_id":106,"country_code":"IL","latitude":"32.80636000","longitude":"35.36486000"},{"id":"57452","name":"Buqei\u2018a","state_id":1366,"state_code":"Z","country_id":106,"country_code":"IL","latitude":"32.97747000","longitude":"35.33345000"},{"id":"57456","name":"Dabburiya","state_id":1366,"state_code":"Z","country_id":106,"country_code":"IL","latitude":"32.69256000","longitude":"35.37123000"},{"id":"57458","name":"Deir \u1e24anna","state_id":1366,"state_code":"Z","country_id":106,"country_code":"IL","latitude":"32.86196000","longitude":"35.36365000"},{"id":"57462","name":"El Mazra\u2018a","state_id":1366,"state_code":"Z","country_id":106,"country_code":"IL","latitude":"32.98338000","longitude":"35.09837000"},{"id":"57464","name":"Er Reina","state_id":1366,"state_code":"Z","country_id":106,"country_code":"IL","latitude":"32.72339000","longitude":"35.31622000"},{"id":"57465","name":"Esh Sheikh Dannun","state_id":1366,"state_code":"Z","country_id":106,"country_code":"IL","latitude":"32.99410000","longitude":"35.14805000"},{"id":"57481","name":"Iksal","state_id":1366,"state_code":"Z","country_id":106,"country_code":"IL","latitude":"32.68164000","longitude":"35.32365000"},{"id":"57486","name":"Jish","state_id":1366,"state_code":"Z","country_id":106,"country_code":"IL","latitude":"33.02216000","longitude":"35.44694000"},{"id":"57485","name":"Judeida Makr","state_id":1366,"state_code":"Z","country_id":106,"country_code":"IL","latitude":"32.92820000","longitude":"35.15705000"},{"id":"57487","name":"Kafr Kamma","state_id":1366,"state_code":"Z","country_id":106,"country_code":"IL","latitude":"32.72129000","longitude":"35.44122000"},{"id":"57488","name":"Kafr Kanna","state_id":1366,"state_code":"Z","country_id":106,"country_code":"IL","latitude":"32.74660000","longitude":"35.34242000"},{"id":"57489","name":"Kafr Manda","state_id":1366,"state_code":"Z","country_id":106,"country_code":"IL","latitude":"32.81034000","longitude":"35.26009000"},{"id":"57490","name":"Kafr Mi\u1e63r","state_id":1366,"state_code":"Z","country_id":106,"country_code":"IL","latitude":"32.64521000","longitude":"35.42147000"},{"id":"57492","name":"Karmi\u2019el","state_id":1366,"state_code":"Z","country_id":106,"country_code":"IL","latitude":"32.91708000","longitude":"35.30501000"},{"id":"57493","name":"Kaukab Abu el Hija","state_id":1366,"state_code":"Z","country_id":106,"country_code":"IL","latitude":"32.83155000","longitude":"35.24848000"},{"id":"57502","name":"Kabul","state_id":1366,"state_code":"Z","country_id":106,"country_code":"IL","latitude":"32.86856000","longitude":"35.21171000"},{"id":"57495","name":"Kefar Rosh HaNiqra","state_id":1366,"state_code":"Z","country_id":106,"country_code":"IL","latitude":"33.08607000","longitude":"35.11348000"},{"id":"57497","name":"Kefar Tavor","state_id":1366,"state_code":"Z","country_id":106,"country_code":"IL","latitude":"32.68655000","longitude":"35.42118000"},{"id":"57498","name":"Kefar Weradim","state_id":1366,"state_code":"Z","country_id":106,"country_code":"IL","latitude":"32.99385000","longitude":"35.27793000"},{"id":"57501","name":"Kfar Yasif","state_id":1366,"state_code":"Z","country_id":106,"country_code":"IL","latitude":"32.95451000","longitude":"35.16230000"},{"id":"57577","name":"maalot Tarshiha","state_id":1366,"state_code":"Z","country_id":106,"country_code":"IL","latitude":"33.01667000","longitude":"35.26667000"},{"id":"57506","name":"Maghar","state_id":1366,"state_code":"Z","country_id":106,"country_code":"IL","latitude":"32.88984000","longitude":"35.40703000"},{"id":"57508","name":"Metulla","state_id":1366,"state_code":"Z","country_id":106,"country_code":"IL","latitude":"33.27918000","longitude":"35.57950000"},{"id":"57513","name":"Mi\u2018ilya","state_id":1366,"state_code":"Z","country_id":106,"country_code":"IL","latitude":"33.02781000","longitude":"35.25658000"},{"id":"57511","name":"Migdal Ha\u2018Emeq","state_id":1366,"state_code":"Z","country_id":106,"country_code":"IL","latitude":"32.67597000","longitude":"35.23986000"},{"id":"57518","name":"Na\u1e25f","state_id":1366,"state_code":"Z","country_id":106,"country_code":"IL","latitude":"32.93444000","longitude":"35.31679000"},{"id":"57516","name":"Nahariyya","state_id":1366,"state_code":"Z","country_id":106,"country_code":"IL","latitude":"33.00892000","longitude":"35.09814000"},{"id":"57517","name":"Nazareth","state_id":1366,"state_code":"Z","country_id":106,"country_code":"IL","latitude":"32.70056000","longitude":"35.29722000"},{"id":"57519","name":"Nefat \u2018Akko","state_id":1366,"state_code":"Z","country_id":106,"country_code":"IL","latitude":"32.95000000","longitude":"35.23333000"},{"id":"57520","name":"Nein","state_id":1366,"state_code":"Z","country_id":106,"country_code":"IL","latitude":"32.63063000","longitude":"35.34885000"},{"id":"57532","name":"Pasuta","state_id":1366,"state_code":"Z","country_id":106,"country_code":"IL","latitude":"33.04895000","longitude":"35.30893000"},{"id":"57539","name":"Qiryat Shemona","state_id":1366,"state_code":"Z","country_id":106,"country_code":"IL","latitude":"33.20733000","longitude":"35.57212000"},{"id":"57545","name":"Ramat Yishay","state_id":1366,"state_code":"Z","country_id":106,"country_code":"IL","latitude":"32.70444000","longitude":"35.17070000"},{"id":"57551","name":"Rosh Pinna","state_id":1366,"state_code":"Z","country_id":106,"country_code":"IL","latitude":"32.96894000","longitude":"35.54258000"},{"id":"57552","name":"Rumat Heib","state_id":1366,"state_code":"Z","country_id":106,"country_code":"IL","latitude":"32.77802000","longitude":"35.30571000"},{"id":"57553","name":"Safed","state_id":1366,"state_code":"Z","country_id":106,"country_code":"IL","latitude":"32.96465000","longitude":"35.49600000"},{"id":"57554","name":"Sakhnin","state_id":1366,"state_code":"Z","country_id":106,"country_code":"IL","latitude":"32.86422000","longitude":"35.29707000"},{"id":"57555","name":"Sallama","state_id":1366,"state_code":"Z","country_id":106,"country_code":"IL","latitude":"32.89443000","longitude":"35.36931000"},{"id":"57561","name":"Sajur","state_id":1366,"state_code":"Z","country_id":106,"country_code":"IL","latitude":"32.94266000","longitude":"35.34136000"},{"id":"57562","name":"Sulam","state_id":1366,"state_code":"Z","country_id":106,"country_code":"IL","latitude":"32.60606000","longitude":"35.33408000"},{"id":"57558","name":"Shelomi","state_id":1366,"state_code":"Z","country_id":106,"country_code":"IL","latitude":"33.07216000","longitude":"35.14452000"},{"id":"57559","name":"Shibli","state_id":1366,"state_code":"Z","country_id":106,"country_code":"IL","latitude":"32.69464000","longitude":"35.39252000"},{"id":"57563","name":"Tamra","state_id":1366,"state_code":"Z","country_id":106,"country_code":"IL","latitude":"32.85301000","longitude":"35.19870000"},{"id":"57566","name":"Tiberias","state_id":1366,"state_code":"Z","country_id":106,"country_code":"IL","latitude":"32.79221000","longitude":"35.53124000"},{"id":"57567","name":"Timrat","state_id":1366,"state_code":"Z","country_id":106,"country_code":"IL","latitude":"32.70302000","longitude":"35.22359000"},{"id":"57572","name":"Yavne\u2019el","state_id":1366,"state_code":"Z","country_id":106,"country_code":"IL","latitude":"32.70619000","longitude":"35.50435000"}]