[{"id":"57440","name":"Atlit","state_id":1369,"state_code":"HA","country_id":106,"country_code":"IL","latitude":"32.68889000","longitude":"34.94236000"},{"id":"57455","name":"Caesarea","state_id":1369,"state_code":"HA","country_id":106,"country_code":"IL","latitude":"32.51888000","longitude":"34.90459000"},{"id":"57457","name":"Daliyat al Karmel","state_id":1369,"state_code":"HA","country_id":106,"country_code":"IL","latitude":"32.69383000","longitude":"35.04686000"},{"id":"57461","name":"El Fureidis","state_id":1369,"state_code":"HA","country_id":106,"country_code":"IL","latitude":"32.59812000","longitude":"34.95153000"},{"id":"57473","name":"Hadera","state_id":1369,"state_code":"HA","country_id":106,"country_code":"IL","latitude":"32.44192000","longitude":"34.90390000"},{"id":"57474","name":"Haifa","state_id":1369,"state_code":"HA","country_id":106,"country_code":"IL","latitude":"32.81841000","longitude":"34.98850000"},{"id":"57480","name":"Ib\u1e6din","state_id":1369,"state_code":"HA","country_id":106,"country_code":"IL","latitude":"32.76150000","longitude":"35.11402000"},{"id":"57521","name":"Nesher","state_id":1369,"state_code":"HA","country_id":106,"country_code":"IL","latitude":"32.76622000","longitude":"35.04425000"},{"id":"57535","name":"Qiryat Ata","state_id":1369,"state_code":"HA","country_id":106,"country_code":"IL","latitude":"32.81149000","longitude":"35.11323000"},{"id":"57536","name":"Qiryat Bialik","state_id":1369,"state_code":"HA","country_id":106,"country_code":"IL","latitude":"32.82750000","longitude":"35.08583000"},{"id":"57538","name":"Qiryat Mo\u1e95qin","state_id":1369,"state_code":"HA","country_id":106,"country_code":"IL","latitude":"32.83706000","longitude":"35.07760000"},{"id":"57540","name":"Qiryat Yam","state_id":1369,"state_code":"HA","country_id":106,"country_code":"IL","latitude":"32.84966000","longitude":"35.06973000"},{"id":"57547","name":"Rekhasim","state_id":1369,"state_code":"HA","country_id":106,"country_code":"IL","latitude":"32.74907000","longitude":"35.09901000"},{"id":"57569","name":"Tirat Karmel","state_id":1369,"state_code":"HA","country_id":106,"country_code":"IL","latitude":"32.76021000","longitude":"34.97183000"},{"id":"57570","name":"Umm el Fa\u1e25m","state_id":1369,"state_code":"HA","country_id":106,"country_code":"IL","latitude":"32.51725000","longitude":"35.15349000"}]