[{"id":"57435","name":"Acre","state_id":1366,"state_code":"Z","country_id":106,"country_code":"IL","latitude":"32.92814000","longitude":"35.07647000"},{"id":"57436","name":"Afula","state_id":1366,"state_code":"Z","country_id":106,"country_code":"IL","latitude":"32.60907000","longitude":"35.28920000"},{"id":"57578","name":"\u1e24urfeish","state_id":1366,"state_code":"Z","country_id":106,"country_code":"IL","latitude":"33.01711000","longitude":"35.34835000"},{"id":"57581","name":"\u2018Eilabun","state_id":1366,"state_code":"Z","country_id":106,"country_code":"IL","latitude":"32.83693000","longitude":"35.40029000"},{"id":"57583","name":"\u2018Uzeir","state_id":1366,"state_code":"Z","country_id":106,"country_code":"IL","latitude":"32.79212000","longitude":"35.32984000"},{"id":"57442","name":"Basmat \u1e6cab\u2018un","state_id":1366,"state_code":"Z","country_id":106,"country_code":"IL","latitude":"32.73898000","longitude":"35.15716000"},{"id":"57454","name":"Bir el Maksur","state_id":1366,"state_code":"Z","country_id":106,"country_code":"IL","latitude":"32.77732000","longitude":"35.22069000"},{"id":"57445","name":"Beit Jann","state_id":1366,"state_code":"Z","country_id":106,"country_code":"IL","latitude":"32.96464000","longitude":"35.38152000"},{"id":"57448","name":"Bet She\u2019an","state_id":1366,"state_code":"Z","country_id":106,"country_code":"IL","latitude":"32.49728000","longitude":"35.49632000"},{"id":"57453","name":"Bu\u2018eina","state_id":1366,"state_code":"Z","country_id":106,"country_code":"IL","latitude":"32.80636000","longitude":"35.36486000"},{"id":"57452","name":"Buqei\u2018a","state_id":1366,"state_code":"Z","country_id":106,"country_code":"IL","latitude":"32.97747000","longitude":"35.33345000"},{"id":"57456","name":"Dabburiya","state_id":1366,"state_code":"Z","country_id":106,"country_code":"IL","latitude":"32.69256000","longitude":"35.37123000"},{"id":"57458","name":"Deir \u1e24anna","state_id":1366,"state_code":"Z","country_id":106,"country_code":"IL","latitude":"32.86196000","longitude":"35.36365000"},{"id":"57462","name":"El Mazra\u2018a","state_id":1366,"state_code":"Z","country_id":106,"country_code":"IL","latitude":"32.98338000","longitude":"35.09837000"},{"id":"57464","name":"Er Reina","state_id":1366,"state_code":"Z","country_id":106,"country_code":"IL","latitude":"32.72339000","longitude":"35.31622000"},{"id":"57465","name":"Esh Sheikh Dannun","state_id":1366,"state_code":"Z","country_id":106,"country_code":"IL","latitude":"32.99410000","longitude":"35.14805000"},{"id":"57481","name":"Iksal","state_id":1366,"state_code":"Z","country_id":106,"country_code":"IL","latitude":"32.68164000","longitude":"35.32365000"},{"id":"57486","name":"Jish","state_id":1366,"state_code":"Z","country_id":106,"country_code":"IL","latitude":"33.02216000","longitude":"35.44694000"},{"id":"57485","name":"Judeida Makr","state_id":1366,"state_code":"Z","country_id":106,"country_code":"IL","latitude":"32.92820000","longitude":"35.15705000"},{"id":"57487","name":"Kafr Kamma","state_id":1366,"state_code":"Z","country_id":106,"country_code":"IL","latitude":"32.72129000","longitude":"35.44122000"},{"id":"57488","name":"Kafr Kanna","state_id":1366,"state_code":"Z","country_id":106,"country_code":"IL","latitude":"32.74660000","longitude":"35.34242000"},{"id":"57489","name":"Kafr Manda","state_id":1366,"state_code":"Z","country_id":106,"country_code":"IL","latitude":"32.81034000","longitude":"35.26009000"},{"id":"57490","name":"Kafr Mi\u1e63r","state_id":1366,"state_code":"Z","country_id":106,"country_code":"IL","latitude":"32.64521000","longitude":"35.42147000"},{"id":"57492","name":"Karmi\u2019el","state_id":1366,"state_code":"Z","country_id":106,"country_code":"IL","latitude":"32.91708000","longitude":"35.30501000"},{"id":"57493","name":"Kaukab Abu el Hija","state_id":1366,"state_code":"Z","country_id":106,"country_code":"IL","latitude":"32.83155000","longitude":"35.24848000"},{"id":"57502","name":"Kabul","state_id":1366,"state_code":"Z","country_id":106,"country_code":"IL","latitude":"32.86856000","longitude":"35.21171000"},{"id":"57495","name":"Kefar Rosh HaNiqra","state_id":1366,"state_code":"Z","country_id":106,"country_code":"IL","latitude":"33.08607000","longitude":"35.11348000"},{"id":"57497","name":"Kefar Tavor","state_id":1366,"state_code":"Z","country_id":106,"country_code":"IL","latitude":"32.68655000","longitude":"35.42118000"},{"id":"57498","name":"Kefar Weradim","state_id":1366,"state_code":"Z","country_id":106,"country_code":"IL","latitude":"32.99385000","longitude":"35.27793000"},{"id":"57501","name":"Kfar Yasif","state_id":1366,"state_code":"Z","country_id":106,"country_code":"IL","latitude":"32.95451000","longitude":"35.16230000"},{"id":"57577","name":"maalot Tarshiha","state_id":1366,"state_code":"Z","country_id":106,"country_code":"IL","latitude":"33.01667000","longitude":"35.26667000"},{"id":"57506","name":"Maghar","state_id":1366,"state_code":"Z","country_id":106,"country_code":"IL","latitude":"32.88984000","longitude":"35.40703000"},{"id":"57508","name":"Metulla","state_id":1366,"state_code":"Z","country_id":106,"country_code":"IL","latitude":"33.27918000","longitude":"35.57950000"},{"id":"57513","name":"Mi\u2018ilya","state_id":1366,"state_code":"Z","country_id":106,"country_code":"IL","latitude":"33.02781000","longitude":"35.25658000"},{"id":"57511","name":"Migdal Ha\u2018Emeq","state_id":1366,"state_code":"Z","country_id":106,"country_code":"IL","latitude":"32.67597000","longitude":"35.23986000"},{"id":"57518","name":"Na\u1e25f","state_id":1366,"state_code":"Z","country_id":106,"country_code":"IL","latitude":"32.93444000","longitude":"35.31679000"},{"id":"57516","name":"Nahariyya","state_id":1366,"state_code":"Z","country_id":106,"country_code":"IL","latitude":"33.00892000","longitude":"35.09814000"},{"id":"57517","name":"Nazareth","state_id":1366,"state_code":"Z","country_id":106,"country_code":"IL","latitude":"32.70056000","longitude":"35.29722000"},{"id":"57519","name":"Nefat \u2018Akko","state_id":1366,"state_code":"Z","country_id":106,"country_code":"IL","latitude":"32.95000000","longitude":"35.23333000"},{"id":"57520","name":"Nein","state_id":1366,"state_code":"Z","country_id":106,"country_code":"IL","latitude":"32.63063000","longitude":"35.34885000"},{"id":"57532","name":"Pasuta","state_id":1366,"state_code":"Z","country_id":106,"country_code":"IL","latitude":"33.04895000","longitude":"35.30893000"},{"id":"57539","name":"Qiryat Shemona","state_id":1366,"state_code":"Z","country_id":106,"country_code":"IL","latitude":"33.20733000","longitude":"35.57212000"},{"id":"57545","name":"Ramat Yishay","state_id":1366,"state_code":"Z","country_id":106,"country_code":"IL","latitude":"32.70444000","longitude":"35.17070000"},{"id":"57551","name":"Rosh Pinna","state_id":1366,"state_code":"Z","country_id":106,"country_code":"IL","latitude":"32.96894000","longitude":"35.54258000"},{"id":"57552","name":"Rumat Heib","state_id":1366,"state_code":"Z","country_id":106,"country_code":"IL","latitude":"32.77802000","longitude":"35.30571000"},{"id":"57553","name":"Safed","state_id":1366,"state_code":"Z","country_id":106,"country_code":"IL","latitude":"32.96465000","longitude":"35.49600000"},{"id":"57554","name":"Sakhnin","state_id":1366,"state_code":"Z","country_id":106,"country_code":"IL","latitude":"32.86422000","longitude":"35.29707000"},{"id":"57555","name":"Sallama","state_id":1366,"state_code":"Z","country_id":106,"country_code":"IL","latitude":"32.89443000","longitude":"35.36931000"},{"id":"57561","name":"Sajur","state_id":1366,"state_code":"Z","country_id":106,"country_code":"IL","latitude":"32.94266000","longitude":"35.34136000"},{"id":"57562","name":"Sulam","state_id":1366,"state_code":"Z","country_id":106,"country_code":"IL","latitude":"32.60606000","longitude":"35.33408000"},{"id":"57558","name":"Shelomi","state_id":1366,"state_code":"Z","country_id":106,"country_code":"IL","latitude":"33.07216000","longitude":"35.14452000"},{"id":"57559","name":"Shibli","state_id":1366,"state_code":"Z","country_id":106,"country_code":"IL","latitude":"32.69464000","longitude":"35.39252000"},{"id":"57563","name":"Tamra","state_id":1366,"state_code":"Z","country_id":106,"country_code":"IL","latitude":"32.85301000","longitude":"35.19870000"},{"id":"57566","name":"Tiberias","state_id":1366,"state_code":"Z","country_id":106,"country_code":"IL","latitude":"32.79221000","longitude":"35.53124000"},{"id":"57567","name":"Timrat","state_id":1366,"state_code":"Z","country_id":106,"country_code":"IL","latitude":"32.70302000","longitude":"35.22359000"},{"id":"57572","name":"Yavne\u2019el","state_id":1366,"state_code":"Z","country_id":106,"country_code":"IL","latitude":"32.70619000","longitude":"35.50435000"},{"id":"57580","name":"\u1e94ur Moshe","state_id":1367,"state_code":"M","country_id":106,"country_code":"IL","latitude":"32.29819000","longitude":"34.91313000"},{"id":"57446","name":"Bet Dagan","state_id":1367,"state_code":"M","country_id":106,"country_code":"IL","latitude":"32.00191000","longitude":"34.82977000"},{"id":"57449","name":"Bet Yi\u1e95\u1e96aq","state_id":1367,"state_code":"M","country_id":106,"country_code":"IL","latitude":"32.32751000","longitude":"34.88878000"},{"id":"57450","name":"Bnei Ayish","state_id":1367,"state_code":"M","country_id":106,"country_code":"IL","latitude":"31.78333000","longitude":"34.75000000"},{"id":"57467","name":"E\u1e6d \u1e6caiyiba","state_id":1367,"state_code":"M","country_id":106,"country_code":"IL","latitude":"32.26616000","longitude":"35.00893000"},{"id":"57463","name":"Elyakhin","state_id":1367,"state_code":"M","country_id":106,"country_code":"IL","latitude":"32.40793000","longitude":"34.92433000"},{"id":"57466","name":"Even Yehuda","state_id":1367,"state_code":"M","country_id":106,"country_code":"IL","latitude":"32.26959000","longitude":"34.88759000"},{"id":"57468","name":"Gan Yavne","state_id":1367,"state_code":"M","country_id":106,"country_code":"IL","latitude":"31.78737000","longitude":"34.70659000"},{"id":"57469","name":"Ganei Tikva","state_id":1367,"state_code":"M","country_id":106,"country_code":"IL","latitude":"32.05971000","longitude":"34.87320000"},{"id":"57470","name":"Gedera","state_id":1367,"state_code":"M","country_id":106,"country_code":"IL","latitude":"31.81456000","longitude":"34.77998000"},{"id":"57478","name":"Hod HaSharon","state_id":1367,"state_code":"M","country_id":106,"country_code":"IL","latitude":"32.15934000","longitude":"34.89320000"},{"id":"57483","name":"Jaljulya","state_id":1367,"state_code":"M","country_id":106,"country_code":"IL","latitude":"32.15470000","longitude":"34.95372000"},{"id":"57491","name":"Kafr Qasim","state_id":1367,"state_code":"M","country_id":106,"country_code":"IL","latitude":"32.11406000","longitude":"34.97624000"},{"id":"57494","name":"Kefar H\u0331abad","state_id":1367,"state_code":"M","country_id":106,"country_code":"IL","latitude":"31.98793000","longitude":"34.85160000"},{"id":"57499","name":"Kefar Yona","state_id":1367,"state_code":"M","country_id":106,"country_code":"IL","latitude":"32.31669000","longitude":"34.93507000"},{"id":"57500","name":"Kfar Saba","state_id":1367,"state_code":"M","country_id":106,"country_code":"IL","latitude":"32.17500000","longitude":"34.90694000"},{"id":"57503","name":"Lapid","state_id":1367,"state_code":"M","country_id":106,"country_code":"IL","latitude":"31.91764000","longitude":"35.03222000"},{"id":"57505","name":"Lod","state_id":1367,"state_code":"M","country_id":106,"country_code":"IL","latitude":"31.94670000","longitude":"34.89030000"},{"id":"57507","name":"Mazkeret Batya","state_id":1367,"state_code":"M","country_id":106,"country_code":"IL","latitude":"31.85357000","longitude":"34.84646000"},{"id":"57515","name":"Modi\u2018in Makkabbim Re\u2018ut","state_id":1367,"state_code":"M","country_id":106,"country_code":"IL","latitude":"31.89385000","longitude":"35.01504000"},{"id":"57525","name":"Ne\u1e96alim","state_id":1367,"state_code":"M","country_id":106,"country_code":"IL","latitude":"32.06012000","longitude":"34.91069000"},{"id":"57522","name":"Ness Ziona","state_id":1367,"state_code":"M","country_id":106,"country_code":"IL","latitude":"31.92933000","longitude":"34.79868000"},{"id":"57523","name":"Netanya","state_id":1367,"state_code":"M","country_id":106,"country_code":"IL","latitude":"32.33291000","longitude":"34.85992000"},{"id":"57526","name":"Nirit","state_id":1367,"state_code":"M","country_id":106,"country_code":"IL","latitude":"32.14677000","longitude":"34.98622000"},{"id":"57527","name":"Nof Ayalon","state_id":1367,"state_code":"M","country_id":106,"country_code":"IL","latitude":"31.87111000","longitude":"34.99081000"},{"id":"57528","name":"Nordiyya","state_id":1367,"state_code":"M","country_id":106,"country_code":"IL","latitude":"32.31470000","longitude":"34.89617000"},{"id":"57531","name":"Pardesiyya","state_id":1367,"state_code":"M","country_id":106,"country_code":"IL","latitude":"32.30577000","longitude":"34.90911000"},{"id":"57533","name":"Peta\u1e96 Tiqwa","state_id":1367,"state_code":"M","country_id":106,"country_code":"IL","latitude":"32.08707000","longitude":"34.88747000"},{"id":"57534","name":"Qalansuwa","state_id":1367,"state_code":"M","country_id":106,"country_code":"IL","latitude":"32.28493000","longitude":"34.98106000"},{"id":"57541","name":"Ra'anana","state_id":1367,"state_code":"M","country_id":106,"country_code":"IL","latitude":"32.18360000","longitude":"34.87386000"},{"id":"57546","name":"Ramla","state_id":1367,"state_code":"M","country_id":106,"country_code":"IL","latitude":"31.92923000","longitude":"34.86563000"},{"id":"57548","name":"Re\u1e96ovot","state_id":1367,"state_code":"M","country_id":106,"country_code":"IL","latitude":"31.89421000","longitude":"34.81199000"},{"id":"57549","name":"Rishon Le\u1e94iyyon","state_id":1367,"state_code":"M","country_id":106,"country_code":"IL","latitude":"31.97102000","longitude":"34.78939000"},{"id":"57550","name":"Rosh Ha\u2018Ayin","state_id":1367,"state_code":"M","country_id":106,"country_code":"IL","latitude":"32.09556000","longitude":"34.95664000"},{"id":"57556","name":"Savyon","state_id":1367,"state_code":"M","country_id":106,"country_code":"IL","latitude":"32.04966000","longitude":"34.87770000"},{"id":"57560","name":"Shoham","state_id":1367,"state_code":"M","country_id":106,"country_code":"IL","latitude":"31.99866000","longitude":"34.94559000"},{"id":"57565","name":"Tel Mond","state_id":1367,"state_code":"M","country_id":106,"country_code":"IL","latitude":"32.24995000","longitude":"34.91737000"},{"id":"57568","name":"Tirah","state_id":1367,"state_code":"M","country_id":106,"country_code":"IL","latitude":"32.23410000","longitude":"34.95023000"},{"id":"57573","name":"Yavn\u00e9","state_id":1367,"state_code":"M","country_id":106,"country_code":"IL","latitude":"31.87808000","longitude":"34.73983000"},{"id":"57574","name":"Yehud","state_id":1367,"state_code":"M","country_id":106,"country_code":"IL","latitude":"32.03317000","longitude":"34.89091000"},{"id":"57437","name":"Arad","state_id":1368,"state_code":"D","country_id":106,"country_code":"IL","latitude":"31.25882000","longitude":"35.21282000"},{"id":"57438","name":"Ashdod","state_id":1368,"state_code":"D","country_id":106,"country_code":"IL","latitude":"31.79213000","longitude":"34.64966000"},{"id":"57439","name":"Ashkelon","state_id":1368,"state_code":"D","country_id":106,"country_code":"IL","latitude":"31.66926000","longitude":"34.57149000"},{"id":"57582","name":"\u2018En Boqeq","state_id":1368,"state_code":"D","country_id":106,"country_code":"IL","latitude":"31.19941000","longitude":"35.36253000"},{"id":"57444","name":"Beersheba","state_id":1368,"state_code":"D","country_id":106,"country_code":"IL","latitude":"31.25181000","longitude":"34.79130000"},{"id":"57459","name":"Dimona","state_id":1368,"state_code":"D","country_id":106,"country_code":"IL","latitude":"31.07079000","longitude":"35.03269000"},{"id":"57460","name":"Eilat","state_id":1368,"state_code":"D","country_id":106,"country_code":"IL","latitude":"29.55805000","longitude":"34.94821000"},{"id":"57504","name":"Lehavim","state_id":1368,"state_code":"D","country_id":106,"country_code":"IL","latitude":"31.37284000","longitude":"34.81619000"},{"id":"57510","name":"Midreshet Ben-Gurion","state_id":1368,"state_code":"D","country_id":106,"country_code":"IL","latitude":"30.85154000","longitude":"34.78340000"},{"id":"57512","name":"Mitzpe Ramon","state_id":1368,"state_code":"D","country_id":106,"country_code":"IL","latitude":"30.60944000","longitude":"34.80111000"},{"id":"57524","name":"Netivot","state_id":1368,"state_code":"D","country_id":106,"country_code":"IL","latitude":"31.42305000","longitude":"34.58911000"},{"id":"57529","name":"Ofaqim","state_id":1368,"state_code":"D","country_id":106,"country_code":"IL","latitude":"31.31410000","longitude":"34.62025000"},{"id":"57537","name":"Qiryat Gat","state_id":1368,"state_code":"D","country_id":106,"country_code":"IL","latitude":"31.60998000","longitude":"34.76422000"},{"id":"57542","name":"Rahat","state_id":1368,"state_code":"D","country_id":106,"country_code":"IL","latitude":"31.39547000","longitude":"34.75699000"},{"id":"57557","name":"Sederot","state_id":1368,"state_code":"D","country_id":106,"country_code":"IL","latitude":"31.52500000","longitude":"34.59693000"},{"id":"57576","name":"Yero\u1e96am","state_id":1368,"state_code":"D","country_id":106,"country_code":"IL","latitude":"30.98822000","longitude":"34.93176000"},{"id":"57440","name":"Atlit","state_id":1369,"state_code":"HA","country_id":106,"country_code":"IL","latitude":"32.68889000","longitude":"34.94236000"},{"id":"57455","name":"Caesarea","state_id":1369,"state_code":"HA","country_id":106,"country_code":"IL","latitude":"32.51888000","longitude":"34.90459000"},{"id":"57457","name":"Daliyat al Karmel","state_id":1369,"state_code":"HA","country_id":106,"country_code":"IL","latitude":"32.69383000","longitude":"35.04686000"},{"id":"57461","name":"El Fureidis","state_id":1369,"state_code":"HA","country_id":106,"country_code":"IL","latitude":"32.59812000","longitude":"34.95153000"},{"id":"57473","name":"Hadera","state_id":1369,"state_code":"HA","country_id":106,"country_code":"IL","latitude":"32.44192000","longitude":"34.90390000"},{"id":"57474","name":"Haifa","state_id":1369,"state_code":"HA","country_id":106,"country_code":"IL","latitude":"32.81841000","longitude":"34.98850000"},{"id":"57480","name":"Ib\u1e6din","state_id":1369,"state_code":"HA","country_id":106,"country_code":"IL","latitude":"32.76150000","longitude":"35.11402000"},{"id":"57521","name":"Nesher","state_id":1369,"state_code":"HA","country_id":106,"country_code":"IL","latitude":"32.76622000","longitude":"35.04425000"},{"id":"57535","name":"Qiryat Ata","state_id":1369,"state_code":"HA","country_id":106,"country_code":"IL","latitude":"32.81149000","longitude":"35.11323000"},{"id":"57536","name":"Qiryat Bialik","state_id":1369,"state_code":"HA","country_id":106,"country_code":"IL","latitude":"32.82750000","longitude":"35.08583000"},{"id":"57538","name":"Qiryat Mo\u1e95qin","state_id":1369,"state_code":"HA","country_id":106,"country_code":"IL","latitude":"32.83706000","longitude":"35.07760000"},{"id":"57540","name":"Qiryat Yam","state_id":1369,"state_code":"HA","country_id":106,"country_code":"IL","latitude":"32.84966000","longitude":"35.06973000"},{"id":"57547","name":"Rekhasim","state_id":1369,"state_code":"HA","country_id":106,"country_code":"IL","latitude":"32.74907000","longitude":"35.09901000"},{"id":"57569","name":"Tirat Karmel","state_id":1369,"state_code":"HA","country_id":106,"country_code":"IL","latitude":"32.76021000","longitude":"34.97183000"},{"id":"57570","name":"Umm el Fa\u1e25m","state_id":1369,"state_code":"HA","country_id":106,"country_code":"IL","latitude":"32.51725000","longitude":"35.15349000"},{"id":"57434","name":"Abu Ghaush","state_id":1370,"state_code":"JM","country_id":106,"country_code":"IL","latitude":"31.80592000","longitude":"35.10930000"},{"id":"57579","name":"\u1e94ur Hadassa","state_id":1370,"state_code":"JM","country_id":106,"country_code":"IL","latitude":"31.71912000","longitude":"35.09708000"},{"id":"57447","name":"Bet Shemesh","state_id":1370,"state_code":"JM","country_id":106,"country_code":"IL","latitude":"31.73072000","longitude":"34.99293000"},{"id":"57475","name":"Har Adar","state_id":1370,"state_code":"JM","country_id":106,"country_code":"IL","latitude":"31.82754000","longitude":"35.13093000"},{"id":"57484","name":"Jerusalem","state_id":1370,"state_code":"JM","country_id":106,"country_code":"IL","latitude":"31.76904000","longitude":"35.21633000"},{"id":"57509","name":"Mevasseret \u1e94iyyon","state_id":1370,"state_code":"JM","country_id":106,"country_code":"IL","latitude":"31.80186000","longitude":"35.15072000"},{"id":"57514","name":"Modiin Ilit","state_id":1370,"state_code":"JM","country_id":106,"country_code":"IL","latitude":"31.93221000","longitude":"35.04416000"},{"id":"57571","name":"West Jerusalem","state_id":1370,"state_code":"JM","country_id":106,"country_code":"IL","latitude":"31.78199000","longitude":"35.21961000"},{"id":"57441","name":"Azor","state_id":1371,"state_code":"TA","country_id":106,"country_code":"IL","latitude":"32.02430000","longitude":"34.80632000"},{"id":"57443","name":"Bat Yam","state_id":1371,"state_code":"TA","country_id":106,"country_code":"IL","latitude":"32.02379000","longitude":"34.75185000"},{"id":"57451","name":"Bnei Brak","state_id":1371,"state_code":"TA","country_id":106,"country_code":"IL","latitude":"32.08074000","longitude":"34.83380000"},{"id":"57471","name":"Giv'at Shmuel","state_id":1371,"state_code":"TA","country_id":106,"country_code":"IL","latitude":"32.07817000","longitude":"34.84858000"},{"id":"57472","name":"Givatayim","state_id":1371,"state_code":"TA","country_id":106,"country_code":"IL","latitude":"32.07225000","longitude":"34.81253000"},{"id":"57476","name":"Herzliya","state_id":1371,"state_code":"TA","country_id":106,"country_code":"IL","latitude":"32.16627000","longitude":"34.82536000"},{"id":"57477","name":"Herzliya Pituah","state_id":1371,"state_code":"TA","country_id":106,"country_code":"IL","latitude":"32.17409000","longitude":"34.80280000"},{"id":"57479","name":"H\u0331olon","state_id":1371,"state_code":"TA","country_id":106,"country_code":"IL","latitude":"32.01034000","longitude":"34.77918000"},{"id":"57482","name":"Jaffa","state_id":1371,"state_code":"TA","country_id":106,"country_code":"IL","latitude":"32.05043000","longitude":"34.75224000"},{"id":"57496","name":"Kefar Shemaryahu","state_id":1371,"state_code":"TA","country_id":106,"country_code":"IL","latitude":"32.18529000","longitude":"34.82082000"},{"id":"57530","name":"Or Yehuda","state_id":1371,"state_code":"TA","country_id":106,"country_code":"IL","latitude":"32.02923000","longitude":"34.85788000"},{"id":"57543","name":"Ramat Gan","state_id":1371,"state_code":"TA","country_id":106,"country_code":"IL","latitude":"32.08227000","longitude":"34.81065000"},{"id":"57544","name":"Ramat HaSharon","state_id":1371,"state_code":"TA","country_id":106,"country_code":"IL","latitude":"32.14613000","longitude":"34.83940000"},{"id":"57564","name":"Tel Aviv","state_id":1371,"state_code":"TA","country_id":106,"country_code":"IL","latitude":"32.08088000","longitude":"34.78057000"},{"id":"57575","name":"Yehud-Monosson","state_id":1371,"state_code":"TA","country_id":106,"country_code":"IL","latitude":"32.02840000","longitude":"34.87960000"}]