[{"id":"79050","name":"Aukra","state_id":1020,"state_code":"15","country_id":165,"country_code":"NO","latitude":"62.80500000","longitude":"6.88722000"},{"id":"79052","name":"Aure","state_id":1020,"state_code":"15","country_id":165,"country_code":"NO","latitude":"63.26750000","longitude":"8.52778000"},{"id":"79058","name":"Aver\u00f8y","state_id":1020,"state_code":"15","country_id":165,"country_code":"NO","latitude":"63.05344000","longitude":"7.63265000"},{"id":"79697","name":"\u00d8rskog","state_id":1020,"state_code":"15","country_id":165,"country_code":"NO","latitude":"62.48450000","longitude":"6.82025000"},{"id":"79698","name":"\u00d8rsta","state_id":1020,"state_code":"15","country_id":165,"country_code":"NO","latitude":"62.19937000","longitude":"6.13084000"},{"id":"79678","name":"\u00c5lesund","state_id":1020,"state_code":"15","country_id":165,"country_code":"NO","latitude":"62.47225000","longitude":"6.15492000"},{"id":"79680","name":"\u00c5ndalsnes","state_id":1020,"state_code":"15","country_id":165,"country_code":"NO","latitude":"62.56749000","longitude":"7.68709000"},{"id":"79066","name":"Batnfjords\u00f8ra","state_id":1020,"state_code":"15","country_id":165,"country_code":"NO","latitude":"62.89463000","longitude":"7.67251000"},{"id":"79086","name":"Brattv\u00e5g","state_id":1020,"state_code":"15","country_id":165,"country_code":"NO","latitude":"62.59991000","longitude":"6.44426000"},{"id":"79111","name":"Eide","state_id":1020,"state_code":"15","country_id":165,"country_code":"NO","latitude":"62.91570000","longitude":"7.44496000"},{"id":"79116","name":"Eidsv\u00e5g","state_id":1020,"state_code":"15","country_id":165,"country_code":"NO","latitude":"62.77656000","longitude":"8.06550000"},{"id":"79121","name":"Elnesv\u00e5gen","state_id":1020,"state_code":"15","country_id":165,"country_code":"NO","latitude":"62.85426000","longitude":"7.13769000"},{"id":"79164","name":"Fr\u00e6na","state_id":1020,"state_code":"15","country_id":165,"country_code":"NO","latitude":"62.85375000","longitude":"7.15380000"},{"id":"79176","name":"Giske","state_id":1020,"state_code":"15","country_id":165,"country_code":"NO","latitude":"62.50070000","longitude":"6.13472000"},{"id":"79177","name":"Gjemnes","state_id":1020,"state_code":"15","country_id":165,"country_code":"NO","latitude":"62.89379000","longitude":"7.67714000"},{"id":"79200","name":"Halsa","state_id":1020,"state_code":"15","country_id":165,"country_code":"NO","latitude":"63.11855000","longitude":"8.31536000"},{"id":"79205","name":"Haram","state_id":1020,"state_code":"15","country_id":165,"country_code":"NO","latitude":"62.59898000","longitude":"6.44483000"},{"id":"79207","name":"Hareid","state_id":1020,"state_code":"15","country_id":165,"country_code":"NO","latitude":"62.36742000","longitude":"6.02114000"},{"id":"79221","name":"Her\u00f8y","state_id":1020,"state_code":"15","country_id":165,"country_code":"NO","latitude":"62.33333000","longitude":"5.63598000"},{"id":"79225","name":"Hjelset","state_id":1020,"state_code":"15","country_id":165,"country_code":"NO","latitude":"62.78050000","longitude":"7.49277000"},{"id":"79234","name":"Hopen","state_id":1020,"state_code":"15","country_id":165,"country_code":"NO","latitude":"63.46539000","longitude":"8.01437000"},{"id":"79288","name":"Kristiansund","state_id":1020,"state_code":"15","country_id":165,"country_code":"NO","latitude":"63.11152000","longitude":"7.73198000"},{"id":"79303","name":"Larsnes","state_id":1020,"state_code":"15","country_id":165,"country_code":"NO","latitude":"62.20282000","longitude":"5.57729000"},{"id":"79364","name":"Midsund","state_id":1020,"state_code":"15","country_id":165,"country_code":"NO","latitude":"62.67614000","longitude":"6.67776000"},{"id":"79372","name":"Molde","state_id":1020,"state_code":"15","country_id":165,"country_code":"NO","latitude":"62.73807000","longitude":"7.15882000"},{"id":"79397","name":"Nesset","state_id":1020,"state_code":"15","country_id":165,"country_code":"NO","latitude":"62.77619000","longitude":"8.06623000"},{"id":"79405","name":"Norddal","state_id":1020,"state_code":"15","country_id":165,"country_code":"NO","latitude":"62.29910000","longitude":"7.26145000"},{"id":"79410","name":"Nordstranda","state_id":1020,"state_code":"15","country_id":165,"country_code":"NO","latitude":"62.51384000","longitude":"6.13166000"},{"id":"79440","name":"Rauma","state_id":1020,"state_code":"15","country_id":165,"country_code":"NO","latitude":"62.56810000","longitude":"7.68612000"},{"id":"79448","name":"Rensvik","state_id":1020,"state_code":"15","country_id":165,"country_code":"NO","latitude":"63.09843000","longitude":"7.82026000"},{"id":"79486","name":"Sand\u00f8y","state_id":1020,"state_code":"15","country_id":165,"country_code":"NO","latitude":"62.78167000","longitude":"6.46875000"},{"id":"79481","name":"Sande","state_id":1020,"state_code":"15","country_id":165,"country_code":"NO","latitude":"62.20455000","longitude":"5.57971000"},{"id":"79501","name":"Sj\u00f8holt","state_id":1020,"state_code":"15","country_id":165,"country_code":"NO","latitude":"62.48263000","longitude":"6.81376000"},{"id":"79514","name":"Skodje","state_id":1020,"state_code":"15","country_id":165,"country_code":"NO","latitude":"62.50306000","longitude":"6.69817000"},{"id":"79525","name":"Sm\u00f8la","state_id":1020,"state_code":"15","country_id":165,"country_code":"NO","latitude":"63.46526000","longitude":"8.01814000"},{"id":"79542","name":"Steinshamn","state_id":1020,"state_code":"15","country_id":165,"country_code":"NO","latitude":"62.78389000","longitude":"6.47065000"},{"id":"79549","name":"Stordal","state_id":1020,"state_code":"15","country_id":165,"country_code":"NO","latitude":"62.38214000","longitude":"6.98708000"},{"id":"79556","name":"Stranda","state_id":1020,"state_code":"15","country_id":165,"country_code":"NO","latitude":"62.31132000","longitude":"6.93115000"},{"id":"79562","name":"Sula","state_id":1020,"state_code":"15","country_id":165,"country_code":"NO","latitude":"62.44447000","longitude":"6.21229000"},{"id":"79565","name":"Sunndal","state_id":1020,"state_code":"15","country_id":165,"country_code":"NO","latitude":"62.67464000","longitude":"8.56188000"},{"id":"79566","name":"Sunndals\u00f8ra","state_id":1020,"state_code":"15","country_id":165,"country_code":"NO","latitude":"62.67519000","longitude":"8.56327000"},{"id":"79567","name":"Surnadal","state_id":1020,"state_code":"15","country_id":165,"country_code":"NO","latitude":"62.97533000","longitude":"8.72490000"},{"id":"79573","name":"Sykkylven","state_id":1020,"state_code":"15","country_id":165,"country_code":"NO","latitude":"62.38962000","longitude":"6.57825000"},{"id":"79593","name":"Tingvoll","state_id":1020,"state_code":"15","country_id":165,"country_code":"NO","latitude":"62.91194000","longitude":"8.20673000"},{"id":"79600","name":"Tomra","state_id":1020,"state_code":"15","country_id":165,"country_code":"NO","latitude":"62.58118000","longitude":"6.93106000"},{"id":"79623","name":"Ulstein","state_id":1020,"state_code":"15","country_id":165,"country_code":"NO","latitude":"62.34423000","longitude":"5.85241000"},{"id":"79624","name":"Ulsteinvik","state_id":1020,"state_code":"15","country_id":165,"country_code":"NO","latitude":"62.34317000","longitude":"5.84869000"},{"id":"79625","name":"Ulsteinvik weather pws station","state_id":1020,"state_code":"15","country_id":165,"country_code":"NO","latitude":"62.34338000","longitude":"5.84385000"},{"id":"79632","name":"Vanylven","state_id":1020,"state_code":"15","country_id":165,"country_code":"NO","latitude":"62.10003000","longitude":"5.55827000"},{"id":"79635","name":"Vatne","state_id":1020,"state_code":"15","country_id":165,"country_code":"NO","latitude":"62.55826000","longitude":"6.61708000"},{"id":"79644","name":"Vestnes","state_id":1020,"state_code":"15","country_id":165,"country_code":"NO","latitude":"62.62130000","longitude":"7.08966000"},{"id":"79660","name":"Volda","state_id":1020,"state_code":"15","country_id":165,"country_code":"NO","latitude":"62.14678000","longitude":"6.06800000"}]