[{"id":"79063","name":"Bamble","state_id":1024,"state_code":"08","country_id":165,"country_code":"NO","latitude":"59.00146000","longitude":"9.74573000"},{"id":"79095","name":"B\u00f8","state_id":1024,"state_code":"08","country_id":165,"country_code":"NO","latitude":"59.41281000","longitude":"9.06618000"},{"id":"79100","name":"Dalen","state_id":1024,"state_code":"08","country_id":165,"country_code":"NO","latitude":"59.44499000","longitude":"8.00492000"},{"id":"79105","name":"Drangedal","state_id":1024,"state_code":"08","country_id":165,"country_code":"NO","latitude":"59.09655000","longitude":"9.05960000"},{"id":"79167","name":"Fyresdal","state_id":1024,"state_code":"08","country_id":165,"country_code":"NO","latitude":"59.18651000","longitude":"8.08953000"},{"id":"79196","name":"Gvarv","state_id":1024,"state_code":"08","country_id":165,"country_code":"NO","latitude":"59.38767000","longitude":"9.17240000"},{"id":"79219","name":"Herre","state_id":1024,"state_code":"08","country_id":165,"country_code":"NO","latitude":"59.10351000","longitude":"9.56195000"},{"id":"79223","name":"Hjartdal","state_id":1024,"state_code":"08","country_id":165,"country_code":"NO","latitude":"59.61276000","longitude":"8.94942000"},{"id":"79286","name":"Krager\u00f8","state_id":1024,"state_code":"08","country_id":165,"country_code":"NO","latitude":"58.86792000","longitude":"9.41099000"},{"id":"79294","name":"Kviteseid","state_id":1024,"state_code":"08","country_id":165,"country_code":"NO","latitude":"59.40194000","longitude":"8.49459000"},{"id":"79332","name":"Lunde","state_id":1024,"state_code":"08","country_id":165,"country_code":"NO","latitude":"59.29832000","longitude":"9.10268000"},{"id":"79398","name":"Nissedal","state_id":1024,"state_code":"08","country_id":165,"country_code":"NO","latitude":"59.01958000","longitude":"8.52127000"},{"id":"79401","name":"Nome","state_id":1024,"state_code":"08","country_id":165,"country_code":"NO","latitude":"59.28136000","longitude":"9.25678000"},{"id":"79414","name":"Notodden","state_id":1024,"state_code":"08","country_id":165,"country_code":"NO","latitude":"59.55992000","longitude":"9.26046000"},{"id":"79430","name":"Porsgrunn","state_id":1024,"state_code":"08","country_id":165,"country_code":"NO","latitude":"59.14190000","longitude":"9.65680000"},{"id":"79431","name":"Prestestranda","state_id":1024,"state_code":"08","country_id":165,"country_code":"NO","latitude":"59.09773000","longitude":"9.05866000"},{"id":"79453","name":"Rjukan","state_id":1024,"state_code":"08","country_id":165,"country_code":"NO","latitude":"59.87891000","longitude":"8.59411000"},{"id":"79489","name":"Sauherad","state_id":1024,"state_code":"08","country_id":165,"country_code":"NO","latitude":"59.39642000","longitude":"9.24910000"},{"id":"79493","name":"Seljord","state_id":1024,"state_code":"08","country_id":165,"country_code":"NO","latitude":"59.48274000","longitude":"8.62672000"},{"id":"79498","name":"Siljan","state_id":1024,"state_code":"08","country_id":165,"country_code":"NO","latitude":"59.28251000","longitude":"9.73368000"},{"id":"79508","name":"Skien","state_id":1024,"state_code":"08","country_id":165,"country_code":"NO","latitude":"59.20748000","longitude":"9.61052000"},{"id":"79594","name":"Tinn","state_id":1024,"state_code":"08","country_id":165,"country_code":"NO","latitude":"59.83486000","longitude":"9.13528000"},{"id":"79598","name":"Tokke","state_id":1024,"state_code":"08","country_id":165,"country_code":"NO","latitude":"59.44569000","longitude":"8.01388000"},{"id":"79620","name":"Ulefoss","state_id":1024,"state_code":"08","country_id":165,"country_code":"NO","latitude":"59.28245000","longitude":"9.26548000"},{"id":"79658","name":"Vinje","state_id":1024,"state_code":"08","country_id":165,"country_code":"NO","latitude":"59.56924000","longitude":"7.98896000"}]