[{"id":"53510","name":"Jalapa","state_id":3658,"state_code":"JA","country_id":90,"country_code":"GT","latitude":"14.63472000","longitude":"-89.98889000"},{"id":"53531","name":"Mataquescuintla","state_id":3658,"state_code":"JA","country_id":90,"country_code":"GT","latitude":"14.52917000","longitude":"-90.18417000"},{"id":"53536","name":"Monjas","state_id":3658,"state_code":"JA","country_id":90,"country_code":"GT","latitude":"14.50000000","longitude":"-89.86667000"},{"id":"53564","name":"Municipio de Jalapa","state_id":3658,"state_code":"JA","country_id":90,"country_code":"GT","latitude":"14.63275000","longitude":"-90.03301000"},{"id":"53569","name":"Municipio de Mataquescuintla","state_id":3658,"state_code":"JA","country_id":90,"country_code":"GT","latitude":"14.54777000","longitude":"-90.20008000"},{"id":"53706","name":"San Luis Jilotepeque","state_id":3658,"state_code":"JA","country_id":90,"country_code":"GT","latitude":"14.65000000","longitude":"-89.73333000"},{"id":"53707","name":"San Manuel Chaparr\u00f3n","state_id":3658,"state_code":"JA","country_id":90,"country_code":"GT","latitude":"14.51667000","longitude":"-89.76667000"},{"id":"53728","name":"San Pedro Pinula","state_id":3658,"state_code":"JA","country_id":90,"country_code":"GT","latitude":"14.66667000","longitude":"-89.85000000"}]