[{"id":"53448","name":"Chicacao","state_id":3660,"state_code":"SU","country_id":90,"country_code":"GT","latitude":"14.54295000","longitude":"-91.32636000"},{"id":"53478","name":"Cuyotenango","state_id":3660,"state_code":"SU","country_id":90,"country_code":"GT","latitude":"14.54006000","longitude":"-91.57179000"},{"id":"53532","name":"Mazatenango","state_id":3660,"state_code":"SU","country_id":90,"country_code":"GT","latitude":"14.53417000","longitude":"-91.50333000"},{"id":"53581","name":"Municipio de San Antonio Suchitep\u00e9quez","state_id":3660,"state_code":"SU","country_id":90,"country_code":"GT","latitude":"14.51839000","longitude":"-91.40438000"},{"id":"53587","name":"Municipio de San Miguel Pan\u00e1n","state_id":3660,"state_code":"SU","country_id":90,"country_code":"GT","latitude":"14.50525000","longitude":"-91.35956000"},{"id":"53590","name":"Municipio de Santa B\u00e1rbara","state_id":3660,"state_code":"SU","country_id":90,"country_code":"GT","latitude":"14.47317000","longitude":"-91.24688000"},{"id":"53624","name":"Patulul","state_id":3660,"state_code":"SU","country_id":90,"country_code":"GT","latitude":"14.42321000","longitude":"-91.16049000"},{"id":"53632","name":"Pueblo Nuevo","state_id":3660,"state_code":"SU","country_id":90,"country_code":"GT","latitude":"14.64709000","longitude":"-91.53946000"},{"id":"53643","name":"R\u00edo Bravo","state_id":3660,"state_code":"SU","country_id":90,"country_code":"GT","latitude":"14.40042000","longitude":"-91.31713000"},{"id":"53661","name":"San Antonio Suchitep\u00e9quez","state_id":3660,"state_code":"SU","country_id":90,"country_code":"GT","latitude":"14.53938000","longitude":"-91.41442000"},{"id":"53666","name":"San Bernardino","state_id":3660,"state_code":"SU","country_id":90,"country_code":"GT","latitude":"14.54240000","longitude":"-91.45811000"},{"id":"53675","name":"San Francisco Zapotitl\u00e1n","state_id":3660,"state_code":"SU","country_id":90,"country_code":"GT","latitude":"14.58939000","longitude":"-91.52144000"},{"id":"53677","name":"San Gabriel","state_id":3660,"state_code":"SU","country_id":90,"country_code":"GT","latitude":"14.51076000","longitude":"-91.50745000"},{"id":"53684","name":"San Jos\u00e9 El \u00cddolo","state_id":3660,"state_code":"SU","country_id":90,"country_code":"GT","latitude":"14.45016000","longitude":"-91.42222000"},{"id":"53692","name":"San Juan Bautista","state_id":3660,"state_code":"SU","country_id":90,"country_code":"GT","latitude":"14.42274000","longitude":"-91.17904000"},{"id":"53701","name":"San Lorenzo","state_id":3660,"state_code":"SU","country_id":90,"country_code":"GT","latitude":"14.48606000","longitude":"-91.51263000"},{"id":"53719","name":"San Miguel Pan\u00e1n","state_id":3660,"state_code":"SU","country_id":90,"country_code":"GT","latitude":"14.52865000","longitude":"-91.36733000"},{"id":"53722","name":"San Pablo Jocopilas","state_id":3660,"state_code":"SU","country_id":90,"country_code":"GT","latitude":"14.58882000","longitude":"-91.45188000"},{"id":"53746","name":"Santa B\u00e1rbara","state_id":3660,"state_code":"SU","country_id":90,"country_code":"GT","latitude":"14.43563000","longitude":"-91.22685000"},{"id":"53773","name":"Santo Domingo Suchitep\u00e9quez","state_id":3660,"state_code":"SU","country_id":90,"country_code":"GT","latitude":"14.47901000","longitude":"-91.48327000"},{"id":"53775","name":"Santo Tom\u00e1s La Uni\u00f3n","state_id":3660,"state_code":"SU","country_id":90,"country_code":"GT","latitude":"14.63219000","longitude":"-91.41075000"},{"id":"53806","name":"Zunilito","state_id":3660,"state_code":"SU","country_id":90,"country_code":"GT","latitude":"14.61264000","longitude":"-91.50980000"}]