[{"id":"53443","name":"Catarina","state_id":3667,"state_code":"SM","country_id":90,"country_code":"GT","latitude":"14.85354000","longitude":"-92.07682000"},{"id":"53459","name":"Ciudad Tec\u00fan Um\u00e1n","state_id":3667,"state_code":"SM","country_id":90,"country_code":"GT","latitude":"14.67737000","longitude":"-92.14039000"},{"id":"53467","name":"Comitancillo","state_id":3667,"state_code":"SM","country_id":90,"country_code":"GT","latitude":"15.08937000","longitude":"-91.74971000"},{"id":"53472","name":"Concepci\u00f3n Tutuapa","state_id":3667,"state_code":"SM","country_id":90,"country_code":"GT","latitude":"15.23940000","longitude":"-91.84460000"},{"id":"53487","name":"El Quetzal","state_id":3667,"state_code":"SM","country_id":90,"country_code":"GT","latitude":"14.76865000","longitude":"-91.81757000"},{"id":"53488","name":"El Rodeo","state_id":3667,"state_code":"SM","country_id":90,"country_code":"GT","latitude":"14.91447000","longitude":"-91.97631000"},{"id":"53490","name":"El Tumbador","state_id":3667,"state_code":"SM","country_id":90,"country_code":"GT","latitude":"14.86375000","longitude":"-91.93416000"},{"id":"53493","name":"Esquipulas Palo Gordo","state_id":3667,"state_code":"SM","country_id":90,"country_code":"GT","latitude":"14.94135000","longitude":"-91.82564000"},{"id":"53506","name":"Ixchigu\u00e1n","state_id":3667,"state_code":"SM","country_id":90,"country_code":"GT","latitude":"15.16375000","longitude":"-91.93256000"},{"id":"53522","name":"La Reforma","state_id":3667,"state_code":"SM","country_id":90,"country_code":"GT","latitude":"14.80104000","longitude":"-91.82233000"},{"id":"53529","name":"Malacat\u00e1n","state_id":3667,"state_code":"SM","country_id":90,"country_code":"GT","latitude":"14.91132000","longitude":"-92.05788000"},{"id":"53558","name":"Municipio de Concepci\u00f3n Tutuapa","state_id":3667,"state_code":"SM","country_id":90,"country_code":"GT","latitude":"15.28795000","longitude":"-91.86738000"},{"id":"53568","name":"Municipio de Malacat\u00e1n","state_id":3667,"state_code":"SM","country_id":90,"country_code":"GT","latitude":"14.91829000","longitude":"-92.10548000"},{"id":"53597","name":"Municipio de Sipacapa","state_id":3667,"state_code":"SM","country_id":90,"country_code":"GT","latitude":"15.19243000","longitude":"-91.65541000"},{"id":"53598","name":"Municipio de Tejutla","state_id":3667,"state_code":"SM","country_id":90,"country_code":"GT","latitude":"15.15638000","longitude":"-91.82457000"},{"id":"53607","name":"Nuevo Progreso","state_id":3667,"state_code":"SM","country_id":90,"country_code":"GT","latitude":"14.79174000","longitude":"-91.91946000"},{"id":"53609","name":"Oc\u00f3s","state_id":3667,"state_code":"SM","country_id":90,"country_code":"GT","latitude":"14.50998000","longitude":"-92.19298000"},{"id":"53615","name":"Pajapita","state_id":3667,"state_code":"SM","country_id":90,"country_code":"GT","latitude":"14.72152000","longitude":"-92.03521000"},{"id":"53642","name":"R\u00edo Blanco","state_id":3667,"state_code":"SM","country_id":90,"country_code":"GT","latitude":"15.03820000","longitude":"-91.68463000"},{"id":"53660","name":"San Antonio Sacatep\u00e9quez","state_id":3667,"state_code":"SM","country_id":90,"country_code":"GT","latitude":"14.96060000","longitude":"-91.73154000"},{"id":"53669","name":"San Crist\u00f3bal Cucho","state_id":3667,"state_code":"SM","country_id":90,"country_code":"GT","latitude":"14.90505000","longitude":"-91.78123000"},{"id":"53686","name":"San Jos\u00e9 Ojetenam","state_id":3667,"state_code":"SM","country_id":90,"country_code":"GT","latitude":"15.23443000","longitude":"-91.97317000"},{"id":"53687","name":"San Jos\u00e9 Ojeten\u00e1n","state_id":3667,"state_code":"SM","country_id":90,"country_code":"GT","latitude":"15.21667000","longitude":"-91.96667000"},{"id":"53700","name":"San Lorenzo","state_id":3667,"state_code":"SM","country_id":90,"country_code":"GT","latitude":"15.03087000","longitude":"-91.73534000"},{"id":"53708","name":"San Marcos","state_id":3667,"state_code":"SM","country_id":90,"country_code":"GT","latitude":"14.96389000","longitude":"-91.79444000"},{"id":"53718","name":"San Miguel Ixtahuac\u00e1n","state_id":3667,"state_code":"SM","country_id":90,"country_code":"GT","latitude":"15.27247000","longitude":"-91.74785000"},{"id":"53721","name":"San Pablo","state_id":3667,"state_code":"SM","country_id":90,"country_code":"GT","latitude":"14.93269000","longitude":"-92.00415000"},{"id":"53729","name":"San Pedro Sacatep\u00e9quez","state_id":3667,"state_code":"SM","country_id":90,"country_code":"GT","latitude":"14.96807000","longitude":"-91.76172000"},{"id":"53735","name":"San Rafael Pie de la Cuesta","state_id":3667,"state_code":"SM","country_id":90,"country_code":"GT","latitude":"14.93052000","longitude":"-91.91388000"},{"id":"53779","name":"Sibinal","state_id":3667,"state_code":"SM","country_id":90,"country_code":"GT","latitude":"15.14963000","longitude":"-92.04892000"},{"id":"53780","name":"Sipacapa","state_id":3667,"state_code":"SM","country_id":90,"country_code":"GT","latitude":"15.21246000","longitude":"-91.63416000"},{"id":"53785","name":"Tacan\u00e1","state_id":3667,"state_code":"SM","country_id":90,"country_code":"GT","latitude":"15.24058000","longitude":"-92.06721000"},{"id":"53787","name":"Tajumulco","state_id":3667,"state_code":"SM","country_id":90,"country_code":"GT","latitude":"15.08349000","longitude":"-91.92225000"},{"id":"53792","name":"Tejutla","state_id":3667,"state_code":"SM","country_id":90,"country_code":"GT","latitude":"15.12254000","longitude":"-91.80635000"}]