[{"id":"53428","name":"Almolonga","state_id":3668,"state_code":"QZ","country_id":90,"country_code":"GT","latitude":"14.81591000","longitude":"-91.49464000"},{"id":"53436","name":"Cabric\u00e1n","state_id":3668,"state_code":"QZ","country_id":90,"country_code":"GT","latitude":"15.07485000","longitude":"-91.64800000"},{"id":"53438","name":"Cajol\u00e1","state_id":3668,"state_code":"QZ","country_id":90,"country_code":"GT","latitude":"14.92205000","longitude":"-91.61478000"},{"id":"53441","name":"Cantel","state_id":3668,"state_code":"QZ","country_id":90,"country_code":"GT","latitude":"14.81154000","longitude":"-91.45536000"},{"id":"53461","name":"Coatepeque","state_id":3668,"state_code":"QZ","country_id":90,"country_code":"GT","latitude":"14.70413000","longitude":"-91.86426000"},{"id":"53463","name":"Colomba","state_id":3668,"state_code":"QZ","country_id":90,"country_code":"GT","latitude":"14.70730000","longitude":"-91.73167000"},{"id":"53469","name":"Concepci\u00f3n Chiquirichapa","state_id":3668,"state_code":"QZ","country_id":90,"country_code":"GT","latitude":"14.85510000","longitude":"-91.62360000"},{"id":"53485","name":"El Palmar","state_id":3668,"state_code":"QZ","country_id":90,"country_code":"GT","latitude":"14.65083000","longitude":"-91.57800000"},{"id":"53495","name":"Flores Costa Cuca","state_id":3668,"state_code":"QZ","country_id":90,"country_code":"GT","latitude":"14.63238000","longitude":"-91.86341000"},{"id":"53502","name":"G\u00e9nova","state_id":3668,"state_code":"QZ","country_id":90,"country_code":"GT","latitude":"14.61667000","longitude":"-91.83333000"},{"id":"53504","name":"Huit\u00e1n","state_id":3668,"state_code":"QZ","country_id":90,"country_code":"GT","latitude":"15.04920000","longitude":"-91.63944000"},{"id":"53518","name":"La Esperanza","state_id":3668,"state_code":"QZ","country_id":90,"country_code":"GT","latitude":"14.87169000","longitude":"-91.56140000"},{"id":"53540","name":"Municipio de Almolonga","state_id":3668,"state_code":"QZ","country_id":90,"country_code":"GT","latitude":"14.81118000","longitude":"-91.48354000"},{"id":"53544","name":"Municipio de Cabric\u00e1n","state_id":3668,"state_code":"QZ","country_id":90,"country_code":"GT","latitude":"15.10305000","longitude":"-91.64918000"},{"id":"53546","name":"Municipio de Cantel","state_id":3668,"state_code":"QZ","country_id":90,"country_code":"GT","latitude":"14.81659000","longitude":"-91.43781000"},{"id":"53555","name":"Municipio de Coatepeque","state_id":3668,"state_code":"QZ","country_id":90,"country_code":"GT","latitude":"14.64309000","longitude":"-91.97926000"},{"id":"53556","name":"Municipio de Colomba","state_id":3668,"state_code":"QZ","country_id":90,"country_code":"GT","latitude":"14.71002000","longitude":"-91.74691000"},{"id":"53557","name":"Municipio de Concepci\u00f3n Chiquirichapa","state_id":3668,"state_code":"QZ","country_id":90,"country_code":"GT","latitude":"14.84624000","longitude":"-91.61854000"},{"id":"53561","name":"Municipio de Flores Costa Cuca","state_id":3668,"state_code":"QZ","country_id":90,"country_code":"GT","latitude":"14.63238000","longitude":"-91.86341000"},{"id":"53586","name":"Municipio de San Juan Ostuncalco","state_id":3668,"state_code":"QZ","country_id":90,"country_code":"GT","latitude":"14.87477000","longitude":"-91.68842000"},{"id":"53610","name":"Olintepeque","state_id":3668,"state_code":"QZ","country_id":90,"country_code":"GT","latitude":"14.88605000","longitude":"-91.51472000"},{"id":"53613","name":"Ostuncalco","state_id":3668,"state_code":"QZ","country_id":90,"country_code":"GT","latitude":"14.86899000","longitude":"-91.62137000"},{"id":"53617","name":"Palestina de los Altos","state_id":3668,"state_code":"QZ","country_id":90,"country_code":"GT","latitude":"14.93338000","longitude":"-91.69403000"},{"id":"53638","name":"Quetzaltenango","state_id":3668,"state_code":"QZ","country_id":90,"country_code":"GT","latitude":"14.83472000","longitude":"-91.51806000"},{"id":"53646","name":"Salcaj\u00e1","state_id":3668,"state_code":"QZ","country_id":90,"country_code":"GT","latitude":"14.87964000","longitude":"-91.45699000"},{"id":"53647","name":"Samayac","state_id":3668,"state_code":"QZ","country_id":90,"country_code":"GT","latitude":"14.58084000","longitude":"-91.46135000"},{"id":"53667","name":"San Carlos Sija","state_id":3668,"state_code":"QZ","country_id":90,"country_code":"GT","latitude":"14.98436000","longitude":"-91.54912000"},{"id":"53676","name":"San Francisco la Uni\u00f3n","state_id":3668,"state_code":"QZ","country_id":90,"country_code":"GT","latitude":"14.92350000","longitude":"-91.54157000"},{"id":"53711","name":"San Mart\u00edn Sacatep\u00e9quez","state_id":3668,"state_code":"QZ","country_id":90,"country_code":"GT","latitude":"14.82443000","longitude":"-91.64192000"},{"id":"53713","name":"San Mateo","state_id":3668,"state_code":"QZ","country_id":90,"country_code":"GT","latitude":"14.85800000","longitude":"-91.59004000"},{"id":"53720","name":"San Miguel Sig\u00fcil\u00e1","state_id":3668,"state_code":"QZ","country_id":90,"country_code":"GT","latitude":"14.89547000","longitude":"-91.61457000"},{"id":"53778","name":"Sibilia","state_id":3668,"state_code":"QZ","country_id":90,"country_code":"GT","latitude":"14.99391000","longitude":"-91.62371000"},{"id":"53805","name":"Zunil","state_id":3668,"state_code":"QZ","country_id":90,"country_code":"GT","latitude":"14.78463000","longitude":"-91.48345000"}]