[{"id":"53437","name":"Cahab\u00f3n","state_id":3671,"state_code":"AV","country_id":90,"country_code":"GT","latitude":"15.56667000","longitude":"-89.81667000"},{"id":"53444","name":"Chahal Guatemala","state_id":3671,"state_code":"AV","country_id":90,"country_code":"GT","latitude":"15.79122000","longitude":"-89.60518000"},{"id":"53457","name":"Chisec","state_id":3671,"state_code":"AV","country_id":90,"country_code":"GT","latitude":"15.81667000","longitude":"-90.28333000"},{"id":"53462","name":"Cob\u00e1n","state_id":3671,"state_code":"AV","country_id":90,"country_code":"GT","latitude":"15.47083000","longitude":"-90.37083000"},{"id":"53523","name":"La Tinta","state_id":3671,"state_code":"AV","country_id":90,"country_code":"GT","latitude":"15.31667000","longitude":"-89.88333000"},{"id":"53524","name":"Lanqu\u00edn","state_id":3671,"state_code":"AV","country_id":90,"country_code":"GT","latitude":"15.56667000","longitude":"-89.96667000"},{"id":"53620","name":"Panz\u00f3s","state_id":3671,"state_code":"AV","country_id":90,"country_code":"GT","latitude":"15.40000000","longitude":"-89.66667000"},{"id":"53671","name":"San Crist\u00f3bal Verapaz","state_id":3671,"state_code":"AV","country_id":90,"country_code":"GT","latitude":"15.39632000","longitude":"-90.56513000"},{"id":"53693","name":"San Juan Chamelco","state_id":3671,"state_code":"AV","country_id":90,"country_code":"GT","latitude":"15.43333000","longitude":"-90.33333000"},{"id":"53725","name":"San Pedro Carch\u00e1","state_id":3671,"state_code":"AV","country_id":90,"country_code":"GT","latitude":"15.48333000","longitude":"-90.26667000"},{"id":"53758","name":"Santa Cruz Verapaz","state_id":3671,"state_code":"AV","country_id":90,"country_code":"GT","latitude":"15.36667000","longitude":"-90.43333000"},{"id":"53777","name":"Senah\u00fa","state_id":3671,"state_code":"AV","country_id":90,"country_code":"GT","latitude":"15.40000000","longitude":"-89.83333000"},{"id":"53786","name":"Tactic","state_id":3671,"state_code":"AV","country_id":90,"country_code":"GT","latitude":"15.32218000","longitude":"-90.35448000"},{"id":"53788","name":"Tamah\u00fa","state_id":3671,"state_code":"AV","country_id":90,"country_code":"GT","latitude":"15.30890000","longitude":"-90.23599000"},{"id":"53796","name":"Tucur\u00fa","state_id":3671,"state_code":"AV","country_id":90,"country_code":"GT","latitude":"15.30000000","longitude":"-90.06667000"}]