[{"id":"53426","name":"Agua Blanca","state_id":3673,"state_code":"JU","country_id":90,"country_code":"GT","latitude":"14.50000000","longitude":"-89.65000000"},{"id":"53432","name":"Asunci\u00f3n Mita","state_id":3673,"state_code":"JU","country_id":90,"country_code":"GT","latitude":"14.33083000","longitude":"-89.71083000"},{"id":"53433","name":"Atescatempa","state_id":3673,"state_code":"JU","country_id":90,"country_code":"GT","latitude":"14.17444000","longitude":"-89.74250000"},{"id":"53466","name":"Comapa","state_id":3673,"state_code":"JU","country_id":90,"country_code":"GT","latitude":"14.11667000","longitude":"-89.91667000"},{"id":"53473","name":"Conguaco","state_id":3673,"state_code":"JU","country_id":90,"country_code":"GT","latitude":"14.04417000","longitude":"-90.03111000"},{"id":"53480","name":"El Adelanto","state_id":3673,"state_code":"JU","country_id":90,"country_code":"GT","latitude":"14.16667000","longitude":"-89.83333000"},{"id":"53486","name":"El Progreso","state_id":3673,"state_code":"JU","country_id":90,"country_code":"GT","latitude":"14.35000000","longitude":"-89.85000000"},{"id":"53511","name":"Jalpatagua","state_id":3673,"state_code":"JU","country_id":90,"country_code":"GT","latitude":"14.14167000","longitude":"-90.00861000"},{"id":"53512","name":"Jerez","state_id":3673,"state_code":"JU","country_id":90,"country_code":"GT","latitude":"14.10000000","longitude":"-89.75000000"},{"id":"53516","name":"Jutiapa","state_id":3673,"state_code":"JU","country_id":90,"country_code":"GT","latitude":"14.29167000","longitude":"-89.89583000"},{"id":"53539","name":"Moyuta","state_id":3673,"state_code":"JU","country_id":90,"country_code":"GT","latitude":"14.03861000","longitude":"-90.08083000"},{"id":"53543","name":"Municipio de Asunci\u00f3n Mita","state_id":3673,"state_code":"JU","country_id":90,"country_code":"GT","latitude":"14.30330000","longitude":"-89.67623000"},{"id":"53622","name":"Pasaco","state_id":3673,"state_code":"JU","country_id":90,"country_code":"GT","latitude":"13.97722000","longitude":"-90.20639000"},{"id":"53637","name":"Quesada","state_id":3673,"state_code":"JU","country_id":90,"country_code":"GT","latitude":"14.27028000","longitude":"-90.04028000"},{"id":"53682","name":"San Jos\u00e9 Acatempa","state_id":3673,"state_code":"JU","country_id":90,"country_code":"GT","latitude":"14.26528000","longitude":"-90.12694000"},{"id":"53750","name":"Santa Catarina Mita","state_id":3673,"state_code":"JU","country_id":90,"country_code":"GT","latitude":"14.45000000","longitude":"-89.75000000"},{"id":"53801","name":"Yupiltepeque","state_id":3673,"state_code":"JU","country_id":90,"country_code":"GT","latitude":"14.20000000","longitude":"-89.78333000"},{"id":"53803","name":"Zapotitl\u00e1n","state_id":3673,"state_code":"JU","country_id":90,"country_code":"GT","latitude":"14.13333000","longitude":"-89.83333000"}]