[{"id":"53491","name":"Escuintla","state_id":3677,"state_code":"ES","country_id":90,"country_code":"GT","latitude":"14.30500000","longitude":"-90.78500000"},{"id":"53498","name":"Guanagazapa","state_id":3677,"state_code":"ES","country_id":90,"country_code":"GT","latitude":"14.22528000","longitude":"-90.64333000"},{"id":"53508","name":"Iztapa","state_id":3677,"state_code":"ES","country_id":90,"country_code":"GT","latitude":"13.93333000","longitude":"-90.70750000"},{"id":"53517","name":"La Democracia","state_id":3677,"state_code":"ES","country_id":90,"country_code":"GT","latitude":"14.23083000","longitude":"-90.94722000"},{"id":"53519","name":"La Gomera","state_id":3677,"state_code":"ES","country_id":90,"country_code":"GT","latitude":"14.08213000","longitude":"-91.05383000"},{"id":"53530","name":"Masagua","state_id":3677,"state_code":"ES","country_id":90,"country_code":"GT","latitude":"14.20306000","longitude":"-90.84806000"},{"id":"53605","name":"Nueva Concepci\u00f3n","state_id":3677,"state_code":"ES","country_id":90,"country_code":"GT","latitude":"14.20000000","longitude":"-91.30000000"},{"id":"53618","name":"Pal\u00edn","state_id":3677,"state_code":"ES","country_id":90,"country_code":"GT","latitude":"14.40358000","longitude":"-90.69659000"},{"id":"53635","name":"Puerto San Jos\u00e9","state_id":3677,"state_code":"ES","country_id":90,"country_code":"GT","latitude":"13.92740000","longitude":"-90.82166000"},{"id":"53740","name":"San Vicente Pacaya","state_id":3677,"state_code":"ES","country_id":90,"country_code":"GT","latitude":"14.41466000","longitude":"-90.63613000"},{"id":"53762","name":"Santa Luc\u00eda Cotzumalguapa","state_id":3677,"state_code":"ES","country_id":90,"country_code":"GT","latitude":"14.33505000","longitude":"-91.02339000"},{"id":"53781","name":"Siquinal\u00e1","state_id":3677,"state_code":"ES","country_id":90,"country_code":"GT","latitude":"14.30611000","longitude":"-90.96500000"},{"id":"53793","name":"Tiquisate","state_id":3677,"state_code":"ES","country_id":90,"country_code":"GT","latitude":"14.28356000","longitude":"-91.36063000"}]