[{"id":"76788","name":"Babura","state_id":288,"state_code":"JI","country_id":161,"country_code":"NG","latitude":"12.77256000","longitude":"9.01525000"},{"id":"76806","name":"Birnin Kudu","state_id":288,"state_code":"JI","country_id":161,"country_code":"NG","latitude":"11.45207000","longitude":"9.47856000"},{"id":"76807","name":"Birniwa","state_id":288,"state_code":"JI","country_id":161,"country_code":"NG","latitude":"12.79070000","longitude":"10.23614000"},{"id":"76848","name":"Dutse","state_id":288,"state_code":"JI","country_id":161,"country_code":"NG","latitude":"11.75618000","longitude":"9.33896000"},{"id":"76872","name":"Gagarawa","state_id":288,"state_code":"JI","country_id":161,"country_code":"NG","latitude":"12.40848000","longitude":"9.52881000"},{"id":"76892","name":"Gumel","state_id":288,"state_code":"JI","country_id":161,"country_code":"NG","latitude":"12.62690000","longitude":"9.38807000"},{"id":"76897","name":"Gwaram","state_id":288,"state_code":"JI","country_id":161,"country_code":"NG","latitude":"11.27727000","longitude":"9.88385000"},{"id":"76902","name":"Hadejia","state_id":288,"state_code":"JI","country_id":161,"country_code":"NG","latitude":"12.45347000","longitude":"10.04115000"},{"id":"76969","name":"Kafin Hausa","state_id":288,"state_code":"JI","country_id":161,"country_code":"NG","latitude":"12.23933000","longitude":"9.91105000"},{"id":"76981","name":"Kazaure","state_id":288,"state_code":"JI","country_id":161,"country_code":"NG","latitude":"12.64846000","longitude":"8.41178000"},{"id":"76985","name":"Kiyawa","state_id":288,"state_code":"JI","country_id":161,"country_code":"NG","latitude":"11.78442000","longitude":"9.60690000"},{"id":"77022","name":"Mallammaduri","state_id":288,"state_code":"JI","country_id":161,"country_code":"NG","latitude":"12.56427000","longitude":"9.95727000"},{"id":"77091","name":"Ringim","state_id":288,"state_code":"JI","country_id":161,"country_code":"NG","latitude":"12.15143000","longitude":"9.16216000"},{"id":"77097","name":"Samamiya","state_id":288,"state_code":"JI","country_id":161,"country_code":"NG","latitude":"11.34873000","longitude":"9.63989000"}]