[{"id":"76804","name":"Binji","state_id":292,"state_code":"SO","country_id":161,"country_code":"NG","latitude":"13.22294000","longitude":"4.90888000"},{"id":"76830","name":"Dange","state_id":292,"state_code":"SO","country_id":161,"country_code":"NG","latitude":"12.85313000","longitude":"5.34572000"},{"id":"76875","name":"Gandi","state_id":292,"state_code":"SO","country_id":161,"country_code":"NG","latitude":"12.96358000","longitude":"5.74337000"},{"id":"76889","name":"Goronyo","state_id":292,"state_code":"SO","country_id":161,"country_code":"NG","latitude":"13.44226000","longitude":"5.67234000"},{"id":"76895","name":"Gwadabawa","state_id":292,"state_code":"SO","country_id":161,"country_code":"NG","latitude":"13.35819000","longitude":"5.23812000"},{"id":"76943","name":"Illela","state_id":292,"state_code":"SO","country_id":161,"country_code":"NG","latitude":"13.73064000","longitude":"5.29777000"},{"id":"77090","name":"Rabah","state_id":292,"state_code":"SO","country_id":161,"country_code":"NG","latitude":"13.12257000","longitude":"5.50762000"},{"id":"77107","name":"Sokoto","state_id":292,"state_code":"SO","country_id":161,"country_code":"NG","latitude":"13.06269000","longitude":"5.24322000"},{"id":"77111","name":"Tambuwal","state_id":292,"state_code":"SO","country_id":161,"country_code":"NG","latitude":"12.40592000","longitude":"4.64605000"},{"id":"77137","name":"Wurno","state_id":292,"state_code":"SO","country_id":161,"country_code":"NG","latitude":"13.29048000","longitude":"5.42373000"}]