[{"id":"76858","name":"Eket","state_id":304,"state_code":"AK","country_id":161,"country_code":"NG","latitude":"4.64231000","longitude":"7.92438000"},{"id":"76865","name":"Esuk Oron","state_id":304,"state_code":"AK","country_id":161,"country_code":"NG","latitude":"4.80293000","longitude":"8.25341000"},{"id":"76937","name":"Ikot Ekpene","state_id":304,"state_code":"AK","country_id":161,"country_code":"NG","latitude":"5.18194000","longitude":"7.71481000"},{"id":"76955","name":"Itu","state_id":304,"state_code":"AK","country_id":161,"country_code":"NG","latitude":"5.20131000","longitude":"7.98373000"},{"id":"77129","name":"Uyo","state_id":304,"state_code":"AK","country_id":161,"country_code":"NG","latitude":"5.05127000","longitude":"7.93350000"}]