[{"id":"76752","name":"Ado-Ekiti","state_id":309,"state_code":"EK","country_id":161,"country_code":"NG","latitude":"7.62329000","longitude":"5.22087000"},{"id":"76777","name":"Aramoko-Ekiti","state_id":309,"state_code":"EK","country_id":161,"country_code":"NG","latitude":"7.70483000","longitude":"5.04054000"},{"id":"76853","name":"Efon-Alaaye","state_id":309,"state_code":"EK","country_id":161,"country_code":"NG","latitude":"7.65649000","longitude":"4.92235000"},{"id":"76860","name":"Emure-Ekiti","state_id":309,"state_code":"EK","country_id":161,"country_code":"NG","latitude":"7.43636000","longitude":"5.45925000"},{"id":"76913","name":"Ifaki","state_id":309,"state_code":"EK","country_id":161,"country_code":"NG","latitude":"7.78942000","longitude":"5.24852000"},{"id":"76917","name":"Igbara-Odo","state_id":309,"state_code":"EK","country_id":161,"country_code":"NG","latitude":"7.50251000","longitude":"5.06258000"},{"id":"76923","name":"Igede-Ekiti","state_id":309,"state_code":"EK","country_id":161,"country_code":"NG","latitude":"7.66850000","longitude":"5.12627000"},{"id":"76930","name":"Ijero-Ekiti","state_id":309,"state_code":"EK","country_id":161,"country_code":"NG","latitude":"7.81514000","longitude":"5.06716000"},{"id":"76934","name":"Ikere-Ekiti","state_id":309,"state_code":"EK","country_id":161,"country_code":"NG","latitude":"7.49748000","longitude":"5.23041000"},{"id":"76950","name":"Ipoti","state_id":309,"state_code":"EK","country_id":161,"country_code":"NG","latitude":"7.87377000","longitude":"5.07691000"},{"id":"76953","name":"Ise-Ekiti","state_id":309,"state_code":"EK","country_id":161,"country_code":"NG","latitude":"7.46478000","longitude":"5.42333000"},{"id":"77058","name":"Oke Ila","state_id":309,"state_code":"EK","country_id":161,"country_code":"NG","latitude":"7.95000000","longitude":"4.98333000"},{"id":"77066","name":"Omuo-Ekiti","state_id":309,"state_code":"EK","country_id":161,"country_code":"NG","latitude":"7.75833000","longitude":"5.72227000"}]