[{"id":"76763","name":"Akko","state_id":310,"state_code":"GO","country_id":161,"country_code":"NG","latitude":"10.28899000","longitude":"10.97320000"},{"id":"76794","name":"Bara","state_id":310,"state_code":"GO","country_id":161,"country_code":"NG","latitude":"10.37444000","longitude":"10.72884000"},{"id":"76802","name":"Billiri","state_id":310,"state_code":"GO","country_id":161,"country_code":"NG","latitude":"9.86545000","longitude":"11.22624000"},{"id":"76823","name":"Dadiya","state_id":310,"state_code":"GO","country_id":161,"country_code":"NG","latitude":"9.61667000","longitude":"11.43333000"},{"id":"76839","name":"Deba","state_id":310,"state_code":"GO","country_id":161,"country_code":"NG","latitude":"10.21187000","longitude":"11.38710000"},{"id":"76846","name":"Dukku","state_id":310,"state_code":"GO","country_id":161,"country_code":"NG","latitude":"10.82379000","longitude":"10.77221000"},{"id":"76877","name":"Garko","state_id":310,"state_code":"GO","country_id":161,"country_code":"NG","latitude":"10.17506000","longitude":"11.16458000"},{"id":"76884","name":"Gombe","state_id":310,"state_code":"GO","country_id":161,"country_code":"NG","latitude":"10.28969000","longitude":"11.16729000"},{"id":"76903","name":"Hinna","state_id":310,"state_code":"GO","country_id":161,"country_code":"NG","latitude":"10.30426000","longitude":"11.49905000"},{"id":"76968","name":"Kafarati","state_id":310,"state_code":"GO","country_id":161,"country_code":"NG","latitude":"10.38304000","longitude":"11.09567000"},{"id":"76973","name":"Kaltungo","state_id":310,"state_code":"GO","country_id":161,"country_code":"NG","latitude":"9.81998000","longitude":"11.30871000"},{"id":"76993","name":"Kumo","state_id":310,"state_code":"GO","country_id":161,"country_code":"NG","latitude":"10.04807000","longitude":"11.21055000"},{"id":"77037","name":"Nafada","state_id":310,"state_code":"GO","country_id":161,"country_code":"NG","latitude":"11.09596000","longitude":"11.33261000"},{"id":"77088","name":"Pindiga","state_id":310,"state_code":"GO","country_id":161,"country_code":"NG","latitude":"9.98433000","longitude":"10.95229000"}]