[{"id":"76748","name":"Abraka","state_id":316,"state_code":"DE","country_id":161,"country_code":"NG","latitude":"5.79023000","longitude":"6.10473000"},{"id":"76756","name":"Agbor","state_id":316,"state_code":"DE","country_id":161,"country_code":"NG","latitude":"6.25375000","longitude":"6.19420000"},{"id":"76780","name":"Asaba","state_id":316,"state_code":"DE","country_id":161,"country_code":"NG","latitude":"6.19824000","longitude":"6.73187000"},{"id":"76813","name":"Bomadi","state_id":316,"state_code":"DE","country_id":161,"country_code":"NG","latitude":"5.16073000","longitude":"5.92375000"},{"id":"76820","name":"Burutu","state_id":316,"state_code":"DE","country_id":161,"country_code":"NG","latitude":"5.35328000","longitude":"5.50826000"},{"id":"76996","name":"Kwale","state_id":316,"state_code":"DE","country_id":161,"country_code":"NG","latitude":"5.70773000","longitude":"6.43402000"},{"id":"77047","name":"Obiaruku","state_id":316,"state_code":"DE","country_id":161,"country_code":"NG","latitude":"5.84672000","longitude":"6.15290000"},{"id":"77056","name":"Ogwashi-Uku","state_id":316,"state_code":"DE","country_id":161,"country_code":"NG","latitude":"6.17811000","longitude":"6.52461000"},{"id":"77071","name":"Orerokpe","state_id":316,"state_code":"DE","country_id":161,"country_code":"NG","latitude":"5.63747000","longitude":"5.89013000"},{"id":"77086","name":"Patani","state_id":316,"state_code":"DE","country_id":161,"country_code":"NG","latitude":"5.22885000","longitude":"6.19139000"},{"id":"77099","name":"Sapele","state_id":316,"state_code":"DE","country_id":161,"country_code":"NG","latitude":"5.89405000","longitude":"5.67666000"},{"id":"77123","name":"Ughelli","state_id":316,"state_code":"DE","country_id":161,"country_code":"NG","latitude":"5.48956000","longitude":"6.00407000"},{"id":"77126","name":"Umunede","state_id":316,"state_code":"DE","country_id":161,"country_code":"NG","latitude":"6.26549000","longitude":"6.30962000"},{"id":"77133","name":"Warri","state_id":316,"state_code":"DE","country_id":161,"country_code":"NG","latitude":"5.51737000","longitude":"5.75006000"}]