[{"id":"76792","name":"Baissa","state_id":319,"state_code":"TA","country_id":161,"country_code":"NG","latitude":"7.23087000","longitude":"10.62444000"},{"id":"76797","name":"Beli","state_id":319,"state_code":"TA","country_id":161,"country_code":"NG","latitude":"7.85868000","longitude":"10.97187000"},{"id":"76879","name":"Gassol","state_id":319,"state_code":"TA","country_id":161,"country_code":"NG","latitude":"8.53535000","longitude":"10.44615000"},{"id":"76883","name":"Gembu","state_id":319,"state_code":"TA","country_id":161,"country_code":"NG","latitude":"6.72556000","longitude":"11.25652000"},{"id":"76908","name":"Ibi","state_id":319,"state_code":"TA","country_id":161,"country_code":"NG","latitude":"8.18122000","longitude":"9.74431000"},{"id":"76957","name":"Jalingo","state_id":319,"state_code":"TA","country_id":161,"country_code":"NG","latitude":"8.89367000","longitude":"11.35960000"},{"id":"77008","name":"Lau","state_id":319,"state_code":"TA","country_id":161,"country_code":"NG","latitude":"9.20827000","longitude":"11.27541000"},{"id":"77036","name":"Mutum Biyu","state_id":319,"state_code":"TA","country_id":161,"country_code":"NG","latitude":"8.64138000","longitude":"10.77355000"},{"id":"77092","name":"Riti","state_id":319,"state_code":"TA","country_id":161,"country_code":"NG","latitude":"7.90844000","longitude":"9.61688000"},{"id":"77136","name":"Wukari","state_id":319,"state_code":"TA","country_id":161,"country_code":"NG","latitude":"7.87139000","longitude":"9.77786000"}]