[{"id":"18973","name":"Coquimbo","state_id":2825,"state_code":"CO","country_id":44,"country_code":"CL","latitude":"-29.95332000","longitude":"-71.33947000"},{"id":"18988","name":"Illapel","state_id":2825,"state_code":"CO","country_id":44,"country_code":"CL","latitude":"-31.63349000","longitude":"-71.16967000"},{"id":"18994","name":"La Serena","state_id":2825,"state_code":"CO","country_id":44,"country_code":"CL","latitude":"-29.90453000","longitude":"-71.24894000"},{"id":"19014","name":"Monte Patria","state_id":2825,"state_code":"CO","country_id":44,"country_code":"CL","latitude":"-30.69496000","longitude":"-70.95770000"},{"id":"19019","name":"Ovalle","state_id":2825,"state_code":"CO","country_id":44,"country_code":"CL","latitude":"-30.60106000","longitude":"-71.19901000"},{"id":"19044","name":"Provincia de Choapa","state_id":2825,"state_code":"CO","country_id":44,"country_code":"CL","latitude":"-31.71090000","longitude":"-70.99263000"},{"id":"19052","name":"Provincia de Elqui","state_id":2825,"state_code":"CO","country_id":44,"country_code":"CL","latitude":"-29.73588000","longitude":"-70.64455000"},{"id":"19056","name":"Provincia de Limar\u00ed","state_id":2825,"state_code":"CO","country_id":44,"country_code":"CL","latitude":"-30.75000000","longitude":"-71.00000000"},{"id":"19099","name":"Salamanca","state_id":2825,"state_code":"CO","country_id":44,"country_code":"CL","latitude":"-31.77922000","longitude":"-70.96389000"},{"id":"19125","name":"Vicu\u00f1a","state_id":2825,"state_code":"CO","country_id":44,"country_code":"CL","latitude":"-30.03541000","longitude":"-70.71274000"}]