[{"id":"18947","name":"Arauco","state_id":2827,"state_code":"BI","country_id":44,"country_code":"CL","latitude":"-37.24630000","longitude":"-73.31752000"},{"id":"18958","name":"Ca\u00f1ete","state_id":2827,"state_code":"BI","country_id":44,"country_code":"CL","latitude":"-37.80128000","longitude":"-73.39616000"},{"id":"18951","name":"Cabrero","state_id":2827,"state_code":"BI","country_id":44,"country_code":"CL","latitude":"-37.03394000","longitude":"-72.40468000"},{"id":"18961","name":"Chiguayante","state_id":2827,"state_code":"BI","country_id":44,"country_code":"CL","latitude":"-36.92560000","longitude":"-73.02841000"},{"id":"18970","name":"Concepci\u00f3n","state_id":2827,"state_code":"BI","country_id":44,"country_code":"CL","latitude":"-36.82699000","longitude":"-73.04977000"},{"id":"18974","name":"Coronel","state_id":2827,"state_code":"BI","country_id":44,"country_code":"CL","latitude":"-37.03386000","longitude":"-73.14019000"},{"id":"18977","name":"Curanilahue","state_id":2827,"state_code":"BI","country_id":44,"country_code":"CL","latitude":"-37.47793000","longitude":"-73.34495000"},{"id":"18996","name":"Laja","state_id":2827,"state_code":"BI","country_id":44,"country_code":"CL","latitude":"-37.28415000","longitude":"-72.71105000"},{"id":"19001","name":"Lebu","state_id":2827,"state_code":"BI","country_id":44,"country_code":"CL","latitude":"-37.60825000","longitude":"-73.65356000"},{"id":"19009","name":"Los \u00c1ngeles","state_id":2827,"state_code":"BI","country_id":44,"country_code":"CL","latitude":"-37.46973000","longitude":"-72.35366000"},{"id":"19010","name":"Lota","state_id":2827,"state_code":"BI","country_id":44,"country_code":"CL","latitude":"-37.08994000","longitude":"-73.15770000"},{"id":"19015","name":"Mulch\u00e9n","state_id":2827,"state_code":"BI","country_id":44,"country_code":"CL","latitude":"-37.71893000","longitude":"-72.24099000"},{"id":"19016","name":"Nacimiento","state_id":2827,"state_code":"BI","country_id":44,"country_code":"CL","latitude":"-37.50253000","longitude":"-72.67307000"},{"id":"19024","name":"Penco","state_id":2827,"state_code":"BI","country_id":44,"country_code":"CL","latitude":"-36.74075000","longitude":"-72.99528000"},{"id":"19034","name":"Provincia de Arauco","state_id":2827,"state_code":"BI","country_id":44,"country_code":"CL","latitude":"-37.74174000","longitude":"-73.35799000"},{"id":"19036","name":"Provincia de Biob\u00edo","state_id":2827,"state_code":"BI","country_id":44,"country_code":"CL","latitude":"-37.59511000","longitude":"-71.89553000"},{"id":"19046","name":"Provincia de Concepci\u00f3n","state_id":2827,"state_code":"BI","country_id":44,"country_code":"CL","latitude":"-36.95773000","longitude":"-72.89674000"},{"id":"19114","name":"Talcahuano","state_id":2827,"state_code":"BI","country_id":44,"country_code":"CL","latitude":"-36.72494000","longitude":"-73.11684000"},{"id":"19119","name":"Tom\u00e9","state_id":2827,"state_code":"BI","country_id":44,"country_code":"CL","latitude":"-36.61756000","longitude":"-72.95593000"},{"id":"19131","name":"Yumbel","state_id":2827,"state_code":"BI","country_id":44,"country_code":"CL","latitude":"-37.09820000","longitude":"-72.56084000"}]