[{"id":"18946","name":"Antofagasta","state_id":2832,"state_code":"AN","country_id":44,"country_code":"CL","latitude":"-23.65236000","longitude":"-70.39540000"},{"id":"18952","name":"Calama","state_id":2832,"state_code":"AN","country_id":44,"country_code":"CL","latitude":"-22.45667000","longitude":"-68.92371000"},{"id":"19033","name":"Provincia de Antofagasta","state_id":2832,"state_code":"AN","country_id":44,"country_code":"CL","latitude":"-24.31122000","longitude":"-69.57084000"},{"id":"19051","name":"Provincia de El Loa","state_id":2832,"state_code":"AN","country_id":44,"country_code":"CL","latitude":"-22.96764000","longitude":"-68.18716000"},{"id":"19074","name":"Provincia de Tocopilla","state_id":2832,"state_code":"AN","country_id":44,"country_code":"CL","latitude":"-22.02949000","longitude":"-69.64006000"},{"id":"19107","name":"San Pedro de Atacama","state_id":2832,"state_code":"AN","country_id":44,"country_code":"CL","latitude":"-22.91110000","longitude":"-68.20113000"},{"id":"19115","name":"Taltal","state_id":2832,"state_code":"AN","country_id":44,"country_code":"CL","latitude":"-25.40713000","longitude":"-70.48554000"},{"id":"19118","name":"Tocopilla","state_id":2832,"state_code":"AN","country_id":44,"country_code":"CL","latitude":"-22.09198000","longitude":"-70.19792000"}]