[{"id":"18979","name":"C\u00e1meron","state_id":2836,"state_code":"MA","country_id":44,"country_code":"CL","latitude":"-53.63988000","longitude":"-69.64693000"},{"id":"19028","name":"Porvenir","state_id":2836,"state_code":"MA","country_id":44,"country_code":"CL","latitude":"-53.29600000","longitude":"-70.36629000"},{"id":"19029","name":"Provincia Ant\u00e1rtica Chilena","state_id":2836,"state_code":"MA","country_id":44,"country_code":"CL","latitude":"-55.02250000","longitude":"-69.22781000"},{"id":"19077","name":"Provincia de \u00daltima Esperanza","state_id":2836,"state_code":"MA","country_id":44,"country_code":"CL","latitude":"-50.75000000","longitude":"-74.00000000"},{"id":"19060","name":"Provincia de Magallanes","state_id":2836,"state_code":"MA","country_id":44,"country_code":"CL","latitude":"-52.91667000","longitude":"-71.08333000"},{"id":"19073","name":"Provincia de Tierra del Fuego","state_id":2836,"state_code":"MA","country_id":44,"country_code":"CL","latitude":"-53.66083000","longitude":"-69.45173000"},{"id":"19086","name":"Puerto Natales","state_id":2836,"state_code":"MA","country_id":44,"country_code":"CL","latitude":"-51.72987000","longitude":"-72.50603000"},{"id":"19088","name":"Punta Arenas","state_id":2836,"state_code":"MA","country_id":44,"country_code":"CL","latitude":"-53.15483000","longitude":"-70.91129000"}]