[{"id":"17229","name":"Boende","state_id":2732,"state_code":"TU","country_id":51,"country_code":"CD","latitude":"-0.28163000","longitude":"20.88053000"},{"id":"17251","name":"Kabalo","state_id":2733,"state_code":"TA","country_id":51,"country_code":"CD","latitude":"-6.05255000","longitude":"26.91430000"},{"id":"17254","name":"Kalemie","state_id":2733,"state_code":"TA","country_id":51,"country_code":"CD","latitude":"-5.94749000","longitude":"29.19471000"},{"id":"17266","name":"Kongolo","state_id":2733,"state_code":"TA","country_id":51,"country_code":"CD","latitude":"-5.38532000","longitude":"27.00029000"},{"id":"17250","name":"Isiro","state_id":2734,"state_code":"HU","country_id":51,"country_code":"CD","latitude":"2.77391000","longitude":"27.61603000"},{"id":"17291","name":"Wamba","state_id":2734,"state_code":"HU","country_id":51,"country_code":"CD","latitude":"2.14838000","longitude":"27.99466000"},{"id":"17292","name":"Watsa","state_id":2734,"state_code":"HU","country_id":51,"country_code":"CD","latitude":"3.03716000","longitude":"29.53551000"},{"id":"17243","name":"Gandajika","state_id":2735,"state_code":"KE","country_id":51,"country_code":"CD","latitude":"-6.74504000","longitude":"23.95328000"},{"id":"17253","name":"Kabinda","state_id":2735,"state_code":"KE","country_id":51,"country_code":"CD","latitude":"-6.13791000","longitude":"24.48179000"},{"id":"17281","name":"Mbuji-Mayi","state_id":2735,"state_code":"KE","country_id":51,"country_code":"CD","latitude":"-6.13603000","longitude":"23.58979000"},{"id":"17236","name":"Bukavu","state_id":2738,"state_code":"SK","country_id":51,"country_code":"CD","latitude":"-2.49077000","longitude":"28.84281000"},{"id":"17252","name":"Kabare","state_id":2738,"state_code":"SK","country_id":51,"country_code":"CD","latitude":"-2.49682000","longitude":"28.79081000"},{"id":"17290","name":"Uvira","state_id":2738,"state_code":"SK","country_id":51,"country_code":"CD","latitude":"-3.39534000","longitude":"29.13779000"},{"id":"17234","name":"Bosobolo","state_id":2739,"state_code":"NU","country_id":51,"country_code":"CD","latitude":"4.18980000","longitude":"19.88330000"},{"id":"17240","name":"Businga","state_id":2739,"state_code":"NU","country_id":51,"country_code":"CD","latitude":"3.33863000","longitude":"20.88577000"},{"id":"17244","name":"Gbadolite","state_id":2739,"state_code":"NU","country_id":51,"country_code":"CD","latitude":"4.27900000","longitude":"21.00284000"},{"id":"17260","name":"Kasongo-Lunda","state_id":2740,"state_code":"KG","country_id":51,"country_code":"CD","latitude":"-6.47833000","longitude":"16.81735000"},{"id":"17263","name":"Kinshasa","state_id":2741,"state_code":"KN","country_id":51,"country_code":"CD","latitude":"-4.32758000","longitude":"15.31357000"},{"id":"17277","name":"Masina","state_id":2741,"state_code":"KN","country_id":51,"country_code":"CD","latitude":"-4.38361000","longitude":"15.39139000"},{"id":"17270","name":"Lodja","state_id":2743,"state_code":"SA","country_id":51,"country_code":"CD","latitude":"-3.52105000","longitude":"23.60050000"},{"id":"17275","name":"Lusambo","state_id":2743,"state_code":"SA","country_id":51,"country_code":"CD","latitude":"-4.97503000","longitude":"23.44391000"},{"id":"17245","name":"Gemena","state_id":2744,"state_code":"EQ","country_id":51,"country_code":"CD","latitude":"3.25651000","longitude":"19.77234000"},{"id":"17269","name":"Lisala","state_id":2744,"state_code":"EQ","country_id":51,"country_code":"CD","latitude":"2.15127000","longitude":"21.51672000"},{"id":"17274","name":"Lukolela","state_id":2744,"state_code":"EQ","country_id":51,"country_code":"CD","latitude":"-1.06046000","longitude":"17.18210000"},{"id":"17279","name":"Mbandaka","state_id":2744,"state_code":"EQ","country_id":51,"country_code":"CD","latitude":"0.04865000","longitude":"18.26034000"},{"id":"17257","name":"Kampene","state_id":2745,"state_code":"MA","country_id":51,"country_code":"CD","latitude":"-3.59678000","longitude":"26.66715000"},{"id":"17259","name":"Kasongo","state_id":2745,"state_code":"MA","country_id":51,"country_code":"CD","latitude":"-4.42741000","longitude":"26.66656000"},{"id":"17262","name":"Kindu","state_id":2745,"state_code":"MA","country_id":51,"country_code":"CD","latitude":"-2.94373000","longitude":"25.92237000"},{"id":"17231","name":"Boma","state_id":2746,"state_code":"BC","country_id":51,"country_code":"CD","latitude":"-5.85098000","longitude":"13.05364000"},{"id":"17258","name":"Kasangulu","state_id":2746,"state_code":"BC","country_id":51,"country_code":"CD","latitude":"-4.58330000","longitude":"15.16554000"},{"id":"17278","name":"Matadi","state_id":2746,"state_code":"BC","country_id":51,"country_code":"CD","latitude":"-5.83861000","longitude":"13.46306000"},{"id":"17280","name":"Mbanza-Ngungu","state_id":2746,"state_code":"BC","country_id":51,"country_code":"CD","latitude":"-5.25837000","longitude":"14.85838000"},{"id":"17282","name":"Moanda","state_id":2746,"state_code":"BC","country_id":51,"country_code":"CD","latitude":"-5.92753000","longitude":"12.37148000"},{"id":"17288","name":"Tshela","state_id":2746,"state_code":"BC","country_id":51,"country_code":"CD","latitude":"-4.99707000","longitude":"12.94840000"},{"id":"17271","name":"Lubao","state_id":2747,"state_code":"LO","country_id":51,"country_code":"CD","latitude":"-5.38771000","longitude":"25.74885000"},{"id":"17285","name":"Mwene-Ditu","state_id":2747,"state_code":"LO","country_id":51,"country_code":"CD","latitude":"-7.00906000","longitude":"23.45278000"},{"id":"17233","name":"Bongandanga","state_id":2748,"state_code":"SU","country_id":51,"country_code":"CD","latitude":"1.50695000","longitude":"21.07260000"},{"id":"17267","name":"Libenge","state_id":2748,"state_code":"SU","country_id":51,"country_code":"CD","latitude":"3.65332000","longitude":"18.63566000"},{"id":"17228","name":"Beni","state_id":2749,"state_code":"NK","country_id":51,"country_code":"CD","latitude":"0.49113000","longitude":"29.47306000"},{"id":"17242","name":"Butembo","state_id":2749,"state_code":"NK","country_id":51,"country_code":"CD","latitude":"0.14164000","longitude":"29.29117000"},{"id":"17246","name":"Goma","state_id":2749,"state_code":"NK","country_id":51,"country_code":"CD","latitude":"-1.67409000","longitude":"29.22845000"},{"id":"17287","name":"Sake","state_id":2749,"state_code":"NK","country_id":51,"country_code":"CD","latitude":"-1.57386000","longitude":"29.04339000"},{"id":"17247","name":"Haut Katanga","state_id":2750,"state_code":"HK","country_id":51,"country_code":"CD","latitude":"-10.46044000","longitude":"27.94322000"},{"id":"17255","name":"Kambove","state_id":2750,"state_code":"HK","country_id":51,"country_code":"CD","latitude":"-10.87352000","longitude":"26.59746000"},{"id":"17264","name":"Kipushi","state_id":2750,"state_code":"HK","country_id":51,"country_code":"CD","latitude":"-11.76097000","longitude":"27.25135000"},{"id":"17268","name":"Likasi","state_id":2750,"state_code":"HK","country_id":51,"country_code":"CD","latitude":"-10.98303000","longitude":"26.73840000"},{"id":"17272","name":"Lubumbashi","state_id":2750,"state_code":"HK","country_id":51,"country_code":"CD","latitude":"-11.66089000","longitude":"27.47938000"},{"id":"17239","name":"Bunia","state_id":2751,"state_code":"IT","country_id":51,"country_code":"CD","latitude":"1.55941000","longitude":"30.25224000"},{"id":"17238","name":"Bumba","state_id":2752,"state_code":"MO","country_id":51,"country_code":"CD","latitude":"2.18771000","longitude":"22.46827000"},{"id":"17225","name":"Aketi","state_id":2753,"state_code":"BU","country_id":51,"country_code":"CD","latitude":"2.73877000","longitude":"23.78326000"},{"id":"17232","name":"Bondo","state_id":2753,"state_code":"BU","country_id":51,"country_code":"CD","latitude":"3.81461000","longitude":"23.68665000"},{"id":"17241","name":"Buta","state_id":2753,"state_code":"BU","country_id":51,"country_code":"CD","latitude":"2.78582000","longitude":"24.72997000"},{"id":"17230","name":"Bolobo","state_id":2755,"state_code":"MN","country_id":51,"country_code":"CD","latitude":"-2.15800000","longitude":"16.23249000"},{"id":"17249","name":"Inongo","state_id":2755,"state_code":"MN","country_id":51,"country_code":"CD","latitude":"-1.92750000","longitude":"18.28810000"},{"id":"17283","name":"Mushie","state_id":2755,"state_code":"MN","country_id":51,"country_code":"CD","latitude":"-3.01728000","longitude":"16.92238000"},{"id":"17286","name":"Nioki","state_id":2755,"state_code":"MN","country_id":51,"country_code":"CD","latitude":"-2.72037000","longitude":"17.69001000"},{"id":"17227","name":"Basoko","state_id":2756,"state_code":"TO","country_id":51,"country_code":"CD","latitude":"1.23909000","longitude":"23.61598000"},{"id":"17265","name":"Kisangani","state_id":2756,"state_code":"TO","country_id":51,"country_code":"CD","latitude":"0.51528000","longitude":"25.19099000"},{"id":"17293","name":"Yangambi","state_id":2756,"state_code":"TO","country_id":51,"country_code":"CD","latitude":"0.76755000","longitude":"24.43973000"},{"id":"17248","name":"Ilebo","state_id":2757,"state_code":"KS","country_id":51,"country_code":"CD","latitude":"-4.33111000","longitude":"20.58638000"},{"id":"17273","name":"Luebo","state_id":2757,"state_code":"KS","country_id":51,"country_code":"CD","latitude":"-5.35218000","longitude":"21.42192000"},{"id":"17284","name":"Mweka","state_id":2757,"state_code":"KS","country_id":51,"country_code":"CD","latitude":"-4.85187000","longitude":"21.55950000"},{"id":"17289","name":"Tshikapa","state_id":2757,"state_code":"KS","country_id":51,"country_code":"CD","latitude":"-6.41621000","longitude":"20.79995000"},{"id":"17235","name":"Bukama","state_id":2758,"state_code":"HL","country_id":51,"country_code":"CD","latitude":"-9.20443000","longitude":"25.85475000"},{"id":"17256","name":"Kamina","state_id":2758,"state_code":"HL","country_id":51,"country_code":"CD","latitude":"-8.73508000","longitude":"24.99798000"},{"id":"17226","name":"Bandundu","state_id":2759,"state_code":"KL","country_id":51,"country_code":"CD","latitude":"-3.31687000","longitude":"17.38063000"},{"id":"17237","name":"Bulungu","state_id":2759,"state_code":"KL","country_id":51,"country_code":"CD","latitude":"-4.54437000","longitude":"18.60364000"},{"id":"17261","name":"Kikwit","state_id":2759,"state_code":"KL","country_id":51,"country_code":"CD","latitude":"-5.04098000","longitude":"18.81619000"},{"id":"17276","name":"Mangai","state_id":2759,"state_code":"KL","country_id":51,"country_code":"CD","latitude":"-4.02328000","longitude":"19.53385000"}]