[{"id":"48133","name":"Franceville","state_id":2726,"state_code":"2","country_id":79,"country_code":"GA","latitude":"-1.63333000","longitude":"13.58357000"},{"id":"48139","name":"L\u00e9koni","state_id":2726,"state_code":"2","country_id":79,"country_code":"GA","latitude":"-1.58431000","longitude":"14.25905000"},{"id":"48145","name":"Moanda","state_id":2726,"state_code":"2","country_id":79,"country_code":"GA","latitude":"-1.56652000","longitude":"13.19870000"},{"id":"48147","name":"Mounana","state_id":2726,"state_code":"2","country_id":79,"country_code":"GA","latitude":"-1.40850000","longitude":"13.15857000"},{"id":"48151","name":"Okondja","state_id":2726,"state_code":"2","country_id":79,"country_code":"GA","latitude":"-0.65487000","longitude":"13.67533000"}]