[{"id":"110981","name":"Abernathy","state_id":1407,"state_code":"TX","country_id":233,"country_code":"US","latitude":"33.83230000","longitude":"-101.84295000"},{"id":"110983","name":"Abilene","state_id":1407,"state_code":"TX","country_id":233,"country_code":"US","latitude":"32.44874000","longitude":"-99.73314000"},{"id":"110988","name":"Abram","state_id":1407,"state_code":"TX","country_id":233,"country_code":"US","latitude":"26.19980000","longitude":"-98.41113000"},{"id":"111034","name":"Addison","state_id":1407,"state_code":"TX","country_id":233,"country_code":"US","latitude":"32.96179000","longitude":"-96.82917000"},{"id":"111059","name":"Agua Dulce","state_id":1407,"state_code":"TX","country_id":233,"country_code":"US","latitude":"31.65511000","longitude":"-106.13887000"},{"id":"111092","name":"Alamo","state_id":1407,"state_code":"TX","country_id":233,"country_code":"US","latitude":"26.18369000","longitude":"-98.12306000"},{"id":"111096","name":"Alamo Heights","state_id":1407,"state_code":"TX","country_id":233,"country_code":"US","latitude":"29.48495000","longitude":"-98.46585000"},{"id":"111104","name":"Albany","state_id":1407,"state_code":"TX","country_id":233,"country_code":"US","latitude":"32.72345000","longitude":"-99.29730000"},{"id":"111140","name":"Aldine","state_id":1407,"state_code":"TX","country_id":233,"country_code":"US","latitude":"29.93245000","longitude":"-95.38021000"},{"id":"111141","name":"Aledo","state_id":1407,"state_code":"TX","country_id":233,"country_code":"US","latitude":"32.69596000","longitude":"-97.60225000"},{"id":"111171","name":"Alice","state_id":1407,"state_code":"TX","country_id":233,"country_code":"US","latitude":"27.75225000","longitude":"-98.06972000"},{"id":"111173","name":"Alief","state_id":1407,"state_code":"TX","country_id":233,"country_code":"US","latitude":"29.71106000","longitude":"-95.59633000"},{"id":"111187","name":"Allen","state_id":1407,"state_code":"TX","country_id":233,"country_code":"US","latitude":"33.10317000","longitude":"-96.67055000"},{"id":"111224","name":"Alpine","state_id":1407,"state_code":"TX","country_id":233,"country_code":"US","latitude":"30.35862000","longitude":"-103.66206000"},{"id":"111240","name":"Alto","state_id":1407,"state_code":"TX","country_id":233,"country_code":"US","latitude":"31.65045000","longitude":"-95.07272000"},{"id":"111244","name":"Alton","state_id":1407,"state_code":"TX","country_id":233,"country_code":"US","latitude":"26.28729000","longitude":"-98.31335000"},{"id":"111246","name":"Alton North (historical)","state_id":1407,"state_code":"TX","country_id":233,"country_code":"US","latitude":"26.29535000","longitude":"-98.30446000"},{"id":"111257","name":"Alvarado","state_id":1407,"state_code":"TX","country_id":233,"country_code":"US","latitude":"32.40653000","longitude":"-97.21168000"},{"id":"111258","name":"Alvin","state_id":1407,"state_code":"TX","country_id":233,"country_code":"US","latitude":"29.42385000","longitude":"-95.24410000"},{"id":"111259","name":"Alvord","state_id":1407,"state_code":"TX","country_id":233,"country_code":"US","latitude":"33.35845000","longitude":"-97.69475000"},{"id":"111263","name":"Amarillo","state_id":1407,"state_code":"TX","country_id":233,"country_code":"US","latitude":"35.22200000","longitude":"-101.83130000"},{"id":"111276","name":"Ames","state_id":1407,"state_code":"TX","country_id":233,"country_code":"US","latitude":"30.05383000","longitude":"-94.74353000"},{"id":"111301","name":"Anahuac","state_id":1407,"state_code":"TX","country_id":233,"country_code":"US","latitude":"29.77300000","longitude":"-94.68270000"},{"id":"111312","name":"Anderson","state_id":1407,"state_code":"TX","country_id":233,"country_code":"US","latitude":"30.48715000","longitude":"-95.98690000"},{"id":"111319","name":"Anderson County","state_id":1407,"state_code":"TX","country_id":233,"country_code":"US","latitude":"31.81333000","longitude":"-95.65255000"},{"id":"111320","name":"Anderson Mill","state_id":1407,"state_code":"TX","country_id":233,"country_code":"US","latitude":"30.45492000","longitude":"-97.80584000"},{"id":"111331","name":"Andrews","state_id":1407,"state_code":"TX","country_id":233,"country_code":"US","latitude":"32.31872000","longitude":"-102.54572000"},{"id":"111333","name":"Andrews County","state_id":1407,"state_code":"TX","country_id":233,"country_code":"US","latitude":"32.30503000","longitude":"-102.63781000"},{"id":"111336","name":"Angelina County","state_id":1407,"state_code":"TX","country_id":233,"country_code":"US","latitude":"31.25476000","longitude":"-94.61185000"},{"id":"111339","name":"Angleton","state_id":1407,"state_code":"TX","country_id":233,"country_code":"US","latitude":"29.16941000","longitude":"-95.43188000"},{"id":"111347","name":"Anna","state_id":1407,"state_code":"TX","country_id":233,"country_code":"US","latitude":"33.34900000","longitude":"-96.54860000"},{"id":"111354","name":"Annetta","state_id":1407,"state_code":"TX","country_id":233,"country_code":"US","latitude":"32.70930000","longitude":"-97.67614000"},{"id":"111360","name":"Anson","state_id":1407,"state_code":"TX","country_id":233,"country_code":"US","latitude":"32.75650000","longitude":"-99.89621000"},{"id":"111370","name":"Anthony","state_id":1407,"state_code":"TX","country_id":233,"country_code":"US","latitude":"31.99927000","longitude":"-106.60555000"},{"id":"111375","name":"Anton","state_id":1407,"state_code":"TX","country_id":233,"country_code":"US","latitude":"33.81120000","longitude":"-102.16379000"},{"id":"111410","name":"Aransas County","state_id":1407,"state_code":"TX","country_id":233,"country_code":"US","latitude":"28.01501000","longitude":"-97.07382000"},{"id":"111411","name":"Aransas Pass","state_id":1407,"state_code":"TX","country_id":233,"country_code":"US","latitude":"27.90947000","longitude":"-97.14999000"},{"id":"111430","name":"Archer City","state_id":1407,"state_code":"TX","country_id":233,"country_code":"US","latitude":"33.59566000","longitude":"-98.62561000"},{"id":"111431","name":"Archer County","state_id":1407,"state_code":"TX","country_id":233,"country_code":"US","latitude":"33.61525000","longitude":"-98.68765000"},{"id":"111437","name":"Arcola","state_id":1407,"state_code":"TX","country_id":233,"country_code":"US","latitude":"29.49607000","longitude":"-95.46578000"},{"id":"111450","name":"Argyle","state_id":1407,"state_code":"TX","country_id":233,"country_code":"US","latitude":"33.12123000","longitude":"-97.18335000"},{"id":"111464","name":"Arlington","state_id":1407,"state_code":"TX","country_id":233,"country_code":"US","latitude":"32.73569000","longitude":"-97.10807000"},{"id":"111481","name":"Armstrong County","state_id":1407,"state_code":"TX","country_id":233,"country_code":"US","latitude":"34.96493000","longitude":"-101.35740000"},{"id":"111521","name":"Asherton","state_id":1407,"state_code":"TX","country_id":233,"country_code":"US","latitude":"28.44193000","longitude":"-99.76033000"},{"id":"111554","name":"Aspermont","state_id":1407,"state_code":"TX","country_id":233,"country_code":"US","latitude":"33.13343000","longitude":"-100.22733000"},{"id":"111565","name":"Atascocita","state_id":1407,"state_code":"TX","country_id":233,"country_code":"US","latitude":"29.99883000","longitude":"-95.17660000"},{"id":"111566","name":"Atascosa County","state_id":1407,"state_code":"TX","country_id":233,"country_code":"US","latitude":"28.89352000","longitude":"-98.52713000"},{"id":"111576","name":"Athens","state_id":1407,"state_code":"TX","country_id":233,"country_code":"US","latitude":"32.20487000","longitude":"-95.85552000"},{"id":"111591","name":"Atlanta","state_id":1407,"state_code":"TX","country_id":233,"country_code":"US","latitude":"33.11374000","longitude":"-94.16435000"},{"id":"111618","name":"Aubrey","state_id":1407,"state_code":"TX","country_id":233,"country_code":"US","latitude":"33.30428000","longitude":"-96.98612000"},{"id":"111658","name":"Aurora","state_id":1407,"state_code":"TX","country_id":233,"country_code":"US","latitude":"33.06068000","longitude":"-97.50336000"},{"id":"111668","name":"Austin","state_id":1407,"state_code":"TX","country_id":233,"country_code":"US","latitude":"30.26715000","longitude":"-97.74306000"},{"id":"111670","name":"Austin County","state_id":1407,"state_code":"TX","country_id":233,"country_code":"US","latitude":"29.88702000","longitude":"-96.27791000"},{"id":"111710","name":"Azle","state_id":1407,"state_code":"TX","country_id":233,"country_code":"US","latitude":"32.89513000","longitude":"-97.54586000"},{"id":"111719","name":"Bacliff","state_id":1407,"state_code":"TX","country_id":233,"country_code":"US","latitude":"29.50690000","longitude":"-94.99243000"},{"id":"111730","name":"Bailey County","state_id":1407,"state_code":"TX","country_id":233,"country_code":"US","latitude":"34.06852000","longitude":"-102.82987000"},{"id":"111736","name":"Baird","state_id":1407,"state_code":"TX","country_id":233,"country_code":"US","latitude":"32.39402000","longitude":"-99.39424000"},{"id":"111749","name":"Balch Springs","state_id":1407,"state_code":"TX","country_id":233,"country_code":"US","latitude":"32.72874000","longitude":"-96.62277000"},{"id":"111750","name":"Balcones Heights","state_id":1407,"state_code":"TX","country_id":233,"country_code":"US","latitude":"29.48801000","longitude":"-98.55169000"},{"id":"111773","name":"Ballinger","state_id":1407,"state_code":"TX","country_id":233,"country_code":"US","latitude":"31.73821000","longitude":"-99.94731000"},{"id":"111788","name":"Bandera","state_id":1407,"state_code":"TX","country_id":233,"country_code":"US","latitude":"29.72661000","longitude":"-99.07365000"},{"id":"111789","name":"Bandera County","state_id":1407,"state_code":"TX","country_id":233,"country_code":"US","latitude":"29.74721000","longitude":"-99.24624000"},{"id":"111796","name":"Bangs","state_id":1407,"state_code":"TX","country_id":233,"country_code":"US","latitude":"31.71710000","longitude":"-99.13255000"},{"id":"111844","name":"Barrett","state_id":1407,"state_code":"TX","country_id":233,"country_code":"US","latitude":"29.87995000","longitude":"-95.06298000"},{"id":"111862","name":"Bartlett","state_id":1407,"state_code":"TX","country_id":233,"country_code":"US","latitude":"30.79491000","longitude":"-97.42556000"},{"id":"111868","name":"Barton Creek","state_id":1407,"state_code":"TX","country_id":233,"country_code":"US","latitude":"30.28521000","longitude":"-97.86917000"},{"id":"111870","name":"Bartonville","state_id":1407,"state_code":"TX","country_id":233,"country_code":"US","latitude":"33.07318000","longitude":"-97.13168000"},{"id":"111884","name":"Bastrop","state_id":1407,"state_code":"TX","country_id":233,"country_code":"US","latitude":"30.11049000","longitude":"-97.31527000"},{"id":"111885","name":"Bastrop County","state_id":1407,"state_code":"TX","country_id":233,"country_code":"US","latitude":"30.10361000","longitude":"-97.31201000"},{"id":"111895","name":"Batesville","state_id":1407,"state_code":"TX","country_id":233,"country_code":"US","latitude":"28.95108000","longitude":"-99.61783000"},{"id":"111921","name":"Bay City","state_id":1407,"state_code":"TX","country_id":233,"country_code":"US","latitude":"28.98276000","longitude":"-95.96940000"},{"id":"111943","name":"Baylor County","state_id":1407,"state_code":"TX","country_id":233,"country_code":"US","latitude":"33.61649000","longitude":"-99.21351000"},{"id":"111950","name":"Bayou Vista","state_id":1407,"state_code":"TX","country_id":233,"country_code":"US","latitude":"29.32635000","longitude":"-94.93853000"},{"id":"111958","name":"Baytown","state_id":1407,"state_code":"TX","country_id":233,"country_code":"US","latitude":"29.73550000","longitude":"-94.97743000"},{"id":"111963","name":"Beach City","state_id":1407,"state_code":"TX","country_id":233,"country_code":"US","latitude":"29.66217000","longitude":"-94.88992000"},{"id":"111989","name":"Beaumont","state_id":1407,"state_code":"TX","country_id":233,"country_code":"US","latitude":"30.08605000","longitude":"-94.10185000"},{"id":"112021","name":"Bedford","state_id":1407,"state_code":"TX","country_id":233,"country_code":"US","latitude":"32.84402000","longitude":"-97.14307000"},{"id":"112033","name":"Bee Cave","state_id":1407,"state_code":"TX","country_id":233,"country_code":"US","latitude":"30.30854000","longitude":"-97.94501000"},{"id":"112034","name":"Bee County","state_id":1407,"state_code":"TX","country_id":233,"country_code":"US","latitude":"28.41739000","longitude":"-97.74119000"},{"id":"112044","name":"Beeville","state_id":1407,"state_code":"TX","country_id":233,"country_code":"US","latitude":"28.40095000","longitude":"-97.74974000"},{"id":"112069","name":"Bell County","state_id":1407,"state_code":"TX","country_id":233,"country_code":"US","latitude":"31.03767000","longitude":"-97.47820000"},{"id":"112075","name":"Bellaire","state_id":1407,"state_code":"TX","country_id":233,"country_code":"US","latitude":"29.70579000","longitude":"-95.45883000"},{"id":"112122","name":"Bellmead","state_id":1407,"state_code":"TX","country_id":233,"country_code":"US","latitude":"31.59405000","longitude":"-97.10889000"},{"id":"112127","name":"Bells","state_id":1407,"state_code":"TX","country_id":233,"country_code":"US","latitude":"33.61038000","longitude":"-96.41082000"},{"id":"112129","name":"Bellville","state_id":1407,"state_code":"TX","country_id":233,"country_code":"US","latitude":"29.95023000","longitude":"-96.25719000"},{"id":"112149","name":"Belton","state_id":1407,"state_code":"TX","country_id":233,"country_code":"US","latitude":"31.05601000","longitude":"-97.46445000"},{"id":"112164","name":"Benavides","state_id":1407,"state_code":"TX","country_id":233,"country_code":"US","latitude":"27.59892000","longitude":"-98.40807000"},{"id":"112165","name":"Benbrook","state_id":1407,"state_code":"TX","country_id":233,"country_code":"US","latitude":"32.67319000","longitude":"-97.46058000"},{"id":"112169","name":"Benjamin","state_id":1407,"state_code":"TX","country_id":233,"country_code":"US","latitude":"33.58398000","longitude":"-99.79231000"},{"id":"112256","name":"Berryville","state_id":1407,"state_code":"TX","country_id":233,"country_code":"US","latitude":"32.08849000","longitude":"-95.47190000"},{"id":"112259","name":"Bertram","state_id":1407,"state_code":"TX","country_id":233,"country_code":"US","latitude":"30.74380000","longitude":"-98.05558000"},{"id":"112299","name":"Beverly","state_id":1407,"state_code":"TX","country_id":233,"country_code":"US","latitude":"31.52517000","longitude":"-97.14195000"},{"id":"112304","name":"Beverly Hills","state_id":1407,"state_code":"TX","country_id":233,"country_code":"US","latitude":"31.52156000","longitude":"-97.15389000"},{"id":"112307","name":"Bevil Oaks","state_id":1407,"state_code":"TX","country_id":233,"country_code":"US","latitude":"30.15021000","longitude":"-94.26963000"},{"id":"112308","name":"Bexar County","state_id":1407,"state_code":"TX","country_id":233,"country_code":"US","latitude":"29.44896000","longitude":"-98.52002000"},{"id":"112324","name":"Big Lake","state_id":1407,"state_code":"TX","country_id":233,"country_code":"US","latitude":"31.19154000","longitude":"-101.46039000"},{"id":"112333","name":"Big Sandy","state_id":1407,"state_code":"TX","country_id":233,"country_code":"US","latitude":"32.58375000","longitude":"-95.10883000"},{"id":"112335","name":"Big Spring","state_id":1407,"state_code":"TX","country_id":233,"country_code":"US","latitude":"32.25040000","longitude":"-101.47874000"},{"id":"112363","name":"Bishop","state_id":1407,"state_code":"TX","country_id":233,"country_code":"US","latitude":"27.58614000","longitude":"-97.79916000"},{"id":"112418","name":"Blanco","state_id":1407,"state_code":"TX","country_id":233,"country_code":"US","latitude":"30.09799000","longitude":"-98.42141000"},{"id":"112419","name":"Blanco County","state_id":1407,"state_code":"TX","country_id":233,"country_code":"US","latitude":"30.26638000","longitude":"-98.39987000"},{"id":"112450","name":"Bloomington","state_id":1407,"state_code":"TX","country_id":233,"country_code":"US","latitude":"28.64777000","longitude":"-96.89249000"},{"id":"112456","name":"Blossom","state_id":1407,"state_code":"TX","country_id":233,"country_code":"US","latitude":"33.66150000","longitude":"-95.38579000"},{"id":"112472","name":"Blue Mound","state_id":1407,"state_code":"TX","country_id":233,"country_code":"US","latitude":"32.85652000","longitude":"-97.33891000"},{"id":"112497","name":"Boerne","state_id":1407,"state_code":"TX","country_id":233,"country_code":"US","latitude":"29.79466000","longitude":"-98.73197000"},{"id":"112500","name":"Bogata","state_id":1407,"state_code":"TX","country_id":233,"country_code":"US","latitude":"33.47067000","longitude":"-95.21384000"},{"id":"112515","name":"Boling","state_id":1407,"state_code":"TX","country_id":233,"country_code":"US","latitude":"29.26441000","longitude":"-95.94384000"},{"id":"112522","name":"Bolivar Peninsula","state_id":1407,"state_code":"TX","country_id":233,"country_code":"US","latitude":"29.47829000","longitude":"-94.57991000"},{"id":"112535","name":"Bonham","state_id":1407,"state_code":"TX","country_id":233,"country_code":"US","latitude":"33.57733000","longitude":"-96.17831000"},{"id":"112551","name":"Booker","state_id":1407,"state_code":"TX","country_id":233,"country_code":"US","latitude":"36.45336000","longitude":"-100.53737000"},{"id":"112575","name":"Borden County","state_id":1407,"state_code":"TX","country_id":233,"country_code":"US","latitude":"32.74369000","longitude":"-101.43175000"},{"id":"112577","name":"Borger","state_id":1407,"state_code":"TX","country_id":233,"country_code":"US","latitude":"35.66782000","longitude":"-101.39739000"},{"id":"112584","name":"Bosque County","state_id":1407,"state_code":"TX","country_id":233,"country_code":"US","latitude":"31.90040000","longitude":"-97.63435000"},{"id":"112619","name":"Bovina","state_id":1407,"state_code":"TX","country_id":233,"country_code":"US","latitude":"34.51368000","longitude":"-102.88300000"},{"id":"112624","name":"Bowie","state_id":1407,"state_code":"TX","country_id":233,"country_code":"US","latitude":"33.55900000","longitude":"-97.84865000"},{"id":"112625","name":"Bowie County","state_id":1407,"state_code":"TX","country_id":233,"country_code":"US","latitude":"33.44576000","longitude":"-94.42332000"},{"id":"112641","name":"Boyd","state_id":1407,"state_code":"TX","country_id":233,"country_code":"US","latitude":"33.07873000","longitude":"-97.56530000"},{"id":"112657","name":"Brackettville","state_id":1407,"state_code":"TX","country_id":233,"country_code":"US","latitude":"29.31051000","longitude":"-100.41786000"},{"id":"112678","name":"Brady","state_id":1407,"state_code":"TX","country_id":233,"country_code":"US","latitude":"31.13517000","longitude":"-99.33506000"},{"id":"112704","name":"Brazoria","state_id":1407,"state_code":"TX","country_id":233,"country_code":"US","latitude":"29.04441000","longitude":"-95.56911000"},{"id":"112705","name":"Brazoria County","state_id":1407,"state_code":"TX","country_id":233,"country_code":"US","latitude":"29.16783000","longitude":"-95.43426000"},{"id":"112706","name":"Brazos County","state_id":1407,"state_code":"TX","country_id":233,"country_code":"US","latitude":"30.66080000","longitude":"-96.30239000"},{"id":"112710","name":"Breckenridge","state_id":1407,"state_code":"TX","country_id":233,"country_code":"US","latitude":"32.75568000","longitude":"-98.90229000"},{"id":"112724","name":"Brenham","state_id":1407,"state_code":"TX","country_id":233,"country_code":"US","latitude":"30.16688000","longitude":"-96.39774000"},{"id":"112745","name":"Brewster County","state_id":1407,"state_code":"TX","country_id":233,"country_code":"US","latitude":"29.81195000","longitude":"-103.25176000"},{"id":"112748","name":"Briar","state_id":1407,"state_code":"TX","country_id":233,"country_code":"US","latitude":"32.99512000","longitude":"-97.54280000"},{"id":"112749","name":"Briarcliff","state_id":1407,"state_code":"TX","country_id":233,"country_code":"US","latitude":"30.40742000","longitude":"-98.04446000"},{"id":"112756","name":"Bridge City","state_id":1407,"state_code":"TX","country_id":233,"country_code":"US","latitude":"30.02077000","longitude":"-93.84573000"},{"id":"112759","name":"Bridgeport","state_id":1407,"state_code":"TX","country_id":233,"country_code":"US","latitude":"33.21012000","longitude":"-97.75476000"},{"id":"112801","name":"Briscoe County","state_id":1407,"state_code":"TX","country_id":233,"country_code":"US","latitude":"34.53026000","longitude":"-101.20859000"},{"id":"112884","name":"Brooks County","state_id":1407,"state_code":"TX","country_id":233,"country_code":"US","latitude":"27.03157000","longitude":"-98.21872000"},{"id":"112885","name":"Brookshire","state_id":1407,"state_code":"TX","country_id":233,"country_code":"US","latitude":"29.78606000","longitude":"-95.95107000"},{"id":"112888","name":"Brookside Village","state_id":1407,"state_code":"TX","country_id":233,"country_code":"US","latitude":"29.58690000","longitude":"-95.32522000"},{"id":"112910","name":"Brown County","state_id":1407,"state_code":"TX","country_id":233,"country_code":"US","latitude":"31.77426000","longitude":"-98.99979000"},{"id":"112917","name":"Brownfield","state_id":1407,"state_code":"TX","country_id":233,"country_code":"US","latitude":"33.18120000","longitude":"-102.27435000"},{"id":"112923","name":"Brownsboro","state_id":1407,"state_code":"TX","country_id":233,"country_code":"US","latitude":"32.30237000","longitude":"-95.61357000"},{"id":"112932","name":"Brownsville","state_id":1407,"state_code":"TX","country_id":233,"country_code":"US","latitude":"25.90175000","longitude":"-97.49748000"},{"id":"112940","name":"Brownwood","state_id":1407,"state_code":"TX","country_id":233,"country_code":"US","latitude":"31.70932000","longitude":"-98.99116000"},{"id":"112944","name":"Bruceville-Eddy","state_id":1407,"state_code":"TX","country_id":233,"country_code":"US","latitude":"31.30517000","longitude":"-97.25167000"},{"id":"112956","name":"Brushy Creek","state_id":1407,"state_code":"TX","country_id":233,"country_code":"US","latitude":"30.51353000","longitude":"-97.73973000"},{"id":"112959","name":"Bryan","state_id":1407,"state_code":"TX","country_id":233,"country_code":"US","latitude":"30.67436000","longitude":"-96.36996000"},{"id":"112976","name":"Buchanan Dam","state_id":1407,"state_code":"TX","country_id":233,"country_code":"US","latitude":"30.73990000","longitude":"-98.43114000"},{"id":"112993","name":"Buda","state_id":1407,"state_code":"TX","country_id":233,"country_code":"US","latitude":"30.08521000","longitude":"-97.84028000"},{"id":"113010","name":"Buffalo","state_id":1407,"state_code":"TX","country_id":233,"country_code":"US","latitude":"31.46379000","longitude":"-96.05802000"},{"id":"113030","name":"Bullard","state_id":1407,"state_code":"TX","country_id":233,"country_code":"US","latitude":"32.13988000","longitude":"-95.32023000"},{"id":"113035","name":"Bulverde","state_id":1407,"state_code":"TX","country_id":233,"country_code":"US","latitude":"29.74383000","longitude":"-98.45307000"},{"id":"113036","name":"Buna","state_id":1407,"state_code":"TX","country_id":233,"country_code":"US","latitude":"30.43298000","longitude":"-93.96240000"},{"id":"113042","name":"Bunker Hill Village","state_id":1407,"state_code":"TX","country_id":233,"country_code":"US","latitude":"29.76745000","longitude":"-95.52994000"},{"id":"113053","name":"Burkburnett","state_id":1407,"state_code":"TX","country_id":233,"country_code":"US","latitude":"34.09787000","longitude":"-98.57061000"},{"id":"113061","name":"Burleson","state_id":1407,"state_code":"TX","country_id":233,"country_code":"US","latitude":"32.54208000","longitude":"-97.32085000"},{"id":"113062","name":"Burleson County","state_id":1407,"state_code":"TX","country_id":233,"country_code":"US","latitude":"30.49248000","longitude":"-96.62146000"},{"id":"113078","name":"Burnet","state_id":1407,"state_code":"TX","country_id":233,"country_code":"US","latitude":"30.75824000","longitude":"-98.22836000"},{"id":"113079","name":"Burnet County","state_id":1407,"state_code":"TX","country_id":233,"country_code":"US","latitude":"30.78830000","longitude":"-98.18245000"},{"id":"113100","name":"Bushland","state_id":1407,"state_code":"TX","country_id":233,"country_code":"US","latitude":"35.19200000","longitude":"-102.06464000"},{"id":"113157","name":"Cactus","state_id":1407,"state_code":"TX","country_id":233,"country_code":"US","latitude":"36.05226000","longitude":"-102.00240000"},{"id":"113161","name":"Caddo Mills","state_id":1407,"state_code":"TX","country_id":233,"country_code":"US","latitude":"33.06567000","longitude":"-96.22776000"},{"id":"113180","name":"Caldwell","state_id":1407,"state_code":"TX","country_id":233,"country_code":"US","latitude":"30.53132000","longitude":"-96.69303000"},{"id":"113186","name":"Caldwell County","state_id":1407,"state_code":"TX","country_id":233,"country_code":"US","latitude":"29.83712000","longitude":"-97.62000000"},{"id":"113207","name":"Calhoun County","state_id":1407,"state_code":"TX","country_id":233,"country_code":"US","latitude":"28.43911000","longitude":"-96.61507000"},{"id":"113223","name":"Callahan County","state_id":1407,"state_code":"TX","country_id":233,"country_code":"US","latitude":"32.29766000","longitude":"-99.37349000"},{"id":"113233","name":"Calvert","state_id":1407,"state_code":"TX","country_id":233,"country_code":"US","latitude":"30.97797000","longitude":"-96.67386000"},{"id":"113275","name":"Cameron","state_id":1407,"state_code":"TX","country_id":233,"country_code":"US","latitude":"30.85325000","longitude":"-96.97693000"},{"id":"113277","name":"Cameron County","state_id":1407,"state_code":"TX","country_id":233,"country_code":"US","latitude":"26.15150000","longitude":"-97.45286000"},{"id":"113280","name":"Cameron Park","state_id":1407,"state_code":"TX","country_id":233,"country_code":"US","latitude":"25.96452000","longitude":"-97.47665000"},{"id":"113282","name":"Cameron Park Colonia","state_id":1407,"state_code":"TX","country_id":233,"country_code":"US","latitude":"25.97147000","longitude":"-97.47832000"},{"id":"113286","name":"Camp County","state_id":1407,"state_code":"TX","country_id":233,"country_code":"US","latitude":"32.97322000","longitude":"-94.97848000"},{"id":"113294","name":"Camp Swift","state_id":1407,"state_code":"TX","country_id":233,"country_code":"US","latitude":"30.19077000","longitude":"-97.29221000"},{"id":"113314","name":"Canadian","state_id":1407,"state_code":"TX","country_id":233,"country_code":"US","latitude":"35.91282000","longitude":"-100.38208000"},{"id":"113342","name":"Canton","state_id":1407,"state_code":"TX","country_id":233,"country_code":"US","latitude":"32.55652000","longitude":"-95.86330000"},{"id":"113353","name":"Canutillo","state_id":1407,"state_code":"TX","country_id":233,"country_code":"US","latitude":"31.91149000","longitude":"-106.60027000"},{"id":"113354","name":"Canyon","state_id":1407,"state_code":"TX","country_id":233,"country_code":"US","latitude":"34.98033000","longitude":"-101.91880000"},{"id":"113358","name":"Canyon Lake","state_id":1407,"state_code":"TX","country_id":233,"country_code":"US","latitude":"29.87522000","longitude":"-98.26251000"},{"id":"113447","name":"Carrizo Springs","state_id":1407,"state_code":"TX","country_id":233,"country_code":"US","latitude":"28.52193000","longitude":"-99.86061000"},{"id":"113470","name":"Carrollton","state_id":1407,"state_code":"TX","country_id":233,"country_code":"US","latitude":"32.95373000","longitude":"-96.89028000"},{"id":"113479","name":"Carson County","state_id":1407,"state_code":"TX","country_id":233,"country_code":"US","latitude":"35.40351000","longitude":"-101.35418000"},{"id":"113495","name":"Carthage","state_id":1407,"state_code":"TX","country_id":233,"country_code":"US","latitude":"32.15738000","longitude":"-94.33742000"},{"id":"113528","name":"Cass County","state_id":1407,"state_code":"TX","country_id":233,"country_code":"US","latitude":"33.07754000","longitude":"-94.34359000"},{"id":"113545","name":"Castle Hills","state_id":1407,"state_code":"TX","country_id":233,"country_code":"US","latitude":"29.52329000","longitude":"-98.51641000"},{"id":"113556","name":"Castro County","state_id":1407,"state_code":"TX","country_id":233,"country_code":"US","latitude":"34.52996000","longitude":"-102.26167000"},{"id":"113558","name":"Castroville","state_id":1407,"state_code":"TX","country_id":233,"country_code":"US","latitude":"29.35579000","longitude":"-98.87864000"},{"id":"114960","name":"C\u00e9sar Ch\u00e1vez","state_id":1407,"state_code":"TX","country_id":233,"country_code":"US","latitude":"26.30340000","longitude":"-98.11529000"},{"id":"113614","name":"Cedar Hill","state_id":1407,"state_code":"TX","country_id":233,"country_code":"US","latitude":"32.58847000","longitude":"-96.95612000"},{"id":"113619","name":"Cedar Park","state_id":1407,"state_code":"TX","country_id":233,"country_code":"US","latitude":"30.50520000","longitude":"-97.82029000"},{"id":"113631","name":"Celina","state_id":1407,"state_code":"TX","country_id":233,"country_code":"US","latitude":"33.32456000","longitude":"-96.78444000"},{"id":"113636","name":"Center","state_id":1407,"state_code":"TX","country_id":233,"country_code":"US","latitude":"31.79545000","longitude":"-94.17909000"},{"id":"113657","name":"Centerville","state_id":1407,"state_code":"TX","country_id":233,"country_code":"US","latitude":"31.25796000","longitude":"-95.97829000"},{"id":"113675","name":"Central Gardens","state_id":1407,"state_code":"TX","country_id":233,"country_code":"US","latitude":"29.99549000","longitude":"-94.01406000"},{"id":"113721","name":"Chambers County","state_id":1407,"state_code":"TX","country_id":233,"country_code":"US","latitude":"29.70826000","longitude":"-94.67138000"},{"id":"113730","name":"Chandler","state_id":1407,"state_code":"TX","country_id":233,"country_code":"US","latitude":"32.30793000","longitude":"-95.47996000"},{"id":"113736","name":"Channelview","state_id":1407,"state_code":"TX","country_id":233,"country_code":"US","latitude":"29.77606000","longitude":"-95.11465000"},{"id":"113737","name":"Channing","state_id":1407,"state_code":"TX","country_id":233,"country_code":"US","latitude":"35.68365000","longitude":"-102.33020000"},{"id":"113778","name":"Charlotte","state_id":1407,"state_code":"TX","country_id":233,"country_code":"US","latitude":"28.86192000","longitude":"-98.70641000"},{"id":"113855","name":"Cherokee County","state_id":1407,"state_code":"TX","country_id":233,"country_code":"US","latitude":"31.83695000","longitude":"-95.16518000"},{"id":"113942","name":"Chico","state_id":1407,"state_code":"TX","country_id":233,"country_code":"US","latitude":"33.29595000","longitude":"-97.79892000"},{"id":"113950","name":"Childress","state_id":1407,"state_code":"TX","country_id":233,"country_code":"US","latitude":"34.42645000","longitude":"-100.20400000"},{"id":"113951","name":"Childress County","state_id":1407,"state_code":"TX","country_id":233,"country_code":"US","latitude":"34.52920000","longitude":"-100.20757000"},{"id":"113959","name":"China","state_id":1407,"state_code":"TX","country_id":233,"country_code":"US","latitude":"30.04799000","longitude":"-94.33574000"},{"id":"113962","name":"China Grove","state_id":1407,"state_code":"TX","country_id":233,"country_code":"US","latitude":"29.38885000","longitude":"-98.34890000"},{"id":"114018","name":"Cibolo","state_id":1407,"state_code":"TX","country_id":233,"country_code":"US","latitude":"29.56162000","longitude":"-98.22696000"},{"id":"114022","name":"Cienegas Terrace","state_id":1407,"state_code":"TX","country_id":233,"country_code":"US","latitude":"29.36745000","longitude":"-100.94371000"},{"id":"114026","name":"Cinco Ranch","state_id":1407,"state_code":"TX","country_id":233,"country_code":"US","latitude":"29.73884000","longitude":"-95.75800000"},{"id":"114029","name":"Circle D-KC Estates","state_id":1407,"state_code":"TX","country_id":233,"country_code":"US","latitude":"30.16100000","longitude":"-97.23473000"},{"id":"114031","name":"Cisco","state_id":1407,"state_code":"TX","country_id":233,"country_code":"US","latitude":"32.38819000","longitude":"-98.97923000"},{"id":"114035","name":"Citrus City","state_id":1407,"state_code":"TX","country_id":233,"country_code":"US","latitude":"26.32646000","longitude":"-98.38530000"},{"id":"114112","name":"Clarendon","state_id":1407,"state_code":"TX","country_id":233,"country_code":"US","latitude":"34.93783000","longitude":"-100.88820000"},{"id":"114155","name":"Clarksville","state_id":1407,"state_code":"TX","country_id":233,"country_code":"US","latitude":"33.61066000","longitude":"-95.05272000"},{"id":"114162","name":"Claude","state_id":1407,"state_code":"TX","country_id":233,"country_code":"US","latitude":"35.11172000","longitude":"-101.36322000"},{"id":"114185","name":"Clay County","state_id":1407,"state_code":"TX","country_id":233,"country_code":"US","latitude":"33.78553000","longitude":"-98.20850000"},{"id":"114214","name":"Clear Lake Shores","state_id":1407,"state_code":"TX","country_id":233,"country_code":"US","latitude":"29.54745000","longitude":"-95.03215000"},{"id":"114229","name":"Cleburne","state_id":1407,"state_code":"TX","country_id":233,"country_code":"US","latitude":"32.34764000","longitude":"-97.38668000"},{"id":"114246","name":"Cleveland","state_id":1407,"state_code":"TX","country_id":233,"country_code":"US","latitude":"30.34132000","longitude":"-95.08549000"},{"id":"114256","name":"Clifton","state_id":1407,"state_code":"TX","country_id":233,"country_code":"US","latitude":"31.78238000","longitude":"-97.57669000"},{"id":"114266","name":"Clint","state_id":1407,"state_code":"TX","country_id":233,"country_code":"US","latitude":"31.59234000","longitude":"-106.22414000"},{"id":"114312","name":"Cloverleaf","state_id":1407,"state_code":"TX","country_id":233,"country_code":"US","latitude":"29.77828000","longitude":"-95.17188000"},{"id":"114317","name":"Clute","state_id":1407,"state_code":"TX","country_id":233,"country_code":"US","latitude":"29.02469000","longitude":"-95.39883000"},{"id":"114319","name":"Clyde","state_id":1407,"state_code":"TX","country_id":233,"country_code":"US","latitude":"32.40596000","longitude":"-99.49369000"},{"id":"114352","name":"Cochran County","state_id":1407,"state_code":"TX","country_id":233,"country_code":"US","latitude":"33.60414000","longitude":"-102.82846000"},{"id":"114356","name":"Cockrell Hill","state_id":1407,"state_code":"TX","country_id":233,"country_code":"US","latitude":"32.73624000","longitude":"-96.88695000"},{"id":"114377","name":"Coke County","state_id":1407,"state_code":"TX","country_id":233,"country_code":"US","latitude":"31.88853000","longitude":"-100.52991000"},{"id":"114390","name":"Coldspring","state_id":1407,"state_code":"TX","country_id":233,"country_code":"US","latitude":"30.59242000","longitude":"-95.12938000"},{"id":"114398","name":"Coleman","state_id":1407,"state_code":"TX","country_id":233,"country_code":"US","latitude":"31.82737000","longitude":"-99.42645000"},{"id":"114400","name":"Coleman County","state_id":1407,"state_code":"TX","country_id":233,"country_code":"US","latitude":"31.77321000","longitude":"-99.45364000"},{"id":"114417","name":"College Station","state_id":1407,"state_code":"TX","country_id":233,"country_code":"US","latitude":"30.62798000","longitude":"-96.33441000"},{"id":"114422","name":"Colleyville","state_id":1407,"state_code":"TX","country_id":233,"country_code":"US","latitude":"32.88096000","longitude":"-97.15501000"},{"id":"114426","name":"Collin County","state_id":1407,"state_code":"TX","country_id":233,"country_code":"US","latitude":"33.18791000","longitude":"-96.57237000"},{"id":"114430","name":"Collingsworth County","state_id":1407,"state_code":"TX","country_id":233,"country_code":"US","latitude":"34.96488000","longitude":"-100.27007000"},{"id":"114437","name":"Collinsville","state_id":1407,"state_code":"TX","country_id":233,"country_code":"US","latitude":"33.56150000","longitude":"-96.91111000"},{"id":"114456","name":"Colorado City","state_id":1407,"state_code":"TX","country_id":233,"country_code":"US","latitude":"32.38817000","longitude":"-100.86456000"},{"id":"114457","name":"Colorado County","state_id":1407,"state_code":"TX","country_id":233,"country_code":"US","latitude":"29.62082000","longitude":"-96.52628000"},{"id":"114495","name":"Columbus","state_id":1407,"state_code":"TX","country_id":233,"country_code":"US","latitude":"29.70662000","longitude":"-96.53969000"},{"id":"114509","name":"Comal County","state_id":1407,"state_code":"TX","country_id":233,"country_code":"US","latitude":"29.80818000","longitude":"-98.27825000"},{"id":"114511","name":"Comanche","state_id":1407,"state_code":"TX","country_id":233,"country_code":"US","latitude":"31.89737000","longitude":"-98.60366000"},{"id":"114514","name":"Comanche County","state_id":1407,"state_code":"TX","country_id":233,"country_code":"US","latitude":"31.94798000","longitude":"-98.55826000"},{"id":"114516","name":"Combes","state_id":1407,"state_code":"TX","country_id":233,"country_code":"US","latitude":"26.24869000","longitude":"-97.73388000"},{"id":"114517","name":"Combine","state_id":1407,"state_code":"TX","country_id":233,"country_code":"US","latitude":"32.58847000","longitude":"-96.50860000"},{"id":"114520","name":"Comfort","state_id":1407,"state_code":"TX","country_id":233,"country_code":"US","latitude":"29.96771000","longitude":"-98.90503000"},{"id":"114524","name":"Commerce","state_id":1407,"state_code":"TX","country_id":233,"country_code":"US","latitude":"33.24706000","longitude":"-95.89997000"},{"id":"114533","name":"Concho County","state_id":1407,"state_code":"TX","country_id":233,"country_code":"US","latitude":"31.32650000","longitude":"-99.86396000"},{"id":"114570","name":"Conroe","state_id":1407,"state_code":"TX","country_id":233,"country_code":"US","latitude":"30.31188000","longitude":"-95.45605000"},{"id":"114578","name":"Converse","state_id":1407,"state_code":"TX","country_id":233,"country_code":"US","latitude":"29.51801000","longitude":"-98.31612000"},{"id":"114594","name":"Cooke County","state_id":1407,"state_code":"TX","country_id":233,"country_code":"US","latitude":"33.63919000","longitude":"-97.21262000"},{"id":"114601","name":"Cooper","state_id":1407,"state_code":"TX","country_id":233,"country_code":"US","latitude":"31.24324000","longitude":"-95.58217000"},{"id":"114619","name":"Coppell","state_id":1407,"state_code":"TX","country_id":233,"country_code":"US","latitude":"32.95457000","longitude":"-97.01501000"},{"id":"114620","name":"Copper Canyon","state_id":1407,"state_code":"TX","country_id":233,"country_code":"US","latitude":"33.09595000","longitude":"-97.09668000"},{"id":"114621","name":"Copperas Cove","state_id":1407,"state_code":"TX","country_id":233,"country_code":"US","latitude":"31.12406000","longitude":"-97.90308000"},{"id":"114644","name":"Corinth","state_id":1407,"state_code":"TX","country_id":233,"country_code":"US","latitude":"33.15401000","longitude":"-97.06473000"},{"id":"114665","name":"Corpus Christi","state_id":1407,"state_code":"TX","country_id":233,"country_code":"US","latitude":"27.80058000","longitude":"-97.39638000"},{"id":"114668","name":"Corrigan","state_id":1407,"state_code":"TX","country_id":233,"country_code":"US","latitude":"30.99686000","longitude":"-94.82715000"},{"id":"114670","name":"Corsicana","state_id":1407,"state_code":"TX","country_id":233,"country_code":"US","latitude":"32.09543000","longitude":"-96.46887000"},{"id":"114683","name":"Coryell County","state_id":1407,"state_code":"TX","country_id":233,"country_code":"US","latitude":"31.39091000","longitude":"-97.79920000"},{"id":"114695","name":"Cottle County","state_id":1407,"state_code":"TX","country_id":233,"country_code":"US","latitude":"34.07765000","longitude":"-100.27874000"},{"id":"114706","name":"Cottonwood Shores","state_id":1407,"state_code":"TX","country_id":233,"country_code":"US","latitude":"30.55575000","longitude":"-98.32391000"},{"id":"114708","name":"Cotulla","state_id":1407,"state_code":"TX","country_id":233,"country_code":"US","latitude":"28.43693000","longitude":"-99.23503000"},{"id":"114765","name":"Crandall","state_id":1407,"state_code":"TX","country_id":233,"country_code":"US","latitude":"32.62791000","longitude":"-96.45582000"},{"id":"114769","name":"Crane","state_id":1407,"state_code":"TX","country_id":233,"country_code":"US","latitude":"31.39736000","longitude":"-102.35014000"},{"id":"114770","name":"Crane County","state_id":1407,"state_code":"TX","country_id":233,"country_code":"US","latitude":"31.42850000","longitude":"-102.51557000"},{"id":"114829","name":"Crockett","state_id":1407,"state_code":"TX","country_id":233,"country_code":"US","latitude":"31.31824000","longitude":"-95.45661000"},{"id":"114832","name":"Crockett County","state_id":1407,"state_code":"TX","country_id":233,"country_code":"US","latitude":"30.72298000","longitude":"-101.41215000"},{"id":"114842","name":"Crosby","state_id":1407,"state_code":"TX","country_id":233,"country_code":"US","latitude":"29.91189000","longitude":"-95.06215000"},{"id":"114845","name":"Crosby County","state_id":1407,"state_code":"TX","country_id":233,"country_code":"US","latitude":"33.61462000","longitude":"-101.29996000"},{"id":"114846","name":"Crosbyton","state_id":1407,"state_code":"TX","country_id":233,"country_code":"US","latitude":"33.66008000","longitude":"-101.23793000"},{"id":"114851","name":"Cross Mountain","state_id":1407,"state_code":"TX","country_id":233,"country_code":"US","latitude":"29.64550000","longitude":"-98.65947000"},{"id":"114862","name":"Crowell","state_id":1407,"state_code":"TX","country_id":233,"country_code":"US","latitude":"33.98397000","longitude":"-99.72482000"},{"id":"114864","name":"Crowley","state_id":1407,"state_code":"TX","country_id":233,"country_code":"US","latitude":"32.57903000","longitude":"-97.36252000"},{"id":"114876","name":"Crystal City","state_id":1407,"state_code":"TX","country_id":233,"country_code":"US","latitude":"28.67748000","longitude":"-99.82811000"},{"id":"114892","name":"Cuero","state_id":1407,"state_code":"TX","country_id":233,"country_code":"US","latitude":"29.09387000","longitude":"-97.28916000"},{"id":"114893","name":"Culberson County","state_id":1407,"state_code":"TX","country_id":233,"country_code":"US","latitude":"31.44716000","longitude":"-104.51742000"},{"id":"114943","name":"Cut and Shoot","state_id":1407,"state_code":"TX","country_id":233,"country_code":"US","latitude":"30.33327000","longitude":"-95.35799000"},{"id":"114953","name":"Cypress","state_id":1407,"state_code":"TX","country_id":233,"country_code":"US","latitude":"29.96911000","longitude":"-95.69717000"},{"id":"114972","name":"Daingerfield","state_id":1407,"state_code":"TX","country_id":233,"country_code":"US","latitude":"33.03179000","longitude":"-94.72187000"},{"id":"114986","name":"Dalhart","state_id":1407,"state_code":"TX","country_id":233,"country_code":"US","latitude":"36.05948000","longitude":"-102.51325000"},{"id":"114987","name":"Dallam County","state_id":1407,"state_code":"TX","country_id":233,"country_code":"US","latitude":"36.27789000","longitude":"-102.60222000"},{"id":"114990","name":"Dallas","state_id":1407,"state_code":"TX","country_id":233,"country_code":"US","latitude":"32.78306000","longitude":"-96.80667000"},{"id":"114997","name":"Dallas County","state_id":1407,"state_code":"TX","country_id":233,"country_code":"US","latitude":"32.76663000","longitude":"-96.77787000"},{"id":"115005","name":"Dalworthington Gardens","state_id":1407,"state_code":"TX","country_id":233,"country_code":"US","latitude":"32.70291000","longitude":"-97.15529000"},{"id":"115014","name":"Danbury","state_id":1407,"state_code":"TX","country_id":233,"country_code":"US","latitude":"29.22830000","longitude":"-95.34494000"},{"id":"115085","name":"Dawson County","state_id":1407,"state_code":"TX","country_id":233,"country_code":"US","latitude":"32.74253000","longitude":"-101.94768000"},{"id":"115093","name":"Dayton","state_id":1407,"state_code":"TX","country_id":233,"country_code":"US","latitude":"30.04661000","longitude":"-94.88520000"},{"id":"115107","name":"De Kalb","state_id":1407,"state_code":"TX","country_id":233,"country_code":"US","latitude":"33.50873000","longitude":"-94.61632000"},{"id":"115109","name":"De Leon","state_id":1407,"state_code":"TX","country_id":233,"country_code":"US","latitude":"32.11097000","longitude":"-98.53588000"},{"id":"115143","name":"Deaf Smith County","state_id":1407,"state_code":"TX","country_id":233,"country_code":"US","latitude":"34.96602000","longitude":"-102.60494000"},{"id":"115155","name":"Decatur","state_id":1407,"state_code":"TX","country_id":233,"country_code":"US","latitude":"33.23428000","longitude":"-97.58614000"},{"id":"115125","name":"DeCordova","state_id":1407,"state_code":"TX","country_id":233,"country_code":"US","latitude":"32.42986000","longitude":"-97.69503000"},{"id":"115175","name":"Deer Park","state_id":1407,"state_code":"TX","country_id":233,"country_code":"US","latitude":"29.70523000","longitude":"-95.12382000"},{"id":"115195","name":"Del Rio","state_id":1407,"state_code":"TX","country_id":233,"country_code":"US","latitude":"29.36273000","longitude":"-100.89676000"},{"id":"115224","name":"Delta County","state_id":1407,"state_code":"TX","country_id":233,"country_code":"US","latitude":"33.38629000","longitude":"-95.67227000"},{"id":"115237","name":"Denison","state_id":1407,"state_code":"TX","country_id":233,"country_code":"US","latitude":"33.75566000","longitude":"-96.53666000"},{"id":"115247","name":"Denton","state_id":1407,"state_code":"TX","country_id":233,"country_code":"US","latitude":"33.21484000","longitude":"-97.13307000"},{"id":"115248","name":"Denton County","state_id":1407,"state_code":"TX","country_id":233,"country_code":"US","latitude":"33.20526000","longitude":"-97.11697000"},{"id":"115254","name":"Denver City","state_id":1407,"state_code":"TX","country_id":233,"country_code":"US","latitude":"32.96455000","longitude":"-102.82910000"},{"id":"115138","name":"DeSoto","state_id":1407,"state_code":"TX","country_id":233,"country_code":"US","latitude":"32.58986000","longitude":"-96.85695000"},{"id":"115299","name":"Devine","state_id":1407,"state_code":"TX","country_id":233,"country_code":"US","latitude":"29.13996000","longitude":"-98.90531000"},{"id":"115306","name":"Deweyville","state_id":1407,"state_code":"TX","country_id":233,"country_code":"US","latitude":"30.29771000","longitude":"-93.74350000"},{"id":"115141","name":"DeWitt County","state_id":1407,"state_code":"TX","country_id":233,"country_code":"US","latitude":"29.08208000","longitude":"-97.35678000"},{"id":"115319","name":"Diboll","state_id":1407,"state_code":"TX","country_id":233,"country_code":"US","latitude":"31.18713000","longitude":"-94.78104000"},{"id":"115320","name":"Dickens","state_id":1407,"state_code":"TX","country_id":233,"country_code":"US","latitude":"33.62175000","longitude":"-100.83652000"},{"id":"115321","name":"Dickens County","state_id":1407,"state_code":"TX","country_id":233,"country_code":"US","latitude":"33.61661000","longitude":"-100.77886000"},{"id":"115325","name":"Dickinson","state_id":1407,"state_code":"TX","country_id":233,"country_code":"US","latitude":"29.46079000","longitude":"-95.05132000"},{"id":"115339","name":"Dilley","state_id":1407,"state_code":"TX","country_id":233,"country_code":"US","latitude":"28.66748000","longitude":"-99.17059000"},{"id":"115348","name":"Dimmit County","state_id":1407,"state_code":"TX","country_id":233,"country_code":"US","latitude":"28.42254000","longitude":"-99.75673000"},{"id":"115349","name":"Dimmitt","state_id":1407,"state_code":"TX","country_id":233,"country_code":"US","latitude":"34.55090000","longitude":"-102.31186000"},{"id":"115384","name":"Doffing","state_id":1407,"state_code":"TX","country_id":233,"country_code":"US","latitude":"26.27452000","longitude":"-98.38585000"},{"id":"115399","name":"Donley County","state_id":1407,"state_code":"TX","country_id":233,"country_code":"US","latitude":"34.96542000","longitude":"-100.81399000"},{"id":"115400","name":"Donna","state_id":1407,"state_code":"TX","country_id":233,"country_code":"US","latitude":"26.17035000","longitude":"-98.05195000"},{"id":"115403","name":"Doolittle","state_id":1407,"state_code":"TX","country_id":233,"country_code":"US","latitude":"26.35337000","longitude":"-98.11666000"},{"id":"115416","name":"Double Oak","state_id":1407,"state_code":"TX","country_id":233,"country_code":"US","latitude":"33.06512000","longitude":"-97.11057000"},{"id":"115479","name":"Dripping Springs","state_id":1407,"state_code":"TX","country_id":233,"country_code":"US","latitude":"30.19021000","longitude":"-98.08668000"},{"id":"115492","name":"Dublin","state_id":1407,"state_code":"TX","country_id":233,"country_code":"US","latitude":"32.08514000","longitude":"-98.34199000"},{"id":"115515","name":"Dumas","state_id":1407,"state_code":"TX","country_id":233,"country_code":"US","latitude":"35.86559000","longitude":"-101.97324000"},{"id":"115525","name":"Duncanville","state_id":1407,"state_code":"TX","country_id":233,"country_code":"US","latitude":"32.65180000","longitude":"-96.90834000"},{"id":"115581","name":"Duval County","state_id":1407,"state_code":"TX","country_id":233,"country_code":"US","latitude":"27.68133000","longitude":"-98.50891000"},{"id":"115603","name":"Eagle Lake","state_id":1407,"state_code":"TX","country_id":233,"country_code":"US","latitude":"29.58968000","longitude":"-96.33358000"},{"id":"115606","name":"Eagle Mountain","state_id":1407,"state_code":"TX","country_id":233,"country_code":"US","latitude":"32.89346000","longitude":"-97.44446000"},{"id":"115608","name":"Eagle Pass","state_id":1407,"state_code":"TX","country_id":233,"country_code":"US","latitude":"28.70914000","longitude":"-100.49952000"},{"id":"115622","name":"Early","state_id":1407,"state_code":"TX","country_id":233,"country_code":"US","latitude":"31.74210000","longitude":"-98.94561000"},{"id":"115624","name":"Earth","state_id":1407,"state_code":"TX","country_id":233,"country_code":"US","latitude":"34.23314000","longitude":"-102.41075000"},{"id":"115632","name":"East Bernard","state_id":1407,"state_code":"TX","country_id":233,"country_code":"US","latitude":"29.53107000","longitude":"-96.07107000"},{"id":"115780","name":"Eastland","state_id":1407,"state_code":"TX","country_id":233,"country_code":"US","latitude":"32.40152000","longitude":"-98.81756000"},{"id":"115781","name":"Eastland County","state_id":1407,"state_code":"TX","country_id":233,"country_code":"US","latitude":"32.32707000","longitude":"-98.83232000"},{"id":"115819","name":"Ector County","state_id":1407,"state_code":"TX","country_id":233,"country_code":"US","latitude":"31.86916000","longitude":"-102.54276000"},{"id":"115820","name":"Edcouch","state_id":1407,"state_code":"TX","country_id":233,"country_code":"US","latitude":"26.29396000","longitude":"-97.96056000"},{"id":"115829","name":"Eden","state_id":1407,"state_code":"TX","country_id":233,"country_code":"US","latitude":"31.21628000","longitude":"-99.84563000"},{"id":"115839","name":"Edgecliff Village","state_id":1407,"state_code":"TX","country_id":233,"country_code":"US","latitude":"32.65763000","longitude":"-97.34279000"},{"id":"115860","name":"Edgewood","state_id":1407,"state_code":"TX","country_id":233,"country_code":"US","latitude":"32.69818000","longitude":"-95.88524000"},{"id":"115870","name":"Edinburg","state_id":1407,"state_code":"TX","country_id":233,"country_code":"US","latitude":"26.30174000","longitude":"-98.16334000"},{"id":"115884","name":"Edna","state_id":1407,"state_code":"TX","country_id":233,"country_code":"US","latitude":"28.97859000","longitude":"-96.64609000"},{"id":"115891","name":"Edwards County","state_id":1407,"state_code":"TX","country_id":233,"country_code":"US","latitude":"29.98263000","longitude":"-100.30474000"},{"id":"115908","name":"Eidson Road","state_id":1407,"state_code":"TX","country_id":233,"country_code":"US","latitude":"28.67720000","longitude":"-100.48702000"},{"id":"115912","name":"El Campo","state_id":1407,"state_code":"TX","country_id":233,"country_code":"US","latitude":"29.19664000","longitude":"-96.26969000"},{"id":"115913","name":"El Cenizo","state_id":1407,"state_code":"TX","country_id":233,"country_code":"US","latitude":"27.35224000","longitude":"-99.49254000"},{"id":"115926","name":"El Lago","state_id":1407,"state_code":"TX","country_id":233,"country_code":"US","latitude":"29.56356000","longitude":"-95.04521000"},{"id":"115930","name":"El Paso","state_id":1407,"state_code":"TX","country_id":233,"country_code":"US","latitude":"31.75872000","longitude":"-106.48693000"},{"id":"115932","name":"El Paso County","state_id":1407,"state_code":"TX","country_id":233,"country_code":"US","latitude":"31.76855000","longitude":"-106.23483000"},{"id":"115954","name":"Eldorado","state_id":1407,"state_code":"TX","country_id":233,"country_code":"US","latitude":"30.86017000","longitude":"-100.60093000"},{"id":"115959","name":"Electra","state_id":1407,"state_code":"TX","country_id":233,"country_code":"US","latitude":"34.02926000","longitude":"-98.91896000"},{"id":"115965","name":"Elgin","state_id":1407,"state_code":"TX","country_id":233,"country_code":"US","latitude":"30.34965000","longitude":"-97.37027000"},{"id":"115997","name":"Elkhart","state_id":1407,"state_code":"TX","country_id":233,"country_code":"US","latitude":"31.62517000","longitude":"-95.57940000"},{"id":"116032","name":"Ellis County","state_id":1407,"state_code":"TX","country_id":233,"country_code":"US","latitude":"32.34843000","longitude":"-96.79448000"},{"id":"116043","name":"Elm Creek","state_id":1407,"state_code":"TX","country_id":233,"country_code":"US","latitude":"28.77442000","longitude":"-100.49174000"},{"id":"116048","name":"Elmendorf","state_id":1407,"state_code":"TX","country_id":233,"country_code":"US","latitude":"29.25607000","longitude":"-98.33279000"},{"id":"116068","name":"Elsa","state_id":1407,"state_code":"TX","country_id":233,"country_code":"US","latitude":"26.29340000","longitude":"-97.99306000"},{"id":"116108","name":"Emory","state_id":1407,"state_code":"TX","country_id":233,"country_code":"US","latitude":"32.87457000","longitude":"-95.76552000"},{"id":"116115","name":"Encantada-Ranchito-El Calaboz","state_id":1407,"state_code":"TX","country_id":233,"country_code":"US","latitude":"26.03344000","longitude":"-97.63307000"},{"id":"116141","name":"Ennis","state_id":1407,"state_code":"TX","country_id":233,"country_code":"US","latitude":"32.32931000","longitude":"-96.62527000"},{"id":"116161","name":"Erath County","state_id":1407,"state_code":"TX","country_id":233,"country_code":"US","latitude":"32.23626000","longitude":"-98.21797000"},{"id":"116183","name":"Escobares","state_id":1407,"state_code":"TX","country_id":233,"country_code":"US","latitude":"26.41062000","longitude":"-98.96253000"},{"id":"116228","name":"Euless","state_id":1407,"state_code":"TX","country_id":233,"country_code":"US","latitude":"32.83707000","longitude":"-97.08195000"},{"id":"116243","name":"Evadale","state_id":1407,"state_code":"TX","country_id":233,"country_code":"US","latitude":"30.35493000","longitude":"-94.07268000"},{"id":"116266","name":"Everman","state_id":1407,"state_code":"TX","country_id":233,"country_code":"US","latitude":"32.63097000","longitude":"-97.28918000"},{"id":"116279","name":"Fabens","state_id":1407,"state_code":"TX","country_id":233,"country_code":"US","latitude":"31.50234000","longitude":"-106.15859000"},{"id":"116287","name":"Fair Oaks Ranch","state_id":1407,"state_code":"TX","country_id":233,"country_code":"US","latitude":"29.74578000","longitude":"-98.64336000"},{"id":"116298","name":"Fairchilds","state_id":1407,"state_code":"TX","country_id":233,"country_code":"US","latitude":"29.43135000","longitude":"-95.78023000"},{"id":"116311","name":"Fairfield","state_id":1407,"state_code":"TX","country_id":233,"country_code":"US","latitude":"31.72461000","longitude":"-96.16525000"},{"id":"116351","name":"Fairview","state_id":1407,"state_code":"TX","country_id":233,"country_code":"US","latitude":"33.15790000","longitude":"-96.63166000"},{"id":"116366","name":"Falcon Lake Estates","state_id":1407,"state_code":"TX","country_id":233,"country_code":"US","latitude":"26.87282000","longitude":"-99.25531000"},{"id":"116368","name":"Falfurrias","state_id":1407,"state_code":"TX","country_id":233,"country_code":"US","latitude":"27.22699000","longitude":"-98.14417000"},{"id":"116382","name":"Falls County","state_id":1407,"state_code":"TX","country_id":233,"country_code":"US","latitude":"31.25327000","longitude":"-96.93585000"},{"id":"116391","name":"Fannett","state_id":1407,"state_code":"TX","country_id":233,"country_code":"US","latitude":"29.92605000","longitude":"-94.25074000"},{"id":"116393","name":"Fannin County","state_id":1407,"state_code":"TX","country_id":233,"country_code":"US","latitude":"33.59381000","longitude":"-96.10683000"},{"id":"116403","name":"Farmers Branch","state_id":1407,"state_code":"TX","country_id":233,"country_code":"US","latitude":"32.92651000","longitude":"-96.89612000"},{"id":"116406","name":"Farmersville","state_id":1407,"state_code":"TX","country_id":233,"country_code":"US","latitude":"33.16345000","longitude":"-96.35998000"},{"id":"116431","name":"Farwell","state_id":1407,"state_code":"TX","country_id":233,"country_code":"US","latitude":"34.38341000","longitude":"-103.03800000"},{"id":"116432","name":"Fate","state_id":1407,"state_code":"TX","country_id":233,"country_code":"US","latitude":"32.94151000","longitude":"-96.38137000"},{"id":"116449","name":"Fayette County","state_id":1407,"state_code":"TX","country_id":233,"country_code":"US","latitude":"29.87679000","longitude":"-96.91976000"},{"id":"116494","name":"Ferris","state_id":1407,"state_code":"TX","country_id":233,"country_code":"US","latitude":"32.53403000","longitude":"-96.66555000"},{"id":"116506","name":"Fifth Street","state_id":1407,"state_code":"TX","country_id":233,"country_code":"US","latitude":"29.59829000","longitude":"-95.55133000"},{"id":"116528","name":"Fisher County","state_id":1407,"state_code":"TX","country_id":233,"country_code":"US","latitude":"32.74282000","longitude":"-100.40217000"},{"id":"116556","name":"Flatonia","state_id":1407,"state_code":"TX","country_id":233,"country_code":"US","latitude":"29.68773000","longitude":"-97.10860000"},{"id":"116581","name":"Florence","state_id":1407,"state_code":"TX","country_id":233,"country_code":"US","latitude":"30.84130000","longitude":"-97.79363000"},{"id":"116590","name":"Floresville","state_id":1407,"state_code":"TX","country_id":233,"country_code":"US","latitude":"29.13358000","longitude":"-98.15612000"},{"id":"116601","name":"Flower Mound","state_id":1407,"state_code":"TX","country_id":233,"country_code":"US","latitude":"33.01457000","longitude":"-97.09696000"},{"id":"116611","name":"Floyd County","state_id":1407,"state_code":"TX","country_id":233,"country_code":"US","latitude":"34.07242000","longitude":"-101.30323000"},{"id":"116612","name":"Floydada","state_id":1407,"state_code":"TX","country_id":233,"country_code":"US","latitude":"33.98452000","longitude":"-101.33766000"},{"id":"116616","name":"Foard County","state_id":1407,"state_code":"TX","country_id":233,"country_code":"US","latitude":"33.97462000","longitude":"-99.77798000"},{"id":"116655","name":"Forest Hill","state_id":1407,"state_code":"TX","country_id":233,"country_code":"US","latitude":"32.67208000","longitude":"-97.26918000"},{"id":"116677","name":"Forney","state_id":1407,"state_code":"TX","country_id":233,"country_code":"US","latitude":"32.74818000","longitude":"-96.47193000"},{"id":"116692","name":"Fort Bend County","state_id":1407,"state_code":"TX","country_id":233,"country_code":"US","latitude":"29.52749000","longitude":"-95.77089000"},{"id":"116694","name":"Fort Bliss","state_id":1407,"state_code":"TX","country_id":233,"country_code":"US","latitude":"31.81357000","longitude":"-106.41224000"},{"id":"116700","name":"Fort Clark Springs","state_id":1407,"state_code":"TX","country_id":233,"country_code":"US","latitude":"29.30607000","longitude":"-100.42202000"},{"id":"116703","name":"Fort Davis","state_id":1407,"state_code":"TX","country_id":233,"country_code":"US","latitude":"30.58821000","longitude":"-103.89463000"},{"id":"116716","name":"Fort Hancock","state_id":1407,"state_code":"TX","country_id":233,"country_code":"US","latitude":"31.29846000","longitude":"-105.84525000"},{"id":"116717","name":"Fort Hood","state_id":1407,"state_code":"TX","country_id":233,"country_code":"US","latitude":"31.13489000","longitude":"-97.77561000"},{"id":"116752","name":"Fort Stockton","state_id":1407,"state_code":"TX","country_id":233,"country_code":"US","latitude":"30.89404000","longitude":"-102.87932000"},{"id":"116764","name":"Fort Worth","state_id":1407,"state_code":"TX","country_id":233,"country_code":"US","latitude":"32.72541000","longitude":"-97.32085000"},{"id":"116788","name":"Four Corners","state_id":1407,"state_code":"TX","country_id":233,"country_code":"US","latitude":"29.66857000","longitude":"-95.65772000"},{"id":"116830","name":"Franklin","state_id":1407,"state_code":"TX","country_id":233,"country_code":"US","latitude":"31.02602000","longitude":"-96.48524000"},{"id":"116855","name":"Franklin County","state_id":1407,"state_code":"TX","country_id":233,"country_code":"US","latitude":"33.17555000","longitude":"-95.21842000"},{"id":"116877","name":"Frankston","state_id":1407,"state_code":"TX","country_id":233,"country_code":"US","latitude":"32.05266000","longitude":"-95.50635000"},{"id":"116890","name":"Fredericksburg","state_id":1407,"state_code":"TX","country_id":233,"country_code":"US","latitude":"30.27520000","longitude":"-98.87198000"},{"id":"116911","name":"Freeport","state_id":1407,"state_code":"TX","country_id":233,"country_code":"US","latitude":"28.95414000","longitude":"-95.35966000"},{"id":"116916","name":"Freer","state_id":1407,"state_code":"TX","country_id":233,"country_code":"US","latitude":"27.88280000","longitude":"-98.61779000"},{"id":"116917","name":"Freestone County","state_id":1407,"state_code":"TX","country_id":233,"country_code":"US","latitude":"31.70489000","longitude":"-96.14909000"},{"id":"116938","name":"Fresno","state_id":1407,"state_code":"TX","country_id":233,"country_code":"US","latitude":"29.53885000","longitude":"-95.44744000"},{"id":"116952","name":"Friendswood","state_id":1407,"state_code":"TX","country_id":233,"country_code":"US","latitude":"29.52940000","longitude":"-95.20104000"},{"id":"116953","name":"Frio County","state_id":1407,"state_code":"TX","country_id":233,"country_code":"US","latitude":"28.86782000","longitude":"-99.10827000"},{"id":"116954","name":"Friona","state_id":1407,"state_code":"TX","country_id":233,"country_code":"US","latitude":"34.64173000","longitude":"-102.72410000"},{"id":"116955","name":"Frisco","state_id":1407,"state_code":"TX","country_id":233,"country_code":"US","latitude":"33.15067000","longitude":"-96.82361000"},{"id":"116958","name":"Fritch","state_id":1407,"state_code":"TX","country_id":233,"country_code":"US","latitude":"35.63977000","longitude":"-101.60323000"},{"id":"116984","name":"Fulshear","state_id":1407,"state_code":"TX","country_id":233,"country_code":"US","latitude":"29.68996000","longitude":"-95.89968000"},{"id":"116989","name":"Fulton","state_id":1407,"state_code":"TX","country_id":233,"country_code":"US","latitude":"28.06140000","longitude":"-97.04110000"},{"id":"117011","name":"Gail","state_id":1407,"state_code":"TX","country_id":233,"country_code":"US","latitude":"32.77038000","longitude":"-101.44541000"},{"id":"117012","name":"Gaines County","state_id":1407,"state_code":"TX","country_id":233,"country_code":"US","latitude":"32.74073000","longitude":"-102.63518000"},{"id":"117017","name":"Gainesville","state_id":1407,"state_code":"TX","country_id":233,"country_code":"US","latitude":"33.62594000","longitude":"-97.13335000"},{"id":"117025","name":"Galena Park","state_id":1407,"state_code":"TX","country_id":233,"country_code":"US","latitude":"29.73356000","longitude":"-95.23021000"},{"id":"117042","name":"Galveston","state_id":1407,"state_code":"TX","country_id":233,"country_code":"US","latitude":"29.30135000","longitude":"-94.79770000"},{"id":"117044","name":"Galveston County","state_id":1407,"state_code":"TX","country_id":233,"country_code":"US","latitude":"29.29767000","longitude":"-94.81087000"},{"id":"117047","name":"Ganado","state_id":1407,"state_code":"TX","country_id":233,"country_code":"US","latitude":"29.04054000","longitude":"-96.51358000"},{"id":"117060","name":"Garden City","state_id":1407,"state_code":"TX","country_id":233,"country_code":"US","latitude":"31.86402000","longitude":"-101.48123000"},{"id":"117067","name":"Garden Ridge","state_id":1407,"state_code":"TX","country_id":233,"country_code":"US","latitude":"29.63467000","longitude":"-98.30529000"},{"id":"117071","name":"Gardendale","state_id":1407,"state_code":"TX","country_id":233,"country_code":"US","latitude":"32.02040000","longitude":"-102.38015000"},{"id":"117080","name":"Garfield","state_id":1407,"state_code":"TX","country_id":233,"country_code":"US","latitude":"30.18744000","longitude":"-97.55778000"},{"id":"117088","name":"Garland","state_id":1407,"state_code":"TX","country_id":233,"country_code":"US","latitude":"32.91262000","longitude":"-96.63888000"},{"id":"117108","name":"Garza County","state_id":1407,"state_code":"TX","country_id":233,"country_code":"US","latitude":"33.17988000","longitude":"-101.29842000"},{"id":"117122","name":"Gatesville","state_id":1407,"state_code":"TX","country_id":233,"country_code":"US","latitude":"31.43516000","longitude":"-97.74391000"},{"id":"117154","name":"George West","state_id":1407,"state_code":"TX","country_id":233,"country_code":"US","latitude":"28.33250000","longitude":"-98.11751000"},{"id":"117160","name":"Georgetown","state_id":1407,"state_code":"TX","country_id":233,"country_code":"US","latitude":"30.63269000","longitude":"-97.67723000"},{"id":"117177","name":"Geronimo","state_id":1407,"state_code":"TX","country_id":233,"country_code":"US","latitude":"29.66300000","longitude":"-97.96695000"},{"id":"117181","name":"Gholson","state_id":1407,"state_code":"TX","country_id":233,"country_code":"US","latitude":"31.70100000","longitude":"-97.21640000"},{"id":"117195","name":"Giddings","state_id":1407,"state_code":"TX","country_id":233,"country_code":"US","latitude":"30.18272000","longitude":"-96.93637000"},{"id":"117215","name":"Gillespie County","state_id":1407,"state_code":"TX","country_id":233,"country_code":"US","latitude":"30.31806000","longitude":"-98.94648000"},{"id":"117221","name":"Gilmer","state_id":1407,"state_code":"TX","country_id":233,"country_code":"US","latitude":"32.72875000","longitude":"-94.94244000"},{"id":"117235","name":"Gladewater","state_id":1407,"state_code":"TX","country_id":233,"country_code":"US","latitude":"32.53653000","longitude":"-94.94272000"},{"id":"117252","name":"Glasscock County","state_id":1407,"state_code":"TX","country_id":233,"country_code":"US","latitude":"31.86946000","longitude":"-101.52080000"},{"id":"117274","name":"Glen Rose","state_id":1407,"state_code":"TX","country_id":233,"country_code":"US","latitude":"32.23459000","longitude":"-97.75531000"},{"id":"117298","name":"Glenn Heights","state_id":1407,"state_code":"TX","country_id":233,"country_code":"US","latitude":"32.54875000","longitude":"-96.85667000"},{"id":"117335","name":"Godley","state_id":1407,"state_code":"TX","country_id":233,"country_code":"US","latitude":"32.44903000","longitude":"-97.52669000"},{"id":"117366","name":"Goldthwaite","state_id":1407,"state_code":"TX","country_id":233,"country_code":"US","latitude":"31.44989000","longitude":"-98.57088000"},{"id":"117368","name":"Goliad","state_id":1407,"state_code":"TX","country_id":233,"country_code":"US","latitude":"28.66833000","longitude":"-97.38833000"},{"id":"117369","name":"Goliad County","state_id":1407,"state_code":"TX","country_id":233,"country_code":"US","latitude":"28.65710000","longitude":"-97.42649000"},{"id":"117371","name":"Gonzales","state_id":1407,"state_code":"TX","country_id":233,"country_code":"US","latitude":"29.50163000","longitude":"-97.45249000"},{"id":"117373","name":"Gonzales County","state_id":1407,"state_code":"TX","country_id":233,"country_code":"US","latitude":"29.45673000","longitude":"-97.49252000"},{"id":"117406","name":"Gorman","state_id":1407,"state_code":"TX","country_id":233,"country_code":"US","latitude":"32.21375000","longitude":"-98.67061000"},{"id":"117435","name":"Graham","state_id":1407,"state_code":"TX","country_id":233,"country_code":"US","latitude":"33.10706000","longitude":"-98.58950000"},{"id":"117445","name":"Granbury","state_id":1407,"state_code":"TX","country_id":233,"country_code":"US","latitude":"32.44208000","longitude":"-97.79420000"},{"id":"117471","name":"Grand Prairie","state_id":1407,"state_code":"TX","country_id":233,"country_code":"US","latitude":"32.74596000","longitude":"-96.99778000"},{"id":"117475","name":"Grand Saline","state_id":1407,"state_code":"TX","country_id":233,"country_code":"US","latitude":"32.67346000","longitude":"-95.70941000"},{"id":"117480","name":"Grandview","state_id":1407,"state_code":"TX","country_id":233,"country_code":"US","latitude":"32.27042000","longitude":"-97.17918000"},{"id":"117486","name":"Granger","state_id":1407,"state_code":"TX","country_id":233,"country_code":"US","latitude":"30.71769000","longitude":"-97.44278000"},{"id":"117501","name":"Granite Shoals","state_id":1407,"state_code":"TX","country_id":233,"country_code":"US","latitude":"30.58908000","longitude":"-98.38392000"},{"id":"117538","name":"Grape Creek","state_id":1407,"state_code":"TX","country_id":233,"country_code":"US","latitude":"31.57932000","longitude":"-100.54760000"},{"id":"117539","name":"Grapeland","state_id":1407,"state_code":"TX","country_id":233,"country_code":"US","latitude":"31.49185000","longitude":"-95.47856000"},{"id":"117540","name":"Grapevine","state_id":1407,"state_code":"TX","country_id":233,"country_code":"US","latitude":"32.93429000","longitude":"-97.07807000"},{"id":"117554","name":"Gray County","state_id":1407,"state_code":"TX","country_id":233,"country_code":"US","latitude":"35.40116000","longitude":"-100.81256000"},{"id":"117563","name":"Grayson County","state_id":1407,"state_code":"TX","country_id":233,"country_code":"US","latitude":"33.62681000","longitude":"-96.67772000"},{"id":"117583","name":"Greatwood","state_id":1407,"state_code":"TX","country_id":233,"country_code":"US","latitude":"29.55413000","longitude":"-95.67578000"},{"id":"117612","name":"Green Valley Farms","state_id":1407,"state_code":"TX","country_id":233,"country_code":"US","latitude":"26.12202000","longitude":"-97.56054000"},{"id":"117689","name":"Greenville","state_id":1407,"state_code":"TX","country_id":233,"country_code":"US","latitude":"33.13845000","longitude":"-96.11081000"},{"id":"117715","name":"Gregg County","state_id":1407,"state_code":"TX","country_id":233,"country_code":"US","latitude":"32.48047000","longitude":"-94.81695000"},{"id":"117716","name":"Gregory","state_id":1407,"state_code":"TX","country_id":233,"country_code":"US","latitude":"27.92224000","longitude":"-97.28999000"},{"id":"117738","name":"Grimes County","state_id":1407,"state_code":"TX","country_id":233,"country_code":"US","latitude":"30.54347000","longitude":"-95.98550000"},{"id":"117742","name":"Groesbeck","state_id":1407,"state_code":"TX","country_id":233,"country_code":"US","latitude":"31.52434000","longitude":"-96.53387000"},{"id":"117761","name":"Groves","state_id":1407,"state_code":"TX","country_id":233,"country_code":"US","latitude":"29.94827000","longitude":"-93.91712000"},{"id":"117762","name":"Groveton","state_id":1407,"state_code":"TX","country_id":233,"country_code":"US","latitude":"31.05491000","longitude":"-95.12577000"},{"id":"117774","name":"Gruver","state_id":1407,"state_code":"TX","country_id":233,"country_code":"US","latitude":"36.26503000","longitude":"-101.40627000"},{"id":"117778","name":"Guadalupe County","state_id":1407,"state_code":"TX","country_id":233,"country_code":"US","latitude":"29.58305000","longitude":"-97.94858000"},{"id":"117800","name":"Gun Barrel City","state_id":1407,"state_code":"TX","country_id":233,"country_code":"US","latitude":"32.33459000","longitude":"-96.15136000"},{"id":"117805","name":"Gunter","state_id":1407,"state_code":"TX","country_id":233,"country_code":"US","latitude":"33.44789000","longitude":"-96.74749000"},{"id":"117813","name":"Guthrie","state_id":1407,"state_code":"TX","country_id":233,"country_code":"US","latitude":"33.62064000","longitude":"-100.32289000"},{"id":"117827","name":"Hackberry","state_id":1407,"state_code":"TX","country_id":233,"country_code":"US","latitude":"33.15234000","longitude":"-96.91778000"},{"id":"117847","name":"Hale Center","state_id":1407,"state_code":"TX","country_id":233,"country_code":"US","latitude":"34.06424000","longitude":"-101.84379000"},{"id":"117849","name":"Hale County","state_id":1407,"state_code":"TX","country_id":233,"country_code":"US","latitude":"34.07051000","longitude":"-101.82688000"},{"id":"117866","name":"Hall County","state_id":1407,"state_code":"TX","country_id":233,"country_code":"US","latitude":"34.53078000","longitude":"-100.68113000"},{"id":"117870","name":"Hallettsville","state_id":1407,"state_code":"TX","country_id":233,"country_code":"US","latitude":"29.44385000","longitude":"-96.94109000"},{"id":"117876","name":"Hallsville","state_id":1407,"state_code":"TX","country_id":233,"country_code":"US","latitude":"32.50432000","longitude":"-94.57409000"},{"id":"117878","name":"Haltom City","state_id":1407,"state_code":"TX","country_id":233,"country_code":"US","latitude":"32.79957000","longitude":"-97.26918000"},{"id":"117890","name":"Hamilton","state_id":1407,"state_code":"TX","country_id":233,"country_code":"US","latitude":"31.70377000","longitude":"-98.12392000"},{"id":"117899","name":"Hamilton County","state_id":1407,"state_code":"TX","country_id":233,"country_code":"US","latitude":"31.70480000","longitude":"-98.11073000"},{"id":"117910","name":"Hamlin","state_id":1407,"state_code":"TX","country_id":233,"country_code":"US","latitude":"32.88483000","longitude":"-100.12649000"},{"id":"117977","name":"Hansford County","state_id":1407,"state_code":"TX","country_id":233,"country_code":"US","latitude":"36.27745000","longitude":"-101.35454000"},{"id":"117996","name":"Hardeman County","state_id":1407,"state_code":"TX","country_id":233,"country_code":"US","latitude":"34.29029000","longitude":"-99.74572000"},{"id":"118002","name":"Hardin County","state_id":1407,"state_code":"TX","country_id":233,"country_code":"US","latitude":"30.33237000","longitude":"-94.39022000"},{"id":"118013","name":"Harker Heights","state_id":1407,"state_code":"TX","country_id":233,"country_code":"US","latitude":"31.08351000","longitude":"-97.65974000"},{"id":"118026","name":"Harlingen","state_id":1407,"state_code":"TX","country_id":233,"country_code":"US","latitude":"26.19063000","longitude":"-97.69610000"},{"id":"118032","name":"Harper","state_id":1407,"state_code":"TX","country_id":233,"country_code":"US","latitude":"30.29992000","longitude":"-99.24421000"},{"id":"118045","name":"Harris County","state_id":1407,"state_code":"TX","country_id":233,"country_code":"US","latitude":"29.85728000","longitude":"-95.39234000"},{"id":"118065","name":"Harrison County","state_id":1407,"state_code":"TX","country_id":233,"country_code":"US","latitude":"32.54813000","longitude":"-94.37149000"},{"id":"118081","name":"Hart","state_id":1407,"state_code":"TX","country_id":233,"country_code":"US","latitude":"34.38507000","longitude":"-102.11574000"},{"id":"118100","name":"Hartley County","state_id":1407,"state_code":"TX","country_id":233,"country_code":"US","latitude":"35.84002000","longitude":"-102.60289000"},{"id":"118124","name":"Haskell","state_id":1407,"state_code":"TX","country_id":233,"country_code":"US","latitude":"33.15760000","longitude":"-99.73370000"},{"id":"118126","name":"Haskell County","state_id":1407,"state_code":"TX","country_id":233,"country_code":"US","latitude":"33.17823000","longitude":"-99.73030000"},{"id":"118128","name":"Haslet","state_id":1407,"state_code":"TX","country_id":233,"country_code":"US","latitude":"32.97485000","longitude":"-97.34780000"},{"id":"118165","name":"Hawkins","state_id":1407,"state_code":"TX","country_id":233,"country_code":"US","latitude":"32.58847000","longitude":"-95.20411000"},{"id":"118192","name":"Hays County","state_id":1407,"state_code":"TX","country_id":233,"country_code":"US","latitude":"30.05815000","longitude":"-98.03106000"},{"id":"118221","name":"Hearne","state_id":1407,"state_code":"TX","country_id":233,"country_code":"US","latitude":"30.87852000","longitude":"-96.59303000"},{"id":"118222","name":"Heath","state_id":1407,"state_code":"TX","country_id":233,"country_code":"US","latitude":"32.83651000","longitude":"-96.47499000"},{"id":"118227","name":"Hebbronville","state_id":1407,"state_code":"TX","country_id":233,"country_code":"US","latitude":"27.30688000","longitude":"-98.68032000"},{"id":"118242","name":"Hedwig Village","state_id":1407,"state_code":"TX","country_id":233,"country_code":"US","latitude":"29.77745000","longitude":"-95.51716000"},{"id":"118244","name":"Heidelberg","state_id":1407,"state_code":"TX","country_id":233,"country_code":"US","latitude":"26.19702000","longitude":"-97.88028000"},{"id":"118261","name":"Helotes","state_id":1407,"state_code":"TX","country_id":233,"country_code":"US","latitude":"29.57801000","longitude":"-98.68975000"},{"id":"118267","name":"Hemphill","state_id":1407,"state_code":"TX","country_id":233,"country_code":"US","latitude":"31.34074000","longitude":"-93.84685000"},{"id":"118268","name":"Hemphill County","state_id":1407,"state_code":"TX","country_id":233,"country_code":"US","latitude":"35.83757000","longitude":"-100.27047000"},{"id":"118269","name":"Hempstead","state_id":1407,"state_code":"TX","country_id":233,"country_code":"US","latitude":"30.09744000","longitude":"-96.07829000"},{"id":"118273","name":"Henderson","state_id":1407,"state_code":"TX","country_id":233,"country_code":"US","latitude":"32.15322000","longitude":"-94.79938000"},{"id":"118283","name":"Henderson County","state_id":1407,"state_code":"TX","country_id":233,"country_code":"US","latitude":"32.21189000","longitude":"-95.85356000"},{"id":"118295","name":"Henrietta","state_id":1407,"state_code":"TX","country_id":233,"country_code":"US","latitude":"33.81732000","longitude":"-98.19532000"},{"id":"118315","name":"Hereford","state_id":1407,"state_code":"TX","country_id":233,"country_code":"US","latitude":"34.81521000","longitude":"-102.39932000"},{"id":"118348","name":"Hewitt","state_id":1407,"state_code":"TX","country_id":233,"country_code":"US","latitude":"31.46239000","longitude":"-97.19584000"},{"id":"118367","name":"Hickory Creek","state_id":1407,"state_code":"TX","country_id":233,"country_code":"US","latitude":"33.12234000","longitude":"-97.04306000"},{"id":"118372","name":"Hico","state_id":1407,"state_code":"TX","country_id":233,"country_code":"US","latitude":"31.98293000","longitude":"-98.03365000"},{"id":"118373","name":"Hidalgo","state_id":1407,"state_code":"TX","country_id":233,"country_code":"US","latitude":"26.10035000","longitude":"-98.26307000"},{"id":"118374","name":"Hidalgo County","state_id":1407,"state_code":"TX","country_id":233,"country_code":"US","latitude":"26.39672000","longitude":"-98.18107000"},{"id":"118382","name":"Hideaway","state_id":1407,"state_code":"TX","country_id":233,"country_code":"US","latitude":"32.49042000","longitude":"-95.45746000"},{"id":"118410","name":"Highland Park","state_id":1407,"state_code":"TX","country_id":233,"country_code":"US","latitude":"32.83346000","longitude":"-96.79195000"},{"id":"118416","name":"Highland Village","state_id":1407,"state_code":"TX","country_id":233,"country_code":"US","latitude":"33.09179000","longitude":"-97.04668000"},{"id":"118417","name":"Highlands","state_id":1407,"state_code":"TX","country_id":233,"country_code":"US","latitude":"29.81884000","longitude":"-95.05604000"},{"id":"118435","name":"Hill Country Village","state_id":1407,"state_code":"TX","country_id":233,"country_code":"US","latitude":"29.58245000","longitude":"-98.49085000"},{"id":"118436","name":"Hill County","state_id":1407,"state_code":"TX","country_id":233,"country_code":"US","latitude":"31.99068000","longitude":"-97.13243000"},{"id":"118449","name":"Hillsboro","state_id":1407,"state_code":"TX","country_id":233,"country_code":"US","latitude":"32.01099000","longitude":"-97.13001000"},{"id":"118469","name":"Hilltop Lakes","state_id":1407,"state_code":"TX","country_id":233,"country_code":"US","latitude":"31.07935000","longitude":"-96.20385000"},{"id":"118492","name":"Hitchcock","state_id":1407,"state_code":"TX","country_id":233,"country_code":"US","latitude":"29.34829000","longitude":"-95.01604000"},{"id":"118505","name":"Hockley County","state_id":1407,"state_code":"TX","country_id":233,"country_code":"US","latitude":"33.60764000","longitude":"-102.34320000"},{"id":"118534","name":"Holiday Lakes","state_id":1407,"state_code":"TX","country_id":233,"country_code":"US","latitude":"29.20969000","longitude":"-95.51689000"},{"id":"118537","name":"Holland","state_id":1407,"state_code":"TX","country_id":233,"country_code":"US","latitude":"30.87824000","longitude":"-97.40167000"},{"id":"118544","name":"Holliday","state_id":1407,"state_code":"TX","country_id":233,"country_code":"US","latitude":"33.81621000","longitude":"-98.69506000"},{"id":"118559","name":"Holly Lake Ranch","state_id":1407,"state_code":"TX","country_id":233,"country_code":"US","latitude":"32.71336000","longitude":"-95.19756000"},{"id":"118568","name":"Hollywood Park","state_id":1407,"state_code":"TX","country_id":233,"country_code":"US","latitude":"29.60050000","longitude":"-98.48724000"},{"id":"118603","name":"Homestead Meadows North","state_id":1407,"state_code":"TX","country_id":233,"country_code":"US","latitude":"31.84963000","longitude":"-106.17285000"},{"id":"118604","name":"Homestead Meadows South","state_id":1407,"state_code":"TX","country_id":233,"country_code":"US","latitude":"31.81097000","longitude":"-106.16427000"},{"id":"118615","name":"Hondo","state_id":1407,"state_code":"TX","country_id":233,"country_code":"US","latitude":"29.34746000","longitude":"-99.14142000"},{"id":"118620","name":"Honey Grove","state_id":1407,"state_code":"TX","country_id":233,"country_code":"US","latitude":"33.58344000","longitude":"-95.90997000"},{"id":"118625","name":"Hood County","state_id":1407,"state_code":"TX","country_id":233,"country_code":"US","latitude":"32.42993000","longitude":"-97.83227000"},{"id":"118630","name":"Hooks","state_id":1407,"state_code":"TX","country_id":233,"country_code":"US","latitude":"33.46623000","longitude":"-94.28853000"},{"id":"118654","name":"Hopkins County","state_id":1407,"state_code":"TX","country_id":233,"country_code":"US","latitude":"33.14956000","longitude":"-95.56395000"},{"id":"118664","name":"Horizon City","state_id":1407,"state_code":"TX","country_id":233,"country_code":"US","latitude":"31.69261000","longitude":"-106.20748000"},{"id":"118668","name":"Hornsby Bend","state_id":1407,"state_code":"TX","country_id":233,"country_code":"US","latitude":"30.24743000","longitude":"-97.58333000"},{"id":"118675","name":"Horseshoe Bay","state_id":1407,"state_code":"TX","country_id":233,"country_code":"US","latitude":"30.54429000","longitude":"-98.37394000"},{"id":"118699","name":"Houston","state_id":1407,"state_code":"TX","country_id":233,"country_code":"US","latitude":"29.76328000","longitude":"-95.36327000"},{"id":"118705","name":"Houston County","state_id":1407,"state_code":"TX","country_id":233,"country_code":"US","latitude":"31.31773000","longitude":"-95.42268000"},{"id":"118718","name":"Howard County","state_id":1407,"state_code":"TX","country_id":233,"country_code":"US","latitude":"32.30617000","longitude":"-101.43551000"},{"id":"118721","name":"Howe","state_id":1407,"state_code":"TX","country_id":233,"country_code":"US","latitude":"33.50872000","longitude":"-96.61221000"},{"id":"118730","name":"Hubbard","state_id":1407,"state_code":"TX","country_id":233,"country_code":"US","latitude":"31.84849000","longitude":"-96.79721000"},{"id":"118737","name":"Hudson","state_id":1407,"state_code":"TX","country_id":233,"country_code":"US","latitude":"31.32268000","longitude":"-94.77826000"},{"id":"118748","name":"Hudson Bend","state_id":1407,"state_code":"TX","country_id":233,"country_code":"US","latitude":"30.41714000","longitude":"-97.92918000"},{"id":"118752","name":"Hudson Oaks","state_id":1407,"state_code":"TX","country_id":233,"country_code":"US","latitude":"32.75707000","longitude":"-97.70670000"},{"id":"118754","name":"Hudspeth County","state_id":1407,"state_code":"TX","country_id":233,"country_code":"US","latitude":"31.45618000","longitude":"-105.38646000"},{"id":"118760","name":"Hughes Springs","state_id":1407,"state_code":"TX","country_id":233,"country_code":"US","latitude":"32.99846000","longitude":"-94.63076000"},{"id":"118774","name":"Humble","state_id":1407,"state_code":"TX","country_id":233,"country_code":"US","latitude":"29.99883000","longitude":"-95.26216000"},{"id":"118786","name":"Hunt County","state_id":1407,"state_code":"TX","country_id":233,"country_code":"US","latitude":"33.12360000","longitude":"-96.08545000"},{"id":"118791","name":"Hunters Creek Village","state_id":1407,"state_code":"TX","country_id":233,"country_code":"US","latitude":"29.77051000","longitude":"-95.49550000"},{"id":"118798","name":"Huntington","state_id":1407,"state_code":"TX","country_id":233,"country_code":"US","latitude":"31.27769000","longitude":"-94.57659000"},{"id":"118818","name":"Huntsville","state_id":1407,"state_code":"TX","country_id":233,"country_code":"US","latitude":"30.72353000","longitude":"-95.55078000"},{"id":"118829","name":"Hurst","state_id":1407,"state_code":"TX","country_id":233,"country_code":"US","latitude":"32.82346000","longitude":"-97.17057000"},{"id":"118834","name":"Hutchins","state_id":1407,"state_code":"TX","country_id":233,"country_code":"US","latitude":"32.64930000","longitude":"-96.71305000"},{"id":"118838","name":"Hutchinson County","state_id":1407,"state_code":"TX","country_id":233,"country_code":"US","latitude":"35.84003000","longitude":"-101.35470000"},{"id":"118840","name":"Hutto","state_id":1407,"state_code":"TX","country_id":233,"country_code":"US","latitude":"30.54270000","longitude":"-97.54667000"},{"id":"118873","name":"Idalou","state_id":1407,"state_code":"TX","country_id":233,"country_code":"US","latitude":"33.66647000","longitude":"-101.68294000"},{"id":"118907","name":"Indian Hills","state_id":1407,"state_code":"TX","country_id":233,"country_code":"US","latitude":"26.21285000","longitude":"-97.91639000"},{"id":"118932","name":"Inez","state_id":1407,"state_code":"TX","country_id":233,"country_code":"US","latitude":"28.90388000","longitude":"-96.78804000"},{"id":"118936","name":"Ingleside","state_id":1407,"state_code":"TX","country_id":233,"country_code":"US","latitude":"27.87780000","longitude":"-97.21166000"},{"id":"118940","name":"Ingram","state_id":1407,"state_code":"TX","country_id":233,"country_code":"US","latitude":"30.07743000","longitude":"-99.24032000"},{"id":"118977","name":"Iowa Colony","state_id":1407,"state_code":"TX","country_id":233,"country_code":"US","latitude":"29.48246000","longitude":"-95.41550000"},{"id":"118981","name":"Iowa Park","state_id":1407,"state_code":"TX","country_id":233,"country_code":"US","latitude":"33.95148000","longitude":"-98.66867000"},{"id":"118984","name":"Iraan","state_id":1407,"state_code":"TX","country_id":233,"country_code":"US","latitude":"30.91405000","longitude":"-101.89791000"},{"id":"118986","name":"Irion County","state_id":1407,"state_code":"TX","country_id":233,"country_code":"US","latitude":"31.30392000","longitude":"-100.98242000"},{"id":"119005","name":"Irving","state_id":1407,"state_code":"TX","country_id":233,"country_code":"US","latitude":"32.81402000","longitude":"-96.94889000"},{"id":"119038","name":"Italy","state_id":1407,"state_code":"TX","country_id":233,"country_code":"US","latitude":"32.18404000","longitude":"-96.88472000"},{"id":"119039","name":"Itasca","state_id":1407,"state_code":"TX","country_id":233,"country_code":"US","latitude":"32.15959000","longitude":"-97.15001000"},{"id":"119055","name":"Jacinto City","state_id":1407,"state_code":"TX","country_id":233,"country_code":"US","latitude":"29.76745000","longitude":"-95.23382000"},{"id":"119056","name":"Jack County","state_id":1407,"state_code":"TX","country_id":233,"country_code":"US","latitude":"33.23346000","longitude":"-98.17246000"},{"id":"119059","name":"Jacksboro","state_id":1407,"state_code":"TX","country_id":233,"country_code":"US","latitude":"33.21845000","longitude":"-98.15866000"},{"id":"119088","name":"Jackson County","state_id":1407,"state_code":"TX","country_id":233,"country_code":"US","latitude":"28.95424000","longitude":"-96.57768000"},{"id":"119104","name":"Jacksonville","state_id":1407,"state_code":"TX","country_id":233,"country_code":"US","latitude":"31.96378000","longitude":"-95.27050000"},{"id":"119113","name":"Jamaica Beach","state_id":1407,"state_code":"TX","country_id":233,"country_code":"US","latitude":"29.18968000","longitude":"-94.97965000"},{"id":"119134","name":"Jarrell","state_id":1407,"state_code":"TX","country_id":233,"country_code":"US","latitude":"30.82491000","longitude":"-97.60445000"},{"id":"119144","name":"Jasper","state_id":1407,"state_code":"TX","country_id":233,"country_code":"US","latitude":"30.92020000","longitude":"-93.99658000"},{"id":"119150","name":"Jasper County","state_id":1407,"state_code":"TX","country_id":233,"country_code":"US","latitude":"30.74396000","longitude":"-94.02509000"},{"id":"119156","name":"Jayton","state_id":1407,"state_code":"TX","country_id":233,"country_code":"US","latitude":"33.24815000","longitude":"-100.57373000"},{"id":"119161","name":"Jeff Davis County","state_id":1407,"state_code":"TX","country_id":233,"country_code":"US","latitude":"30.71548000","longitude":"-104.14002000"},{"id":"119166","name":"Jefferson","state_id":1407,"state_code":"TX","country_id":233,"country_code":"US","latitude":"32.75736000","longitude":"-94.34519000"},{"id":"119187","name":"Jefferson County","state_id":1407,"state_code":"TX","country_id":233,"country_code":"US","latitude":"29.85373000","longitude":"-94.15344000"},{"id":"119234","name":"Jersey Village","state_id":1407,"state_code":"TX","country_id":233,"country_code":"US","latitude":"29.88772000","longitude":"-95.56300000"},{"id":"119244","name":"Jewett","state_id":1407,"state_code":"TX","country_id":233,"country_code":"US","latitude":"31.36157000","longitude":"-96.14413000"},{"id":"119246","name":"Jim Hogg County","state_id":1407,"state_code":"TX","country_id":233,"country_code":"US","latitude":"27.04340000","longitude":"-98.69731000"},{"id":"119248","name":"Jim Wells County","state_id":1407,"state_code":"TX","country_id":233,"country_code":"US","latitude":"27.73130000","longitude":"-98.08994000"},{"id":"119258","name":"Johnson City","state_id":1407,"state_code":"TX","country_id":233,"country_code":"US","latitude":"30.27687000","longitude":"-98.41197000"},{"id":"119268","name":"Johnson County","state_id":1407,"state_code":"TX","country_id":233,"country_code":"US","latitude":"32.37901000","longitude":"-97.36633000"},{"id":"119290","name":"Jollyville","state_id":1407,"state_code":"TX","country_id":233,"country_code":"US","latitude":"30.44270000","longitude":"-97.77501000"},{"id":"119295","name":"Jones County","state_id":1407,"state_code":"TX","country_id":233,"country_code":"US","latitude":"32.73990000","longitude":"-99.87874000"},{"id":"119298","name":"Jones Creek","state_id":1407,"state_code":"TX","country_id":233,"country_code":"US","latitude":"28.96858000","longitude":"-95.45522000"},{"id":"119307","name":"Jonestown","state_id":1407,"state_code":"TX","country_id":233,"country_code":"US","latitude":"30.49547000","longitude":"-97.92335000"},{"id":"119320","name":"Josephine","state_id":1407,"state_code":"TX","country_id":233,"country_code":"US","latitude":"33.06123000","longitude":"-96.30720000"},{"id":"119322","name":"Joshua","state_id":1407,"state_code":"TX","country_id":233,"country_code":"US","latitude":"32.46153000","longitude":"-97.38807000"},{"id":"119324","name":"Jourdanton","state_id":1407,"state_code":"TX","country_id":233,"country_code":"US","latitude":"28.91803000","longitude":"-98.54641000"},{"id":"119331","name":"Junction","state_id":1407,"state_code":"TX","country_id":233,"country_code":"US","latitude":"30.48936000","longitude":"-99.77201000"},{"id":"119346","name":"Justin","state_id":1407,"state_code":"TX","country_id":233,"country_code":"US","latitude":"33.08484000","longitude":"-97.29613000"},{"id":"119389","name":"Karnes City","state_id":1407,"state_code":"TX","country_id":233,"country_code":"US","latitude":"28.88498000","longitude":"-97.90084000"},{"id":"119390","name":"Karnes County","state_id":1407,"state_code":"TX","country_id":233,"country_code":"US","latitude":"28.90574000","longitude":"-97.85940000"},{"id":"119395","name":"Katy","state_id":1407,"state_code":"TX","country_id":233,"country_code":"US","latitude":"29.78579000","longitude":"-95.82440000"},{"id":"119397","name":"Kaufman","state_id":1407,"state_code":"TX","country_id":233,"country_code":"US","latitude":"32.58902000","longitude":"-96.30887000"},{"id":"119398","name":"Kaufman County","state_id":1407,"state_code":"TX","country_id":233,"country_code":"US","latitude":"32.59930000","longitude":"-96.28780000"},{"id":"119420","name":"Keene","state_id":1407,"state_code":"TX","country_id":233,"country_code":"US","latitude":"32.39681000","longitude":"-97.32390000"},{"id":"119428","name":"Keller","state_id":1407,"state_code":"TX","country_id":233,"country_code":"US","latitude":"32.93457000","longitude":"-97.25168000"},{"id":"119433","name":"Kemah","state_id":1407,"state_code":"TX","country_id":233,"country_code":"US","latitude":"29.54273000","longitude":"-95.02048000"},{"id":"119435","name":"Kemp","state_id":1407,"state_code":"TX","country_id":233,"country_code":"US","latitude":"32.44264000","longitude":"-96.22998000"},{"id":"119438","name":"Kempner","state_id":1407,"state_code":"TX","country_id":233,"country_code":"US","latitude":"31.08101000","longitude":"-98.00252000"},{"id":"119446","name":"Kendall County","state_id":1407,"state_code":"TX","country_id":233,"country_code":"US","latitude":"29.94469000","longitude":"-98.71156000"},{"id":"119453","name":"Kenedy","state_id":1407,"state_code":"TX","country_id":233,"country_code":"US","latitude":"28.81915000","longitude":"-97.84861000"},{"id":"119454","name":"Kenedy County","state_id":1407,"state_code":"TX","country_id":233,"country_code":"US","latitude":"26.92802000","longitude":"-97.63646000"},{"id":"119468","name":"Kennedale","state_id":1407,"state_code":"TX","country_id":233,"country_code":"US","latitude":"32.64680000","longitude":"-97.22585000"},{"id":"119494","name":"Kent County","state_id":1407,"state_code":"TX","country_id":233,"country_code":"US","latitude":"33.18142000","longitude":"-100.77757000"},{"id":"119510","name":"Kerens","state_id":1407,"state_code":"TX","country_id":233,"country_code":"US","latitude":"32.13321000","longitude":"-96.22775000"},{"id":"119513","name":"Kermit","state_id":1407,"state_code":"TX","country_id":233,"country_code":"US","latitude":"31.85763000","longitude":"-103.09267000"},{"id":"119517","name":"Kerr County","state_id":1407,"state_code":"TX","country_id":233,"country_code":"US","latitude":"30.06148000","longitude":"-99.35016000"},{"id":"119518","name":"Kerrville","state_id":1407,"state_code":"TX","country_id":233,"country_code":"US","latitude":"30.04743000","longitude":"-99.14032000"},{"id":"119556","name":"Kilgore","state_id":1407,"state_code":"TX","country_id":233,"country_code":"US","latitude":"32.38626000","longitude":"-94.87577000"},{"id":"119559","name":"Killeen","state_id":1407,"state_code":"TX","country_id":233,"country_code":"US","latitude":"31.11712000","longitude":"-97.72780000"},{"id":"119572","name":"Kimble County","state_id":1407,"state_code":"TX","country_id":233,"country_code":"US","latitude":"30.48678000","longitude":"-99.74870000"},{"id":"119581","name":"King County","state_id":1407,"state_code":"TX","country_id":233,"country_code":"US","latitude":"33.61648000","longitude":"-100.25585000"},{"id":"119616","name":"Kingsland","state_id":1407,"state_code":"TX","country_id":233,"country_code":"US","latitude":"30.65824000","longitude":"-98.44058000"},{"id":"119636","name":"Kingsville","state_id":1407,"state_code":"TX","country_id":233,"country_code":"US","latitude":"27.51587000","longitude":"-97.85611000"},{"id":"119638","name":"Kingwood Area","state_id":1407,"state_code":"TX","country_id":233,"country_code":"US","latitude":"30.03355000","longitude":"-95.26104000"},{"id":"119640","name":"Kinney County","state_id":1407,"state_code":"TX","country_id":233,"country_code":"US","latitude":"29.35021000","longitude":"-100.41795000"},{"id":"119649","name":"Kirby","state_id":1407,"state_code":"TX","country_id":233,"country_code":"US","latitude":"29.46329000","longitude":"-98.38557000"},{"id":"119650","name":"Kirbyville","state_id":1407,"state_code":"TX","country_id":233,"country_code":"US","latitude":"30.66048000","longitude":"-93.89268000"},{"id":"119672","name":"Kleberg County","state_id":1407,"state_code":"TX","country_id":233,"country_code":"US","latitude":"27.42671000","longitude":"-97.66839000"},{"id":"119684","name":"Knox City","state_id":1407,"state_code":"TX","country_id":233,"country_code":"US","latitude":"33.41815000","longitude":"-99.81898000"},{"id":"119688","name":"Knox County","state_id":1407,"state_code":"TX","country_id":233,"country_code":"US","latitude":"33.60613000","longitude":"-99.74143000"},{"id":"119713","name":"Kountze","state_id":1407,"state_code":"TX","country_id":233,"country_code":"US","latitude":"30.37160000","longitude":"-94.31241000"},{"id":"119719","name":"Krugerville","state_id":1407,"state_code":"TX","country_id":233,"country_code":"US","latitude":"33.28151000","longitude":"-96.99056000"},{"id":"119720","name":"Krum","state_id":1407,"state_code":"TX","country_id":233,"country_code":"US","latitude":"33.26151000","longitude":"-97.23807000"},{"id":"119729","name":"Kyle","state_id":1407,"state_code":"TX","country_id":233,"country_code":"US","latitude":"29.98911000","longitude":"-97.87723000"},{"id":"119735","name":"La Blanca","state_id":1407,"state_code":"TX","country_id":233,"country_code":"US","latitude":"26.29285000","longitude":"-98.03778000"},{"id":"119740","name":"La Coste","state_id":1407,"state_code":"TX","country_id":233,"country_code":"US","latitude":"29.31079000","longitude":"-98.81003000"},{"id":"119747","name":"La Feria","state_id":1407,"state_code":"TX","country_id":233,"country_code":"US","latitude":"26.15896000","longitude":"-97.82389000"},{"id":"119751","name":"La Grange","state_id":1407,"state_code":"TX","country_id":233,"country_code":"US","latitude":"29.90550000","longitude":"-96.87665000"},{"id":"119754","name":"La Grulla","state_id":1407,"state_code":"TX","country_id":233,"country_code":"US","latitude":"26.26951000","longitude":"-98.64725000"},{"id":"119758","name":"La Homa","state_id":1407,"state_code":"TX","country_id":233,"country_code":"US","latitude":"26.25007000","longitude":"-98.36363000"},{"id":"119761","name":"La Joya","state_id":1407,"state_code":"TX","country_id":233,"country_code":"US","latitude":"26.24702000","longitude":"-98.48141000"},