[{"id":"111111","name":"Albany","state_id":1415,"state_code":"OR","country_id":233,"country_code":"US","latitude":"44.63651000","longitude":"-123.10593000"},{"id":"111214","name":"Aloha","state_id":1415,"state_code":"OR","country_id":233,"country_code":"US","latitude":"45.49428000","longitude":"-122.86705000"},{"id":"111236","name":"Altamont","state_id":1415,"state_code":"OR","country_id":233,"country_code":"US","latitude":"42.20681000","longitude":"-121.73722000"},{"id":"111290","name":"Amity","state_id":1415,"state_code":"OR","country_id":233,"country_code":"US","latitude":"45.11567000","longitude":"-123.20733000"},{"id":"111540","name":"Ashland","state_id":1415,"state_code":"OR","country_id":233,"country_code":"US","latitude":"42.19458000","longitude":"-122.70948000"},{"id":"111563","name":"Astoria","state_id":1415,"state_code":"OR","country_id":233,"country_code":"US","latitude":"46.18788000","longitude":"-123.83125000"},{"id":"111572","name":"Athena","state_id":1415,"state_code":"OR","country_id":233,"country_code":"US","latitude":"45.81180000","longitude":"-118.49053000"},{"id":"111655","name":"Aumsville","state_id":1415,"state_code":"OR","country_id":233,"country_code":"US","latitude":"44.84095000","longitude":"-122.87092000"},{"id":"111740","name":"Baker City","state_id":1415,"state_code":"OR","country_id":233,"country_code":"US","latitude":"44.77487000","longitude":"-117.83438000"},{"id":"111743","name":"Baker County","state_id":1415,"state_code":"OR","country_id":233,"country_code":"US","latitude":"44.70923000","longitude":"-117.67534000"},{"id":"111790","name":"Bandon","state_id":1415,"state_code":"OR","country_id":233,"country_code":"US","latitude":"43.11900000","longitude":"-124.40845000"},{"id":"111797","name":"Banks","state_id":1415,"state_code":"OR","country_id":233,"country_code":"US","latitude":"45.61872000","longitude":"-123.11428000"},{"id":"111874","name":"Barview","state_id":1415,"state_code":"OR","country_id":233,"country_code":"US","latitude":"43.35428000","longitude":"-124.31317000"},{"id":"111923","name":"Bay City","state_id":1415,"state_code":"OR","country_id":233,"country_code":"US","latitude":"45.52260000","longitude":"-123.88930000"},{"id":"112005","name":"Beavercreek","state_id":1415,"state_code":"OR","country_id":233,"country_code":"US","latitude":"45.28790000","longitude":"-122.53564000"},{"id":"112010","name":"Beaverton","state_id":1415,"state_code":"OR","country_id":233,"country_code":"US","latitude":"45.48706000","longitude":"-122.80371000"},{"id":"112166","name":"Bend","state_id":1415,"state_code":"OR","country_id":233,"country_code":"US","latitude":"44.05817000","longitude":"-121.31531000"},{"id":"112206","name":"Benton County","state_id":1415,"state_code":"OR","country_id":233,"country_code":"US","latitude":"44.49176000","longitude":"-123.42931000"},{"id":"112276","name":"Bethany","state_id":1415,"state_code":"OR","country_id":233,"country_code":"US","latitude":"45.55789000","longitude":"-122.86760000"},{"id":"112489","name":"Boardman","state_id":1415,"state_code":"OR","country_id":233,"country_code":"US","latitude":"45.83986000","longitude":"-119.70058000"},{"id":"112862","name":"Brookings","state_id":1415,"state_code":"OR","country_id":233,"country_code":"US","latitude":"42.05261000","longitude":"-124.28398000"},{"id":"112935","name":"Brownsville","state_id":1415,"state_code":"OR","country_id":233,"country_code":"US","latitude":"44.39346000","longitude":"-122.98481000"},{"id":"113041","name":"Bunker Hill","state_id":1415,"state_code":"OR","country_id":233,"country_code":"US","latitude":"43.35595000","longitude":"-124.20483000"},{"id":"113087","name":"Burns","state_id":1415,"state_code":"OR","country_id":233,"country_code":"US","latitude":"43.58626000","longitude":"-119.05410000"},{"id":"113322","name":"Canby","state_id":1415,"state_code":"OR","country_id":233,"country_code":"US","latitude":"45.26290000","longitude":"-122.69259000"},{"id":"113332","name":"Cannon Beach","state_id":1415,"state_code":"OR","country_id":233,"country_code":"US","latitude":"45.89177000","longitude":"-123.96153000"},{"id":"113355","name":"Canyon City","state_id":1415,"state_code":"OR","country_id":233,"country_code":"US","latitude":"44.38960000","longitude":"-118.95023000"},{"id":"113361","name":"Canyonville","state_id":1415,"state_code":"OR","country_id":233,"country_code":"US","latitude":"42.92734000","longitude":"-123.28117000"},{"id":"113412","name":"Carlton","state_id":1415,"state_code":"OR","country_id":233,"country_code":"US","latitude":"45.29428000","longitude":"-123.17649000"},{"id":"113516","name":"Cascade Locks","state_id":1415,"state_code":"OR","country_id":233,"country_code":"US","latitude":"45.66984000","longitude":"-121.89064000"},{"id":"113586","name":"Cave Junction","state_id":1415,"state_code":"OR","country_id":233,"country_code":"US","latitude":"42.16289000","longitude":"-123.64812000"},{"id":"113615","name":"Cedar Hills","state_id":1415,"state_code":"OR","country_id":233,"country_code":"US","latitude":"45.50484000","longitude":"-122.79843000"},{"id":"113618","name":"Cedar Mill","state_id":1415,"state_code":"OR","country_id":233,"country_code":"US","latitude":"45.52484000","longitude":"-122.81093000"},{"id":"113680","name":"Central Point","state_id":1415,"state_code":"OR","country_id":233,"country_code":"US","latitude":"42.37596000","longitude":"-122.91643000"},{"id":"113842","name":"Chenoweth","state_id":1415,"state_code":"OR","country_id":233,"country_code":"US","latitude":"45.62762000","longitude":"-121.24341000"},{"id":"114090","name":"Clackamas","state_id":1415,"state_code":"OR","country_id":233,"country_code":"US","latitude":"45.40762000","longitude":"-122.57037000"},{"id":"114091","name":"Clackamas County","state_id":1415,"state_code":"OR","country_id":233,"country_code":"US","latitude":"45.18816000","longitude":"-122.22094000"},{"id":"114160","name":"Clatskanie","state_id":1415,"state_code":"OR","country_id":233,"country_code":"US","latitude":"46.10122000","longitude":"-123.20679000"},{"id":"114161","name":"Clatsop County","state_id":1415,"state_code":"OR","country_id":233,"country_code":"US","latitude":"46.01747000","longitude":"-123.71677000"},{"id":"114348","name":"Coburg","state_id":1415,"state_code":"OR","country_id":233,"country_code":"US","latitude":"44.13707000","longitude":"-123.06648000"},{"id":"114476","name":"Columbia City","state_id":1415,"state_code":"OR","country_id":233,"country_code":"US","latitude":"45.89011000","longitude":"-122.80705000"},{"id":"114483","name":"Columbia County","state_id":1415,"state_code":"OR","country_id":233,"country_code":"US","latitude":"45.94377000","longitude":"-123.08805000"},{"id":"114549","name":"Condon","state_id":1415,"state_code":"OR","country_id":233,"country_code":"US","latitude":"45.23430000","longitude":"-120.18503000"},{"id":"114610","name":"Coos Bay","state_id":1415,"state_code":"OR","country_id":233,"country_code":"US","latitude":"43.36650000","longitude":"-124.21789000"},{"id":"114612","name":"Coos County","state_id":1415,"state_code":"OR","country_id":233,"country_code":"US","latitude":"43.18501000","longitude":"-124.09333000"},{"id":"114623","name":"Coquille","state_id":1415,"state_code":"OR","country_id":233,"country_code":"US","latitude":"43.17705000","longitude":"-124.18761000"},{"id":"114648","name":"Cornelius","state_id":1415,"state_code":"OR","country_id":233,"country_code":"US","latitude":"45.51984000","longitude":"-123.05983000"},{"id":"114680","name":"Corvallis","state_id":1415,"state_code":"OR","country_id":233,"country_code":"US","latitude":"44.56457000","longitude":"-123.26204000"},{"id":"114693","name":"Cottage Grove","state_id":1415,"state_code":"OR","country_id":233,"country_code":"US","latitude":"43.79762000","longitude":"-123.05952000"},{"id":"114813","name":"Creswell","state_id":1415,"state_code":"OR","country_id":233,"country_code":"US","latitude":"43.91790000","longitude":"-123.02453000"},{"id":"114836","name":"Crook County","state_id":1415,"state_code":"OR","country_id":233,"country_code":"US","latitude":"44.14219000","longitude":"-120.35658000"},{"id":"114899","name":"Culp Creek","state_id":1415,"state_code":"OR","country_id":233,"country_code":"US","latitude":"43.70346000","longitude":"-122.84757000"},{"id":"114903","name":"Culver","state_id":1415,"state_code":"OR","country_id":233,"country_code":"US","latitude":"44.52568000","longitude":"-121.21310000"},{"id":"114928","name":"Curry County","state_id":1415,"state_code":"OR","country_id":233,"country_code":"US","latitude":"42.46661000","longitude":"-124.21534000"},{"id":"114992","name":"Dallas","state_id":1415,"state_code":"OR","country_id":233,"country_code":"US","latitude":"44.91928000","longitude":"-123.31705000"},{"id":"115010","name":"Damascus","state_id":1415,"state_code":"OR","country_id":233,"country_code":"US","latitude":"45.41762000","longitude":"-122.45898000"},{"id":"115099","name":"Dayton","state_id":1415,"state_code":"OR","country_id":233,"country_code":"US","latitude":"45.22067000","longitude":"-123.07621000"},{"id":"115257","name":"Depoe Bay","state_id":1415,"state_code":"OR","country_id":233,"country_code":"US","latitude":"44.80845000","longitude":"-124.06317000"},{"id":"115277","name":"Deschutes County","state_id":1415,"state_code":"OR","country_id":233,"country_code":"US","latitude":"43.91488000","longitude":"-121.22789000"},{"id":"115278","name":"Deschutes River Woods","state_id":1415,"state_code":"OR","country_id":233,"country_code":"US","latitude":"43.99151000","longitude":"-121.35836000"},{"id":"115393","name":"Donald","state_id":1415,"state_code":"OR","country_id":233,"country_code":"US","latitude":"45.22234000","longitude":"-122.83926000"},{"id":"115435","name":"Douglas County","state_id":1415,"state_code":"OR","country_id":233,"country_code":"US","latitude":"43.28536000","longitude":"-123.17942000"},{"id":"115467","name":"Drain","state_id":1415,"state_code":"OR","country_id":233,"country_code":"US","latitude":"43.65873000","longitude":"-123.31870000"},{"id":"115531","name":"Dundee","state_id":1415,"state_code":"OR","country_id":233,"country_code":"US","latitude":"45.27817000","longitude":"-123.01094000"},{"id":"115536","name":"Dunes City","state_id":1415,"state_code":"OR","country_id":233,"country_code":"US","latitude":"43.88318000","longitude":"-124.11512000"},{"id":"115574","name":"Durham","state_id":1415,"state_code":"OR","country_id":233,"country_code":"US","latitude":"45.40206000","longitude":"-122.75287000"},{"id":"115609","name":"Eagle Point","state_id":1415,"state_code":"OR","country_id":233,"country_code":"US","latitude":"42.47263000","longitude":"-122.80282000"},{"id":"115968","name":"Elgin","state_id":1415,"state_code":"OR","country_id":233,"country_code":"US","latitude":"45.56486000","longitude":"-117.91743000"},{"id":"116150","name":"Enterprise","state_id":1415,"state_code":"OR","country_id":233,"country_code":"US","latitude":"45.42626000","longitude":"-117.27878000"},{"id":"116202","name":"Estacada","state_id":1415,"state_code":"OR","country_id":233,"country_code":"US","latitude":"45.28957000","longitude":"-122.33370000"},{"id":"116226","name":"Eugene","state_id":1415,"state_code":"OR","country_id":233,"country_code":"US","latitude":"44.05207000","longitude":"-123.08675000"},{"id":"116356","name":"Fairview","state_id":1415,"state_code":"OR","country_id":233,"country_code":"US","latitude":"45.53845000","longitude":"-122.43398000"},{"id":"116586","name":"Florence","state_id":1415,"state_code":"OR","country_id":233,"country_code":"US","latitude":"43.98262000","longitude":"-124.09984000"},{"id":"116653","name":"Forest Grove","state_id":1415,"state_code":"OR","country_id":233,"country_code":"US","latitude":"45.51984000","longitude":"-123.11066000"},{"id":"116772","name":"Fossil","state_id":1415,"state_code":"OR","country_id":233,"country_code":"US","latitude":"44.99819000","longitude":"-120.21614000"},{"id":"116789","name":"Four Corners","state_id":1415,"state_code":"OR","country_id":233,"country_code":"US","latitude":"44.92790000","longitude":"-122.98371000"},{"id":"116969","name":"Fruitdale","state_id":1415,"state_code":"OR","country_id":233,"country_code":"US","latitude":"42.42206000","longitude":"-123.30811000"},{"id":"117066","name":"Garden Home-Whitford","state_id":1415,"state_code":"OR","country_id":233,"country_code":"US","latitude":"45.46400000","longitude":"-122.75891000"},{"id":"117129","name":"Gearhart","state_id":1415,"state_code":"OR","country_id":233,"country_code":"US","latitude":"46.02427000","longitude":"-123.91125000"},{"id":"117178","name":"Gervais","state_id":1415,"state_code":"OR","country_id":233,"country_code":"US","latitude":"45.10818000","longitude":"-122.89760000"},{"id":"117218","name":"Gilliam County","state_id":1415,"state_code":"OR","country_id":233,"country_code":"US","latitude":"45.37806000","longitude":"-120.21087000"},{"id":"117239","name":"Gladstone","state_id":1415,"state_code":"OR","country_id":233,"country_code":"US","latitude":"45.38068000","longitude":"-122.59481000"},{"id":"117320","name":"Glide","state_id":1415,"state_code":"OR","country_id":233,"country_code":"US","latitude":"43.30151000","longitude":"-123.10118000"},{"id":"117340","name":"Gold Beach","state_id":1415,"state_code":"OR","country_id":233,"country_code":"US","latitude":"42.40733000","longitude":"-124.42177000"},{"id":"117343","name":"Gold Hill","state_id":1415,"state_code":"OR","country_id":233,"country_code":"US","latitude":"42.43179000","longitude":"-123.05060000"},{"id":"117474","name":"Grand Ronde","state_id":1415,"state_code":"OR","country_id":233,"country_code":"US","latitude":"45.06011000","longitude":"-123.60928000"},{"id":"117520","name":"Grant County","state_id":1415,"state_code":"OR","country_id":233,"country_code":"US","latitude":"44.49125000","longitude":"-119.00738000"},{"id":"117528","name":"Grants Pass","state_id":1415,"state_code":"OR","country_id":233,"country_code":"US","latitude":"42.43933000","longitude":"-123.33067000"},{"id":"117589","name":"Green","state_id":1415,"state_code":"OR","country_id":233,"country_code":"US","latitude":"43.16039000","longitude":"-123.36785000"},{"id":"117722","name":"Gresham","state_id":1415,"state_code":"OR","country_id":233,"country_code":"US","latitude":"45.49818000","longitude":"-122.43148000"},{"id":"117983","name":"Happy Valley","state_id":1415,"state_code":"OR","country_id":233,"country_code":"US","latitude":"45.44679000","longitude":"-122.53037000"},{"id":"117987","name":"Harbor","state_id":1415,"state_code":"OR","country_id":233,"country_code":"US","latitude":"42.05317000","longitude":"-124.26759000"},{"id":"118030","name":"Harney County","state_id":1415,"state_code":"OR","country_id":233,"country_code":"US","latitude":"43.06402000","longitude":"-118.96787000"},{"id":"118053","name":"Harrisburg","state_id":1415,"state_code":"OR","country_id":233,"country_code":"US","latitude":"44.27401000","longitude":"-123.17065000"},{"id":"118183","name":"Hayesville","state_id":1415,"state_code":"OR","country_id":233,"country_code":"US","latitude":"44.98595000","longitude":"-122.98287000"},{"id":"118310","name":"Heppner","state_id":1415,"state_code":"OR","country_id":233,"country_code":"US","latitude":"45.35318000","longitude":"-119.55780000"},{"id":"118327","name":"Hermiston","state_id":1415,"state_code":"OR","country_id":233,"country_code":"US","latitude":"45.84041000","longitude":"-119.28946000"},{"id":"118452","name":"Hillsboro","state_id":1415,"state_code":"OR","country_id":233,"country_code":"US","latitude":"45.52289000","longitude":"-122.98983000"},{"id":"118480","name":"Hines","state_id":1415,"state_code":"OR","country_id":233,"country_code":"US","latitude":"43.56404000","longitude":"-119.08105000"},{"id":"118626","name":"Hood River","state_id":1415,"state_code":"OR","country_id":233,"country_code":"US","latitude":"45.70540000","longitude":"-121.52146000"},{"id":"118627","name":"Hood River County","state_id":1415,"state_code":"OR","country_id":233,"country_code":"US","latitude":"45.51911000","longitude":"-121.65111000"},{"id":"118731","name":"Hubbard","state_id":1415,"state_code":"OR","country_id":233,"country_code":"US","latitude":"45.18234000","longitude":"-122.80787000"},{"id":"118897","name":"Independence","state_id":1415,"state_code":"OR","country_id":233,"country_code":"US","latitude":"44.85123000","longitude":"-123.18677000"},{"id":"119002","name":"Irrigon","state_id":1415,"state_code":"OR","country_id":233,"country_code":"US","latitude":"45.89569000","longitude":"-119.49141000"},{"id":"119023","name":"Island City","state_id":1415,"state_code":"OR","country_id":233,"country_code":"US","latitude":"45.34097000","longitude":"-118.04466000"},{"id":"119095","name":"Jackson County","state_id":1415,"state_code":"OR","country_id":233,"country_code":"US","latitude":"42.43215000","longitude":"-122.72843000"},{"id":"119105","name":"Jacksonville","state_id":1415,"state_code":"OR","country_id":233,"country_code":"US","latitude":"42.31346000","longitude":"-122.96699000"},{"id":"119172","name":"Jefferson","state_id":1415,"state_code":"OR","country_id":233,"country_code":"US","latitude":"44.71957000","longitude":"-123.01037000"},{"id":"119197","name":"Jefferson County","state_id":1415,"state_code":"OR","country_id":233,"country_code":"US","latitude":"44.62941000","longitude":"-121.17541000"},{"id":"119221","name":"Jennings Lodge","state_id":1415,"state_code":"OR","country_id":233,"country_code":"US","latitude":"45.39123000","longitude":"-122.61259000"},{"id":"119251","name":"John Day","state_id":1415,"state_code":"OR","country_id":233,"country_code":"US","latitude":"44.41599000","longitude":"-118.95301000"},{"id":"119318","name":"Joseph","state_id":1415,"state_code":"OR","country_id":233,"country_code":"US","latitude":"45.35432000","longitude":"-117.22961000"},{"id":"119321","name":"Josephine County","state_id":1415,"state_code":"OR","country_id":233,"country_code":"US","latitude":"42.36546000","longitude":"-123.55558000"},{"id":"119335","name":"Junction City","state_id":1415,"state_code":"OR","country_id":233,"country_code":"US","latitude":"44.21929000","longitude":"-123.20565000"},{"id":"119426","name":"Keizer","state_id":1415,"state_code":"OR","country_id":233,"country_code":"US","latitude":"44.99012000","longitude":"-123.02621000"},{"id":"119498","name":"Kenton","state_id":1415,"state_code":"OR","country_id":233,"country_code":"US","latitude":"45.58178000","longitude":"-122.68149000"},{"id":"119580","name":"King City","state_id":1415,"state_code":"OR","country_id":233,"country_code":"US","latitude":"45.40262000","longitude":"-122.80399000"},{"id":"119670","name":"Klamath County","state_id":1415,"state_code":"OR","country_id":233,"country_code":"US","latitude":"42.68634000","longitude":"-121.65013000"},{"id":"119671","name":"Klamath Falls","state_id":1415,"state_code":"OR","country_id":233,"country_code":"US","latitude":"42.22487000","longitude":"-121.78167000"},{"id":"119748","name":"La Grande","state_id":1415,"state_code":"OR","country_id":233,"country_code":"US","latitude":"45.32458000","longitude":"-118.08772000"},{"id":"119772","name":"La Pine","state_id":1415,"state_code":"OR","country_id":233,"country_code":"US","latitude":"43.67040000","longitude":"-121.50364000"},{"id":"119837","name":"Lafayette","state_id":1415,"state_code":"OR","country_id":233,"country_code":"US","latitude":"45.24428000","longitude":"-123.11483000"},{"id":"119899","name":"Lake County","state_id":1415,"state_code":"OR","country_id":233,"country_code":"US","latitude":"42.79339000","longitude":"-120.38747000"},{"id":"119955","name":"Lake Oswego","state_id":1415,"state_code":"OR","country_id":233,"country_code":"US","latitude":"45.42067000","longitude":"-122.67065000"},{"id":"120034","name":"Lakeside","state_id":1415,"state_code":"OR","country_id":233,"country_code":"US","latitude":"43.57567000","longitude":"-124.17511000"},{"id":"120041","name":"Lakeview","state_id":1415,"state_code":"OR","country_id":233,"country_code":"US","latitude":"42.18877000","longitude":"-120.34579000"},{"id":"120106","name":"Lane County","state_id":1415,"state_code":"OR","country_id":233,"country_code":"US","latitude":"43.94155000","longitude":"-122.87655000"},{"id":"120294","name":"Lebanon","state_id":1415,"state_code":"OR","country_id":233,"country_code":"US","latitude":"44.53651000","longitude":"-122.90703000"},{"id":"120377","name":"Lents","state_id":1415,"state_code":"OR","country_id":233,"country_code":"US","latitude":"45.47984000","longitude":"-122.56731000"},{"id":"120514","name":"Lincoln Beach","state_id":1415,"state_code":"OR","country_id":233,"country_code":"US","latitude":"44.85039000","longitude":"-124.04678000"},{"id":"120515","name":"Lincoln City","state_id":1415,"state_code":"OR","country_id":233,"country_code":"US","latitude":"44.95816000","longitude":"-124.01789000"},{"id":"120536","name":"Lincoln County","state_id":1415,"state_code":"OR","country_id":233,"country_code":"US","latitude":"44.64568000","longitude":"-123.90770000"},{"id":"120584","name":"Linn County","state_id":1415,"state_code":"OR","country_id":233,"country_code":"US","latitude":"44.48857000","longitude":"-122.53419000"},{"id":"120838","name":"Lowell","state_id":1415,"state_code":"OR","country_id":233,"country_code":"US","latitude":"43.91846000","longitude":"-122.78368000"},{"id":"120944","name":"Lyons","state_id":1415,"state_code":"OR","country_id":233,"country_code":"US","latitude":"44.77457000","longitude":"-122.61509000"},{"id":"121028","name":"Madras","state_id":1415,"state_code":"OR","country_id":233,"country_code":"US","latitude":"44.63345000","longitude":"-121.12949000"},{"id":"121061","name":"Malheur County","state_id":1415,"state_code":"OR","country_id":233,"country_code":"US","latitude":"43.19341000","longitude":"-117.62307000"},{"id":"121262","name":"Marion County","state_id":1415,"state_code":"OR","country_id":233,"country_code":"US","latitude":"44.90319000","longitude":"-122.58473000"},{"id":"121541","name":"McMinnville","state_id":1415,"state_code":"OR","country_id":233,"country_code":"US","latitude":"45.21012000","longitude":"-123.19872000"},{"id":"121596","name":"Medford","state_id":1415,"state_code":"OR","country_id":233,"country_code":"US","latitude":"42.32652000","longitude":"-122.87559000"},{"id":"121701","name":"Merlin","state_id":1415,"state_code":"OR","country_id":233,"country_code":"US","latitude":"42.51734000","longitude":"-123.41979000"},{"id":"121739","name":"Metzger","state_id":1415,"state_code":"OR","country_id":233,"country_code":"US","latitude":"45.44651000","longitude":"-122.75899000"},{"id":"121862","name":"Mill City","state_id":1415,"state_code":"OR","country_id":233,"country_code":"US","latitude":"44.75401000","longitude":"-122.47814000"},{"id":"121887","name":"Millersburg","state_id":1415,"state_code":"OR","country_id":233,"country_code":"US","latitude":"44.68095000","longitude":"-123.06148000"},{"id":"121922","name":"Milton-Freewater","state_id":1415,"state_code":"OR","country_id":233,"country_code":"US","latitude":"45.93263000","longitude":"-118.38774000"},{"id":"121925","name":"Milwaukie","state_id":1415,"state_code":"OR","country_id":233,"country_code":"US","latitude":"45.44623000","longitude":"-122.63926000"},{"id":"121981","name":"Mission","state_id":1415,"state_code":"OR","country_id":233,"country_code":"US","latitude":"45.67041000","longitude":"-118.68359000"},{"id":"122026","name":"Molalla","state_id":1415,"state_code":"OR","country_id":233,"country_code":"US","latitude":"45.14734000","longitude":"-122.57703000"},{"id":"122044","name":"Monmouth","state_id":1415,"state_code":"OR","country_id":233,"country_code":"US","latitude":"44.84845000","longitude":"-123.23399000"},{"id":"122259","name":"Moro","state_id":1415,"state_code":"OR","country_id":233,"country_code":"US","latitude":"45.48401000","longitude":"-120.73117000"},{"id":"122290","name":"Morrow County","state_id":1415,"state_code":"OR","country_id":233,"country_code":"US","latitude":"45.41883000","longitude":"-119.58430000"},{"id":"122332","name":"Mount Angel","state_id":1415,"state_code":"OR","country_id":233,"country_code":"US","latitude":"45.06790000","longitude":"-122.80009000"},{"id":"122352","name":"Mount Hood Village","state_id":1415,"state_code":"OR","country_id":233,"country_code":"US","latitude":"45.35540000","longitude":"-121.98064000"},{"id":"122458","name":"Mulino","state_id":1415,"state_code":"OR","country_id":233,"country_code":"US","latitude":"45.22151000","longitude":"-122.58203000"},{"id":"122463","name":"Multnomah County","state_id":1415,"state_code":"OR","country_id":233,"country_code":"US","latitude":"45.54687000","longitude":"-122.41534000"},{"id":"122521","name":"Myrtle Creek","state_id":1415,"state_code":"OR","country_id":233,"country_code":"US","latitude":"43.02012000","longitude":"-123.29312000"},{"id":"122524","name":"Myrtle Point","state_id":1415,"state_code":"OR","country_id":233,"country_code":"US","latitude":"43.06483000","longitude":"-124.13899000"},{"id":"122728","name":"New Hope","state_id":1415,"state_code":"OR","country_id":233,"country_code":"US","latitude":"42.36234000","longitude":"-123.36784000"},{"id":"122808","name":"Newberg","state_id":1415,"state_code":"OR","country_id":233,"country_code":"US","latitude":"45.30012000","longitude":"-122.97316000"},{"id":"122851","name":"Newport","state_id":1415,"state_code":"OR","country_id":233,"country_code":"US","latitude":"44.63678000","longitude":"-124.05345000"},{"id":"122984","name":"North Bend","state_id":1415,"state_code":"OR","country_id":233,"country_code":"US","latitude":"43.40650000","longitude":"-124.22428000"},{"id":"123081","name":"North Plains","state_id":1415,"state_code":"OR","country_id":233,"country_code":"US","latitude":"45.59706000","longitude":"-122.99344000"},{"id":"123086","name":"North Portland","state_id":1415,"state_code":"OR","country_id":233,"country_code":"US","latitude":"45.61039000","longitude":"-122.70343000"},{"id":"123223","name":"Nyssa","state_id":1415,"state_code":"OR","country_id":233,"country_code":"US","latitude":"43.87683000","longitude":"-116.99488000"},{"id":"123240","name":"Oak Grove","state_id":1415,"state_code":"OR","country_id":233,"country_code":"US","latitude":"45.41679000","longitude":"-122.64009000"},{"id":"123249","name":"Oak Hills","state_id":1415,"state_code":"OR","country_id":233,"country_code":"US","latitude":"45.54123000","longitude":"-122.84121000"},{"id":"123304","name":"Oakridge","state_id":1415,"state_code":"OR","country_id":233,"country_code":"US","latitude":"43.74651000","longitude":"-122.46172000"},{"id":"123314","name":"Oatfield","state_id":1415,"state_code":"OR","country_id":233,"country_code":"US","latitude":"45.41418000","longitude":"-122.60007000"},{"id":"123354","name":"Odell","state_id":1415,"state_code":"OR","country_id":233,"country_code":"US","latitude":"45.62706000","longitude":"-121.54313000"},{"id":"123487","name":"Ontario","state_id":1415,"state_code":"OR","country_id":233,"country_code":"US","latitude":"44.02655000","longitude":"-116.96294000"},{"id":"123548","name":"Oregon City","state_id":1415,"state_code":"OR","country_id":233,"country_code":"US","latitude":"45.35734000","longitude":"-122.60676000"},{"id":"123708","name":"Pacific City","state_id":1415,"state_code":"OR","country_id":233,"country_code":"US","latitude":"45.20233000","longitude":"-123.96289000"},{"id":"124018","name":"Pendleton","state_id":1415,"state_code":"OR","country_id":233,"country_code":"US","latitude":"45.67207000","longitude":"-118.78860000"},{"id":"124144","name":"Philomath","state_id":1415,"state_code":"OR","country_id":233,"country_code":"US","latitude":"44.54012000","longitude":"-123.36760000"},{"id":"124149","name":"Phoenix","state_id":1415,"state_code":"OR","country_id":233,"country_code":"US","latitude":"42.27541000","longitude":"-122.81809000"},{"id":"124202","name":"Pilot Rock","state_id":1415,"state_code":"OR","country_id":233,"country_code":"US","latitude":"45.48318000","longitude":"-118.82998000"},{"id":"124451","name":"Polk County","state_id":1415,"state_code":"OR","country_id":233,"country_code":"US","latitude":"44.90348000","longitude":"-123.41337000"},{"id":"124526","name":"Port Orford","state_id":1415,"state_code":"OR","country_id":233,"country_code":"US","latitude":"42.74566000","longitude":"-124.49733000"},{"id":"124565","name":"Portland","state_id":1415,"state_code":"OR","country_id":233,"country_code":"US","latitude":"45.52345000","longitude":"-122.67621000"},{"id":"124697","name":"Prineville","state_id":1415,"state_code":"OR","country_id":233,"country_code":"US","latitude":"44.29985000","longitude":"-120.83447000"},{"id":"124826","name":"Rainier","state_id":1415,"state_code":"OR","country_id":233,"country_code":"US","latitude":"46.08900000","longitude":"-122.93594000"},{"id":"124833","name":"Raleigh Hills","state_id":1415,"state_code":"OR","country_id":233,"country_code":"US","latitude":"45.48067000","longitude":"-122.76204000"},{"id":"124978","name":"Redmond","state_id":1415,"state_code":"OR","country_id":233,"country_code":"US","latitude":"44.27262000","longitude":"-121.17392000"},{"id":"124985","name":"Redwood","state_id":1415,"state_code":"OR","country_id":233,"country_code":"US","latitude":"42.42206000","longitude":"-123.38728000"},{"id":"124995","name":"Reedsport","state_id":1415,"state_code":"OR","country_id":233,"country_code":"US","latitude":"43.70234000","longitude":"-124.09678000"},{"id":"125113","name":"Riddle","state_id":1415,"state_code":"OR","country_id":233,"country_code":"US","latitude":"42.95095000","longitude":"-123.36423000"},{"id":"125290","name":"Rockaway Beach","state_id":1415,"state_code":"OR","country_id":233,"country_code":"US","latitude":"45.61344000","longitude":"-123.94291000"},{"id":"125294","name":"Rockcreek","state_id":1415,"state_code":"OR","country_id":233,"country_code":"US","latitude":"45.55012000","longitude":"-122.87705000"},{"id":"125357","name":"Rogue River","state_id":1415,"state_code":"OR","country_id":233,"country_code":"US","latitude":"42.43595000","longitude":"-123.17200000"},{"id":"125406","name":"Rose Lodge","state_id":1415,"state_code":"OR","country_id":233,"country_code":"US","latitude":"45.01039000","longitude":"-123.88039000"},{"id":"125414","name":"Roseburg","state_id":1415,"state_code":"OR","country_id":233,"country_code":"US","latitude":"43.21650000","longitude":"-123.34174000"},{"id":"125415","name":"Roseburg North","state_id":1415,"state_code":"OR","country_id":233,"country_code":"US","latitude":"43.26452000","longitude":"-123.30331000"},{"id":"125649","name":"Saint Helens","state_id":1415,"state_code":"OR","country_id":233,"country_code":"US","latitude":"45.86400000","longitude":"-122.80649000"},{"id":"125740","name":"Salem","state_id":1415,"state_code":"OR","country_id":233,"country_code":"US","latitude":"44.94290000","longitude":"-123.03510000"},{"id":"125880","name":"Sandy","state_id":1415,"state_code":"OR","country_id":233,"country_code":"US","latitude":"45.39734000","longitude":"-122.26148000"},{"id":"125996","name":"Scappoose","state_id":1415,"state_code":"OR","country_id":233,"country_code":"US","latitude":"45.75428000","longitude":"-122.87760000"},{"id":"126100","name":"Seaside","state_id":1415,"state_code":"OR","country_id":233,"country_code":"US","latitude":"45.99316000","longitude":"-123.92264000"},{"id":"126203","name":"Shady Cove","state_id":1415,"state_code":"OR","country_id":233,"country_code":"US","latitude":"42.61068000","longitude":"-122.81254000"},{"id":"126322","name":"Sheridan","state_id":1415,"state_code":"OR","country_id":233,"country_code":"US","latitude":"45.09928000","longitude":"-123.39483000"},{"id":"126335","name":"Sherman County","state_id":1415,"state_code":"OR","country_id":233,"country_code":"US","latitude":"45.40521000","longitude":"-120.68932000"},{"id":"126342","name":"Sherwood","state_id":1415,"state_code":"OR","country_id":233,"country_code":"US","latitude":"45.35651000","longitude":"-122.84010000"},{"id":"126416","name":"Siletz","state_id":1415,"state_code":"OR","country_id":233,"country_code":"US","latitude":"44.72178000","longitude":"-123.92011000"},{"id":"126442","name":"Silverton","state_id":1415,"state_code":"OR","country_id":233,"country_code":"US","latitude":"45.00512000","longitude":"-122.78315000"},{"id":"126468","name":"Sisters","state_id":1415,"state_code":"OR","country_id":233,"country_code":"US","latitude":"44.29095000","longitude":"-121.54921000"},{"id":"126688","name":"South Lebanon","state_id":1415,"state_code":"OR","country_id":233,"country_code":"US","latitude":"44.50623000","longitude":"-122.90314000"},{"id":"126907","name":"Springfield","state_id":1415,"state_code":"OR","country_id":233,"country_code":"US","latitude":"44.04624000","longitude":"-123.02203000"},{"id":"126935","name":"Stafford","state_id":1415,"state_code":"OR","country_id":233,"country_code":"US","latitude":"45.35734000","longitude":"-122.72259000"},{"id":"126952","name":"Stanfield","state_id":1415,"state_code":"OR","country_id":233,"country_code":"US","latitude":"45.78041000","longitude":"-119.21724000"},{"id":"127002","name":"Stayton","state_id":1415,"state_code":"OR","country_id":233,"country_code":"US","latitude":"44.80068000","longitude":"-122.79453000"},{"id":"127159","name":"Sublimity","state_id":1415,"state_code":"OR","country_id":233,"country_code":"US","latitude":"44.82957000","longitude":"-122.79453000"},{"id":"127270","name":"Sunriver","state_id":1415,"state_code":"OR","country_id":233,"country_code":"US","latitude":"43.88401000","longitude":"-121.43864000"},{"id":"127307","name":"Sutherlin","state_id":1415,"state_code":"OR","country_id":233,"country_code":"US","latitude":"43.39012000","longitude":"-123.31258000"},{"id":"127337","name":"Sweet Home","state_id":1415,"state_code":"OR","country_id":233,"country_code":"US","latitude":"44.39762000","longitude":"-122.73620000"},{"id":"127386","name":"Talent","state_id":1415,"state_code":"OR","country_id":233,"country_code":"US","latitude":"42.24568000","longitude":"-122.78865000"},{"id":"127413","name":"Tangent","state_id":1415,"state_code":"OR","country_id":233,"country_code":"US","latitude":"44.54123000","longitude":"-123.10815000"},{"id":"127524","name":"Terrebonne","state_id":1415,"state_code":"OR","country_id":233,"country_code":"US","latitude":"44.35290000","longitude":"-121.17781000"},{"id":"127557","name":"The Dalles","state_id":1415,"state_code":"OR","country_id":233,"country_code":"US","latitude":"45.59456000","longitude":"-121.17868000"},{"id":"127621","name":"Three Rivers","state_id":1415,"state_code":"OR","country_id":233,"country_code":"US","latitude":"43.82012000","longitude":"-121.46919000"},{"id":"127643","name":"Tigard","state_id":1415,"state_code":"OR","country_id":233,"country_code":"US","latitude":"45.43123000","longitude":"-122.77149000"},{"id":"127648","name":"Tillamook","state_id":1415,"state_code":"OR","country_id":233,"country_code":"US","latitude":"45.45640000","longitude":"-123.84553000"},{"id":"127649","name":"Tillamook County","state_id":1415,"state_code":"OR","country_id":233,"country_code":"US","latitude":"45.45645000","longitude":"-123.75877000"},{"id":"127700","name":"Toledo","state_id":1415,"state_code":"OR","country_id":233,"country_code":"US","latitude":"44.62151000","longitude":"-123.93845000"},{"id":"127816","name":"Tri-City","state_id":1415,"state_code":"OR","country_id":233,"country_code":"US","latitude":"42.98456000","longitude":"-123.31173000"},{"id":"127838","name":"Troutdale","state_id":1415,"state_code":"OR","country_id":233,"country_code":"US","latitude":"45.53929000","longitude":"-122.38731000"},{"id":"127865","name":"Tualatin","state_id":1415,"state_code":"OR","country_id":233,"country_code":"US","latitude":"45.38401000","longitude":"-122.76399000"},{"id":"127902","name":"Turner","state_id":1415,"state_code":"OR","country_id":233,"country_code":"US","latitude":"44.84318000","longitude":"-122.95287000"},{"id":"127962","name":"Umatilla","state_id":1415,"state_code":"OR","country_id":233,"country_code":"US","latitude":"45.91735000","longitude":"-119.34252000"},{"id":"127963","name":"Umatilla County","state_id":1415,"state_code":"OR","country_id":233,"country_code":"US","latitude":"45.59190000","longitude":"-118.73683000"},{"id":"127978","name":"Union","state_id":1415,"state_code":"OR","country_id":233,"country_code":"US","latitude":"45.20847000","longitude":"-117.86521000"},{"id":"128003","name":"Union County","state_id":1415,"state_code":"OR","country_id":233,"country_code":"US","latitude":"45.31035000","longitude":"-118.00900000"},{"id":"128086","name":"Vale","state_id":1415,"state_code":"OR","country_id":233,"country_code":"US","latitude":"43.98211000","longitude":"-117.23823000"},{"id":"128168","name":"Veneta","state_id":1415,"state_code":"OR","country_id":233,"country_code":"US","latitude":"44.04873000","longitude":"-123.35093000"},{"id":"128197","name":"Vernonia","state_id":1415,"state_code":"OR","country_id":233,"country_code":"US","latitude":"45.85872000","longitude":"-123.19289000"},{"id":"128376","name":"Waldport","state_id":1415,"state_code":"OR","country_id":233,"country_code":"US","latitude":"44.42679000","longitude":"-124.06873000"},{"id":"128411","name":"Wallowa County","state_id":1415,"state_code":"OR","country_id":233,"country_code":"US","latitude":"45.57983000","longitude":"-117.18107000"},{"id":"128471","name":"Warm Springs","state_id":1415,"state_code":"OR","country_id":233,"country_code":"US","latitude":"44.76345000","longitude":"-121.26616000"},{"id":"128485","name":"Warren","state_id":1415,"state_code":"OR","country_id":233,"country_code":"US","latitude":"45.81900000","longitude":"-122.84899000"},{"id":"128508","name":"Warrenton","state_id":1415,"state_code":"OR","country_id":233,"country_code":"US","latitude":"46.16510000","longitude":"-123.92376000"},{"id":"128529","name":"Wasco County","state_id":1415,"state_code":"OR","country_id":233,"country_code":"US","latitude":"45.16005000","longitude":"-121.16815000"},{"id":"128580","name":"Washington County","state_id":1415,"state_code":"OR","country_id":233,"country_code":"US","latitude":"45.56007000","longitude":"-123.09849000"},{"id":"128889","name":"West Haven","state_id":1415,"state_code":"OR","country_id":233,"country_code":"US","latitude":"45.51762000","longitude":"-122.76954000"},{"id":"128890","name":"West Haven-Sylvan","state_id":1415,"state_code":"OR","country_id":233,"country_code":"US","latitude":"45.51613000","longitude":"-122.76809000"},{"id":"128919","name":"West Linn","state_id":1415,"state_code":"OR","country_id":233,"country_code":"US","latitude":"45.36568000","longitude":"-122.61231000"},{"id":"128983","name":"West Slope","state_id":1415,"state_code":"OR","country_id":233,"country_code":"US","latitude":"45.49873000","longitude":"-122.76454000"},{"id":"129119","name":"Wheeler County","state_id":1415,"state_code":"OR","country_id":233,"country_code":"US","latitude":"44.72606000","longitude":"-120.02746000"},{"id":"129131","name":"White City","state_id":1415,"state_code":"OR","country_id":233,"country_code":"US","latitude":"42.43735000","longitude":"-122.85893000"},{"id":"129256","name":"Willamina","state_id":1415,"state_code":"OR","country_id":233,"country_code":"US","latitude":"45.07873000","longitude":"-123.48594000"},{"id":"129262","name":"Williams","state_id":1415,"state_code":"OR","country_id":233,"country_code":"US","latitude":"42.21873000","longitude":"-123.27394000"},{"id":"129341","name":"Wilsonville","state_id":1415,"state_code":"OR","country_id":233,"country_code":"US","latitude":"45.29984000","longitude":"-122.77371000"},{"id":"129433","name":"Winston","state_id":1415,"state_code":"OR","country_id":233,"country_code":"US","latitude":"43.12234000","longitude":"-123.41257000"},{"id":"129490","name":"Wood Village","state_id":1415,"state_code":"OR","country_id":233,"country_code":"US","latitude":"45.53429000","longitude":"-122.41870000"},{"id":"129504","name":"Woodburn","state_id":1415,"state_code":"OR","country_id":233,"country_code":"US","latitude":"45.14373000","longitude":"-122.85537000"},{"id":"129657","name":"Yamhill","state_id":1415,"state_code":"OR","country_id":233,"country_code":"US","latitude":"45.34150000","longitude":"-123.18733000"},{"id":"129658","name":"Yamhill County","state_id":1415,"state_code":"OR","country_id":233,"country_code":"US","latitude":"45.23260000","longitude":"-123.30815000"},{"id":"129687","name":"Yoncalla","state_id":1415,"state_code":"OR","country_id":233,"country_code":"US","latitude":"43.59845000","longitude":"-123.28342000"}]