[{"id":"111026","name":"Adams County","state_id":1418,"state_code":"ND","country_id":233,"country_code":"US","latitude":"46.09684000","longitude":"-102.52853000"},{"id":"111287","name":"Amidon","state_id":1418,"state_code":"ND","country_id":233,"country_code":"US","latitude":"46.48223000","longitude":"-103.32185000"},{"id":"111543","name":"Ashley","state_id":1418,"state_code":"ND","country_id":233,"country_code":"US","latitude":"46.03414000","longitude":"-99.37150000"},{"id":"111826","name":"Barnes County","state_id":1418,"state_code":"ND","country_id":233,"country_code":"US","latitude":"46.93611000","longitude":"-98.07158000"},{"id":"111962","name":"Beach","state_id":1418,"state_code":"ND","country_id":233,"country_code":"US","latitude":"46.91807000","longitude":"-104.00437000"},{"id":"112052","name":"Belcourt","state_id":1418,"state_code":"ND","country_id":233,"country_code":"US","latitude":"48.83917000","longitude":"-99.74487000"},{"id":"112058","name":"Belfield","state_id":1418,"state_code":"ND","country_id":233,"country_code":"US","latitude":"46.88529000","longitude":"-103.19962000"},{"id":"112186","name":"Benson County","state_id":1418,"state_code":"ND","country_id":233,"country_code":"US","latitude":"48.06939000","longitude":"-99.36603000"},{"id":"112296","name":"Beulah","state_id":1418,"state_code":"ND","country_id":233,"country_code":"US","latitude":"47.26334000","longitude":"-101.77795000"},{"id":"112345","name":"Billings County","state_id":1418,"state_code":"ND","country_id":233,"country_code":"US","latitude":"47.02345000","longitude":"-103.37643000"},{"id":"112367","name":"Bismarck","state_id":1418,"state_code":"ND","country_id":233,"country_code":"US","latitude":"46.80833000","longitude":"-100.78374000"},{"id":"112598","name":"Bottineau","state_id":1418,"state_code":"ND","country_id":233,"country_code":"US","latitude":"48.82723000","longitude":"-100.44570000"},{"id":"112599","name":"Bottineau County","state_id":1418,"state_code":"ND","country_id":233,"country_code":"US","latitude":"48.79216000","longitude":"-100.83333000"},{"id":"112621","name":"Bowbells","state_id":1418,"state_code":"ND","country_id":233,"country_code":"US","latitude":"48.80308000","longitude":"-102.24600000"},{"id":"112632","name":"Bowman","state_id":1418,"state_code":"ND","country_id":233,"country_code":"US","latitude":"46.18306000","longitude":"-103.39491000"},{"id":"112633","name":"Bowman County","state_id":1418,"state_code":"ND","country_id":233,"country_code":"US","latitude":"46.11261000","longitude":"-103.52067000"},{"id":"113058","name":"Burke County","state_id":1418,"state_code":"ND","country_id":233,"country_code":"US","latitude":"48.79100000","longitude":"-102.51826000"},{"id":"113060","name":"Burleigh County","state_id":1418,"state_code":"ND","country_id":233,"country_code":"US","latitude":"46.97739000","longitude":"-100.46873000"},{"id":"113075","name":"Burlington","state_id":1418,"state_code":"ND","country_id":233,"country_code":"US","latitude":"48.27529000","longitude":"-101.42878000"},{"id":"113326","name":"Cando","state_id":1418,"state_code":"ND","country_id":233,"country_code":"US","latitude":"48.48667000","longitude":"-99.20986000"},{"id":"113446","name":"Carrington","state_id":1418,"state_code":"ND","country_id":233,"country_code":"US","latitude":"47.44972000","longitude":"-99.12622000"},{"id":"113475","name":"Carson","state_id":1418,"state_code":"ND","country_id":233,"country_code":"US","latitude":"46.41778000","longitude":"-101.56487000"},{"id":"113533","name":"Cass County","state_id":1418,"state_code":"ND","country_id":233,"country_code":"US","latitude":"46.93297000","longitude":"-97.24804000"},{"id":"113536","name":"Casselton","state_id":1418,"state_code":"ND","country_id":233,"country_code":"US","latitude":"46.90053000","longitude":"-97.21120000"},{"id":"113581","name":"Cavalier","state_id":1418,"state_code":"ND","country_id":233,"country_code":"US","latitude":"48.79388000","longitude":"-97.62231000"},{"id":"113582","name":"Cavalier County","state_id":1418,"state_code":"ND","country_id":233,"country_code":"US","latitude":"48.77230000","longitude":"-98.46486000"},{"id":"113639","name":"Center","state_id":1418,"state_code":"ND","country_id":233,"country_code":"US","latitude":"47.11638000","longitude":"-101.29959000"},{"id":"114606","name":"Cooperstown","state_id":1418,"state_code":"ND","country_id":233,"country_code":"US","latitude":"47.44444000","longitude":"-98.12398000"},{"id":"114844","name":"Crosby","state_id":1418,"state_code":"ND","country_id":233,"country_code":"US","latitude":"48.91420000","longitude":"-103.29491000"},{"id":"115298","name":"Devils Lake","state_id":1418,"state_code":"ND","country_id":233,"country_code":"US","latitude":"48.11278000","longitude":"-98.86512000"},{"id":"115323","name":"Dickey County","state_id":1418,"state_code":"ND","country_id":233,"country_code":"US","latitude":"46.11012000","longitude":"-98.50467000"},{"id":"115326","name":"Dickinson","state_id":1418,"state_code":"ND","country_id":233,"country_code":"US","latitude":"46.87918000","longitude":"-102.78962000"},{"id":"115357","name":"Divide County","state_id":1418,"state_code":"ND","country_id":233,"country_code":"US","latitude":"48.81489000","longitude":"-103.48735000"},{"id":"115548","name":"Dunn County","state_id":1418,"state_code":"ND","country_id":233,"country_code":"US","latitude":"47.35675000","longitude":"-102.61824000"},{"id":"115823","name":"Eddy County","state_id":1418,"state_code":"ND","country_id":233,"country_code":"US","latitude":"47.71759000","longitude":"-98.90158000"},{"id":"116017","name":"Ellendale","state_id":1418,"state_code":"ND","country_id":233,"country_code":"US","latitude":"46.00275000","longitude":"-98.52705000"},{"id":"116107","name":"Emmons County","state_id":1418,"state_code":"ND","country_id":233,"country_code":"US","latitude":"46.28502000","longitude":"-100.23878000"},{"id":"116396","name":"Fargo","state_id":1418,"state_code":"ND","country_id":233,"country_code":"US","latitude":"46.87719000","longitude":"-96.78980000"},{"id":"116501","name":"Fessenden","state_id":1418,"state_code":"ND","country_id":233,"country_code":"US","latitude":"47.64917000","longitude":"-99.62929000"},{"id":"116516","name":"Finley","state_id":1418,"state_code":"ND","country_id":233,"country_code":"US","latitude":"47.51416000","longitude":"-97.83593000"},{"id":"116676","name":"Forman","state_id":1418,"state_code":"ND","country_id":233,"country_code":"US","latitude":"46.10774000","longitude":"-97.63649000"},{"id":"116756","name":"Fort Totten","state_id":1418,"state_code":"ND","country_id":233,"country_code":"US","latitude":"47.98000000","longitude":"-98.99290000"},{"id":"116766","name":"Fort Yates","state_id":1418,"state_code":"ND","country_id":233,"country_code":"US","latitude":"46.08694000","longitude":"-100.63013000"},{"id":"116777","name":"Foster County","state_id":1418,"state_code":"ND","country_id":233,"country_code":"US","latitude":"47.45708000","longitude":"-98.88302000"},{"id":"117103","name":"Garrison","state_id":1418,"state_code":"ND","country_id":233,"country_code":"US","latitude":"47.65222000","longitude":"-101.41572000"},{"id":"117359","name":"Golden Valley County","state_id":1418,"state_code":"ND","country_id":233,"country_code":"US","latitude":"46.94022000","longitude":"-103.84670000"},{"id":"117431","name":"Grafton","state_id":1418,"state_code":"ND","country_id":233,"country_code":"US","latitude":"48.41221000","longitude":"-97.41063000"},{"id":"117457","name":"Grand Forks","state_id":1418,"state_code":"ND","country_id":233,"country_code":"US","latitude":"47.92526000","longitude":"-97.03285000"},{"id":"117458","name":"Grand Forks Air Force Base","state_id":1418,"state_code":"ND","country_id":233,"country_code":"US","latitude":"47.95493000","longitude":"-97.38664000"},{"id":"117459","name":"Grand Forks County","state_id":1418,"state_code":"ND","country_id":233,"country_code":"US","latitude":"47.92192000","longitude":"-97.45693000"},{"id":"117518","name":"Grant County","state_id":1418,"state_code":"ND","country_id":233,"country_code":"US","latitude":"46.35828000","longitude":"-101.63971000"},{"id":"117734","name":"Griggs County","state_id":1418,"state_code":"ND","country_id":233,"country_code":"US","latitude":"47.45729000","longitude":"-98.23704000"},{"id":"118114","name":"Harvey","state_id":1418,"state_code":"ND","country_id":233,"country_code":"US","latitude":"47.76972000","longitude":"-99.93540000"},{"id":"118210","name":"Hazen","state_id":1418,"state_code":"ND","country_id":233,"country_code":"US","latitude":"47.29445000","longitude":"-101.62266000"},{"id":"118346","name":"Hettinger","state_id":1418,"state_code":"ND","country_id":233,"country_code":"US","latitude":"46.00139000","longitude":"-102.63682000"},{"id":"118347","name":"Hettinger County","state_id":1418,"state_code":"ND","country_id":233,"country_code":"US","latitude":"46.43253000","longitude":"-102.46036000"},{"id":"118450","name":"Hillsboro","state_id":1418,"state_code":"ND","country_id":233,"country_code":"US","latitude":"47.40387000","longitude":"-97.06203000"},{"id":"118661","name":"Horace","state_id":1418,"state_code":"ND","country_id":233,"country_code":"US","latitude":"46.75886000","longitude":"-96.90370000"},{"id":"119123","name":"Jamestown","state_id":1418,"state_code":"ND","country_id":233,"country_code":"US","latitude":"46.91054000","longitude":"-98.70844000"},{"id":"119461","name":"Kenmare","state_id":1418,"state_code":"ND","country_id":233,"country_code":"US","latitude":"48.67475000","longitude":"-102.08266000"},{"id":"119552","name":"Kidder County","state_id":1418,"state_code":"ND","country_id":233,"country_code":"US","latitude":"46.98014000","longitude":"-99.78009000"},{"id":"119558","name":"Killdeer","state_id":1418,"state_code":"ND","country_id":233,"country_code":"US","latitude":"47.37196000","longitude":"-102.75408000"},{"id":"120057","name":"Lakota","state_id":1418,"state_code":"ND","country_id":233,"country_code":"US","latitude":"48.04278000","longitude":"-98.33621000"},{"id":"119803","name":"LaMoure County","state_id":1418,"state_code":"ND","country_id":233,"country_code":"US","latitude":"46.45691000","longitude":"-98.53546000"},{"id":"120109","name":"Langdon","state_id":1418,"state_code":"ND","country_id":233,"country_code":"US","latitude":"48.76000000","longitude":"-98.36817000"},{"id":"120146","name":"Larimore","state_id":1418,"state_code":"ND","country_id":233,"country_code":"US","latitude":"47.90666000","longitude":"-97.62675000"},{"id":"120510","name":"Lincoln","state_id":1418,"state_code":"ND","country_id":233,"country_code":"US","latitude":"46.76249000","longitude":"-100.70040000"},{"id":"120590","name":"Linton","state_id":1418,"state_code":"ND","country_id":233,"country_code":"US","latitude":"46.26666000","longitude":"-100.23289000"},{"id":"120600","name":"Lisbon","state_id":1418,"state_code":"ND","country_id":233,"country_code":"US","latitude":"46.44163000","longitude":"-97.68121000"},{"id":"120701","name":"Logan County","state_id":1418,"state_code":"ND","country_id":233,"country_code":"US","latitude":"46.45736000","longitude":"-99.47747000"},{"id":"121106","name":"Mandan","state_id":1418,"state_code":"ND","country_id":233,"country_code":"US","latitude":"46.82666000","longitude":"-100.88958000"},{"id":"121136","name":"Manning","state_id":1418,"state_code":"ND","country_id":233,"country_code":"US","latitude":"47.23001000","longitude":"-102.77019000"},{"id":"121454","name":"Mayville","state_id":1418,"state_code":"ND","country_id":233,"country_code":"US","latitude":"47.49804000","longitude":"-97.32454000"},{"id":"121472","name":"McClusky","state_id":1418,"state_code":"ND","country_id":233,"country_code":"US","latitude":"47.48583000","longitude":"-100.44318000"},{"id":"121510","name":"McHenry County","state_id":1418,"state_code":"ND","country_id":233,"country_code":"US","latitude":"48.23458000","longitude":"-100.63628000"},{"id":"121515","name":"McIntosh County","state_id":1418,"state_code":"ND","country_id":233,"country_code":"US","latitude":"46.11179000","longitude":"-99.44120000"},{"id":"121521","name":"McKenzie County","state_id":1418,"state_code":"ND","country_id":233,"country_code":"US","latitude":"47.74015000","longitude":"-103.39527000"},{"id":"121530","name":"McLean County","state_id":1418,"state_code":"ND","country_id":233,"country_code":"US","latitude":"47.60696000","longitude":"-101.32183000"},{"id":"121608","name":"Medora","state_id":1418,"state_code":"ND","country_id":233,"country_code":"US","latitude":"46.91390000","longitude":"-103.52435000"},{"id":"121681","name":"Mercer County","state_id":1418,"state_code":"ND","country_id":233,"country_code":"US","latitude":"47.30922000","longitude":"-101.83153000"},{"id":"121959","name":"Minnewaukan","state_id":1418,"state_code":"ND","country_id":233,"country_code":"US","latitude":"48.07139000","longitude":"-99.25236000"},{"id":"121966","name":"Minot","state_id":1418,"state_code":"ND","country_id":233,"country_code":"US","latitude":"48.23251000","longitude":"-101.29627000"},{"id":"121967","name":"Minot Air Force Base","state_id":1418,"state_code":"ND","country_id":233,"country_code":"US","latitude":"48.42087000","longitude":"-101.33914000"},{"id":"122018","name":"Mohall","state_id":1418,"state_code":"ND","country_id":233,"country_code":"US","latitude":"48.76336000","longitude":"-101.51322000"},{"id":"122297","name":"Morton County","state_id":1418,"state_code":"ND","country_id":233,"country_code":"US","latitude":"46.71606000","longitude":"-101.28117000"},{"id":"122312","name":"Mott","state_id":1418,"state_code":"ND","country_id":233,"country_code":"US","latitude":"46.37250000","longitude":"-102.32711000"},{"id":"122440","name":"Mountrail County","state_id":1418,"state_code":"ND","country_id":233,"country_code":"US","latitude":"48.20133000","longitude":"-102.35565000"},{"id":"122559","name":"Napoleon","state_id":1418,"state_code":"ND","country_id":233,"country_code":"US","latitude":"46.50831000","longitude":"-99.77122000"},{"id":"122628","name":"Nelson County","state_id":1418,"state_code":"ND","country_id":233,"country_code":"US","latitude":"47.92169000","longitude":"-98.19204000"},{"id":"122774","name":"New Rockford","state_id":1418,"state_code":"ND","country_id":233,"country_code":"US","latitude":"47.68000000","longitude":"-99.13790000"},{"id":"122787","name":"New Town","state_id":1418,"state_code":"ND","country_id":233,"country_code":"US","latitude":"47.98085000","longitude":"-102.49018000"},{"id":"123275","name":"Oakes","state_id":1418,"state_code":"ND","country_id":233,"country_code":"US","latitude":"46.13858000","longitude":"-98.09038000"},{"id":"123443","name":"Oliver County","state_id":1418,"state_code":"ND","country_id":233,"country_code":"US","latitude":"47.11528000","longitude":"-101.34036000"},{"id":"123853","name":"Park River","state_id":1418,"state_code":"ND","country_id":233,"country_code":"US","latitude":"48.39860000","longitude":"-97.74120000"},{"id":"123889","name":"Parshall","state_id":1418,"state_code":"ND","country_id":233,"country_code":"US","latitude":"47.95335000","longitude":"-102.13489000"},{"id":"124003","name":"Pembina County","state_id":1418,"state_code":"ND","country_id":233,"country_code":"US","latitude":"48.76752000","longitude":"-97.55183000"},{"id":"124174","name":"Pierce County","state_id":1418,"state_code":"ND","country_id":233,"country_code":"US","latitude":"48.24960000","longitude":"-99.97182000"},{"id":"124844","name":"Ramsey County","state_id":1418,"state_code":"ND","country_id":233,"country_code":"US","latitude":"48.26893000","longitude":"-98.72014000"},{"id":"124888","name":"Ransom County","state_id":1418,"state_code":"ND","country_id":233,"country_code":"US","latitude":"46.45616000","longitude":"-97.65745000"},{"id":"125029","name":"Renville County","state_id":1418,"state_code":"ND","country_id":233,"country_code":"US","latitude":"48.71907000","longitude":"-101.65778000"},{"id":"125076","name":"Richland County","state_id":1418,"state_code":"ND","country_id":233,"country_code":"US","latitude":"46.26466000","longitude":"-96.94828000"},{"id":"125362","name":"Rolette County","state_id":1418,"state_code":"ND","country_id":233,"country_code":"US","latitude":"48.77245000","longitude":"-99.84099000"},{"id":"125364","name":"Rolla","state_id":1418,"state_code":"ND","country_id":233,"country_code":"US","latitude":"48.85778000","longitude":"-99.61792000"},{"id":"125503","name":"Rugby","state_id":1418,"state_code":"ND","country_id":233,"country_code":"US","latitude":"48.36889000","longitude":"-99.99625000"},{"id":"125950","name":"Sargent County","state_id":1418,"state_code":"ND","country_id":233,"country_code":"US","latitude":"46.10794000","longitude":"-97.63072000"},{"id":"126288","name":"Sheldon","state_id":1418,"state_code":"ND","country_id":233,"country_code":"US","latitude":"46.58580000","longitude":"-97.49120000"},{"id":"126293","name":"Shell Valley","state_id":1418,"state_code":"ND","country_id":233,"country_code":"US","latitude":"48.79806000","longitude":"-99.86486000"},{"id":"126326","name":"Sheridan County","state_id":1418,"state_code":"ND","country_id":233,"country_code":"US","latitude":"47.57541000","longitude":"-100.34566000"},{"id":"126460","name":"Sioux County","state_id":1418,"state_code":"ND","country_id":233,"country_code":"US","latitude":"46.11265000","longitude":"-101.04034000"},{"id":"126507","name":"Slope County","state_id":1418,"state_code":"ND","country_id":233,"country_code":"US","latitude":"46.44722000","longitude":"-103.45990000"},{"id":"126961","name":"Stanley","state_id":1418,"state_code":"ND","country_id":233,"country_code":"US","latitude":"48.31724000","longitude":"-102.39045000"},{"id":"126970","name":"Stanton","state_id":1418,"state_code":"ND","country_id":233,"country_code":"US","latitude":"47.32111000","longitude":"-101.38155000"},{"id":"126985","name":"Stark County","state_id":1418,"state_code":"ND","country_id":233,"country_code":"US","latitude":"46.81068000","longitude":"-102.65513000"},{"id":"127009","name":"Steele","state_id":1418,"state_code":"ND","country_id":233,"country_code":"US","latitude":"46.85471000","longitude":"-99.91594000"},{"id":"127011","name":"Steele County","state_id":1418,"state_code":"ND","country_id":233,"country_code":"US","latitude":"47.45615000","longitude":"-97.72467000"},{"id":"127154","name":"Stutsman County","state_id":1418,"state_code":"ND","country_id":233,"country_code":"US","latitude":"46.97925000","longitude":"-98.95883000"},{"id":"127291","name":"Surrey","state_id":1418,"state_code":"ND","country_id":233,"country_code":"US","latitude":"48.23640000","longitude":"-101.13349000"},{"id":"127591","name":"Thompson","state_id":1418,"state_code":"ND","country_id":233,"country_code":"US","latitude":"47.77359000","longitude":"-97.10980000"},{"id":"127668","name":"Tioga","state_id":1418,"state_code":"ND","country_id":233,"country_code":"US","latitude":"48.39724000","longitude":"-102.93824000"},{"id":"127761","name":"Towner","state_id":1418,"state_code":"ND","country_id":233,"country_code":"US","latitude":"48.34583000","longitude":"-100.40541000"},{"id":"127762","name":"Towner County","state_id":1418,"state_code":"ND","country_id":233,"country_code":"US","latitude":"48.68554000","longitude":"-99.24580000"},{"id":"127778","name":"Traill County","state_id":1418,"state_code":"ND","country_id":233,"country_code":"US","latitude":"47.45418000","longitude":"-97.16158000"},{"id":"128101","name":"Valley City","state_id":1418,"state_code":"ND","country_id":233,"country_code":"US","latitude":"46.92331000","longitude":"-98.00315000"},{"id":"128165","name":"Velva","state_id":1418,"state_code":"ND","country_id":233,"country_code":"US","latitude":"48.05612000","longitude":"-100.92932000"},{"id":"128335","name":"Wahpeton","state_id":1418,"state_code":"ND","country_id":233,"country_code":"US","latitude":"46.26524000","longitude":"-96.60591000"},{"id":"128427","name":"Walsh County","state_id":1418,"state_code":"ND","country_id":233,"country_code":"US","latitude":"48.36946000","longitude":"-97.72137000"},{"id":"128459","name":"Ward County","state_id":1418,"state_code":"ND","country_id":233,"country_code":"US","latitude":"48.22175000","longitude":"-101.54183000"},{"id":"128535","name":"Washburn","state_id":1418,"state_code":"ND","country_id":233,"country_code":"US","latitude":"47.28916000","longitude":"-101.02903000"},{"id":"128632","name":"Watford City","state_id":1418,"state_code":"ND","country_id":233,"country_code":"US","latitude":"47.80224000","longitude":"-103.28325000"},{"id":"128787","name":"Wells County","state_id":1418,"state_code":"ND","country_id":233,"country_code":"US","latitude":"47.58753000","longitude":"-99.66095000"},{"id":"128869","name":"West Fargo","state_id":1418,"state_code":"ND","country_id":233,"country_code":"US","latitude":"46.87497000","longitude":"-96.90036000"},{"id":"129264","name":"Williams County","state_id":1418,"state_code":"ND","country_id":233,"country_code":"US","latitude":"48.34368000","longitude":"-103.48021000"},{"id":"129299","name":"Williston","state_id":1418,"state_code":"ND","country_id":233,"country_code":"US","latitude":"48.14697000","longitude":"-103.61797000"}]