[{"id":"111006","name":"Ada","state_id":1420,"state_code":"MN","country_id":233,"country_code":"US","latitude":"47.29969000","longitude":"-96.51535000"},{"id":"111047","name":"Adrian","state_id":1420,"state_code":"MN","country_id":233,"country_code":"US","latitude":"43.63497000","longitude":"-95.93280000"},{"id":"111053","name":"Afton","state_id":1420,"state_code":"MN","country_id":233,"country_code":"US","latitude":"44.90275000","longitude":"-92.78354000"},{"id":"111073","name":"Aitkin","state_id":1420,"state_code":"MN","country_id":233,"country_code":"US","latitude":"46.53301000","longitude":"-93.71025000"},{"id":"111074","name":"Aitkin County","state_id":1420,"state_code":"MN","country_id":233,"country_code":"US","latitude":"46.60826000","longitude":"-93.41543000"},{"id":"111106","name":"Albany","state_id":1420,"state_code":"MN","country_id":233,"country_code":"US","latitude":"45.62996000","longitude":"-94.57000000"},{"id":"111118","name":"Albert Lea","state_id":1420,"state_code":"MN","country_id":233,"country_code":"US","latitude":"43.64801000","longitude":"-93.36827000"},{"id":"111121","name":"Albertville","state_id":1420,"state_code":"MN","country_id":233,"country_code":"US","latitude":"45.23774000","longitude":"-93.65441000"},{"id":"111154","name":"Alexandria","state_id":1420,"state_code":"MN","country_id":233,"country_code":"US","latitude":"45.88524000","longitude":"-95.37754000"},{"id":"111324","name":"Andover","state_id":1420,"state_code":"MN","country_id":233,"country_code":"US","latitude":"45.23330000","longitude":"-93.29134000"},{"id":"111350","name":"Annandale","state_id":1420,"state_code":"MN","country_id":233,"country_code":"US","latitude":"45.26274000","longitude":"-94.12443000"},{"id":"111358","name":"Anoka","state_id":1420,"state_code":"MN","country_id":233,"country_code":"US","latitude":"45.19774000","longitude":"-93.38718000"},{"id":"111359","name":"Anoka County","state_id":1420,"state_code":"MN","country_id":233,"country_code":"US","latitude":"45.27324000","longitude":"-93.24645000"},{"id":"111393","name":"Apple Valley","state_id":1420,"state_code":"MN","country_id":233,"country_code":"US","latitude":"44.73191000","longitude":"-93.21772000"},{"id":"111396","name":"Appleton","state_id":1420,"state_code":"MN","country_id":233,"country_code":"US","latitude":"45.19691000","longitude":"-96.01977000"},{"id":"111438","name":"Arden Hills","state_id":1420,"state_code":"MN","country_id":233,"country_code":"US","latitude":"45.05024000","longitude":"-93.15661000"},{"id":"111466","name":"Arlington","state_id":1420,"state_code":"MN","country_id":233,"country_code":"US","latitude":"44.60830000","longitude":"-94.08053000"},{"id":"111486","name":"Arnold","state_id":1420,"state_code":"MN","country_id":233,"country_code":"US","latitude":"46.88022000","longitude":"-92.09047000"},{"id":"111612","name":"Atwater","state_id":1420,"state_code":"MN","country_id":233,"country_code":"US","latitude":"45.13885000","longitude":"-94.77806000"},{"id":"111660","name":"Aurora","state_id":1420,"state_code":"MN","country_id":233,"country_code":"US","latitude":"47.52993000","longitude":"-92.23712000"},{"id":"111669","name":"Austin","state_id":1420,"state_code":"MN","country_id":233,"country_code":"US","latitude":"43.66663000","longitude":"-92.97464000"},{"id":"111692","name":"Avon","state_id":1420,"state_code":"MN","country_id":233,"country_code":"US","latitude":"45.60913000","longitude":"-94.45167000"},{"id":"111714","name":"Babbitt","state_id":1420,"state_code":"MN","country_id":233,"country_code":"US","latitude":"47.70853000","longitude":"-91.94460000"},{"id":"111728","name":"Bagley","state_id":1420,"state_code":"MN","country_id":233,"country_code":"US","latitude":"47.52162000","longitude":"-95.39835000"},{"id":"111830","name":"Barnesville","state_id":1420,"state_code":"MN","country_id":233,"country_code":"US","latitude":"46.65218000","longitude":"-96.41979000"},{"id":"111911","name":"Baudette","state_id":1420,"state_code":"MN","country_id":233,"country_code":"US","latitude":"48.71247000","longitude":"-94.59993000"},{"id":"111916","name":"Baxter","state_id":1420,"state_code":"MN","country_id":233,"country_code":"US","latitude":"46.34330000","longitude":"-94.28667000"},{"id":"111951","name":"Bayport","state_id":1420,"state_code":"MN","country_id":233,"country_code":"US","latitude":"45.02136000","longitude":"-92.78104000"},{"id":"112012","name":"Becker","state_id":1420,"state_code":"MN","country_id":233,"country_code":"US","latitude":"45.39330000","longitude":"-93.87692000"},{"id":"112013","name":"Becker County","state_id":1420,"state_code":"MN","country_id":233,"country_code":"US","latitude":"46.93465000","longitude":"-95.67392000"},{"id":"112090","name":"Belle Plaine","state_id":1420,"state_code":"MN","country_id":233,"country_code":"US","latitude":"44.62274000","longitude":"-93.76857000"},{"id":"112150","name":"Beltrami County","state_id":1420,"state_code":"MN","country_id":233,"country_code":"US","latitude":"47.97378000","longitude":"-94.93765000"},{"id":"112160","name":"Bemidji","state_id":1420,"state_code":"MN","country_id":233,"country_code":"US","latitude":"47.47356000","longitude":"-94.88028000"},{"id":"112183","name":"Benson","state_id":1420,"state_code":"MN","country_id":233,"country_code":"US","latitude":"45.31496000","longitude":"-95.60003000"},{"id":"112205","name":"Benton County","state_id":1420,"state_code":"MN","country_id":233,"country_code":"US","latitude":"45.69913000","longitude":"-93.99884000"},{"id":"112323","name":"Big Lake","state_id":1420,"state_code":"MN","country_id":233,"country_code":"US","latitude":"45.33246000","longitude":"-93.74608000"},{"id":"112336","name":"Big Stone County","state_id":1420,"state_code":"MN","country_id":233,"country_code":"US","latitude":"45.42610000","longitude":"-96.41092000"},{"id":"112355","name":"Birchwood","state_id":1420,"state_code":"MN","country_id":233,"country_code":"US","latitude":"45.06108000","longitude":"-92.97605000"},{"id":"112403","name":"Blaine","state_id":1420,"state_code":"MN","country_id":233,"country_code":"US","latitude":"45.16080000","longitude":"-93.23495000"},{"id":"112442","name":"Blooming Prairie","state_id":1420,"state_code":"MN","country_id":233,"country_code":"US","latitude":"43.86663000","longitude":"-93.05103000"},{"id":"112452","name":"Bloomington","state_id":1420,"state_code":"MN","country_id":233,"country_code":"US","latitude":"44.84080000","longitude":"-93.29828000"},{"id":"112465","name":"Blue Earth","state_id":1420,"state_code":"MN","country_id":233,"country_code":"US","latitude":"43.63746000","longitude":"-94.10218000"},{"id":"112466","name":"Blue Earth County","state_id":1420,"state_code":"MN","country_id":233,"country_code":"US","latitude":"44.03459000","longitude":"-94.06703000"},{"id":"112679","name":"Braham","state_id":1420,"state_code":"MN","country_id":233,"country_code":"US","latitude":"45.72274000","longitude":"-93.17078000"},{"id":"112681","name":"Brainerd","state_id":1420,"state_code":"MN","country_id":233,"country_code":"US","latitude":"46.35802000","longitude":"-94.20083000"},{"id":"112684","name":"Branch","state_id":1420,"state_code":"MN","country_id":233,"country_code":"US","latitude":"45.48524000","longitude":"-92.96188000"},{"id":"112712","name":"Breckenridge","state_id":1420,"state_code":"MN","country_id":233,"country_code":"US","latitude":"46.26357000","longitude":"-96.58813000"},{"id":"112718","name":"Breezy Point","state_id":1420,"state_code":"MN","country_id":233,"country_code":"US","latitude":"46.59001000","longitude":"-94.21982000"},{"id":"112874","name":"Brooklyn Center","state_id":1420,"state_code":"MN","country_id":233,"country_code":"US","latitude":"45.07608000","longitude":"-93.33273000"},{"id":"112877","name":"Brooklyn Park","state_id":1420,"state_code":"MN","country_id":233,"country_code":"US","latitude":"45.09413000","longitude":"-93.35634000"},{"id":"112911","name":"Brown County","state_id":1420,"state_code":"MN","country_id":233,"country_code":"US","latitude":"44.24217000","longitude":"-94.72748000"},{"id":"113013","name":"Buffalo","state_id":1420,"state_code":"MN","country_id":233,"country_code":"US","latitude":"45.17191000","longitude":"-93.87469000"},{"id":"113091","name":"Burnsville","state_id":1420,"state_code":"MN","country_id":233,"country_code":"US","latitude":"44.76774000","longitude":"-93.27772000"},{"id":"113145","name":"Byron","state_id":1420,"state_code":"MN","country_id":233,"country_code":"US","latitude":"44.03274000","longitude":"-92.64546000"},{"id":"113190","name":"Caledonia","state_id":1420,"state_code":"MN","country_id":233,"country_code":"US","latitude":"43.63469000","longitude":"-91.49681000"},{"id":"113253","name":"Cambridge","state_id":1420,"state_code":"MN","country_id":233,"country_code":"US","latitude":"45.57274000","longitude":"-93.22439000"},{"id":"113321","name":"Canby","state_id":1420,"state_code":"MN","country_id":233,"country_code":"US","latitude":"44.70885000","longitude":"-96.27643000"},{"id":"113334","name":"Cannon Falls","state_id":1420,"state_code":"MN","country_id":233,"country_code":"US","latitude":"44.50691000","longitude":"-92.90548000"},{"id":"113411","name":"Carlton","state_id":1420,"state_code":"MN","country_id":233,"country_code":"US","latitude":"46.66383000","longitude":"-92.42491000"},{"id":"113413","name":"Carlton County","state_id":1420,"state_code":"MN","country_id":233,"country_code":"US","latitude":"46.59240000","longitude":"-92.67705000"},{"id":"113501","name":"Carver","state_id":1420,"state_code":"MN","country_id":233,"country_code":"US","latitude":"44.76357000","longitude":"-93.62579000"},{"id":"113502","name":"Carver County","state_id":1420,"state_code":"MN","country_id":233,"country_code":"US","latitude":"44.82076000","longitude":"-93.80258000"},{"id":"113532","name":"Cass County","state_id":1420,"state_code":"MN","country_id":233,"country_code":"US","latitude":"46.94959000","longitude":"-94.32535000"},{"id":"113640","name":"Center City","state_id":1420,"state_code":"MN","country_id":233,"country_code":"US","latitude":"45.39385000","longitude":"-92.81660000"},{"id":"113660","name":"Centerville","state_id":1420,"state_code":"MN","country_id":233,"country_code":"US","latitude":"45.16302000","longitude":"-93.05578000"},{"id":"113727","name":"Champlin","state_id":1420,"state_code":"MN","country_id":233,"country_code":"US","latitude":"45.18885000","longitude":"-93.39745000"},{"id":"113732","name":"Chanhassen","state_id":1420,"state_code":"MN","country_id":233,"country_code":"US","latitude":"44.86219000","longitude":"-93.53079000"},{"id":"113794","name":"Chaska","state_id":1420,"state_code":"MN","country_id":233,"country_code":"US","latitude":"44.78941000","longitude":"-93.60218000"},{"id":"113795","name":"Chatfield","state_id":1420,"state_code":"MN","country_id":233,"country_code":"US","latitude":"43.84552000","longitude":"-92.18905000"},{"id":"113974","name":"Chippewa County","state_id":1420,"state_code":"MN","country_id":233,"country_code":"US","latitude":"45.02234000","longitude":"-95.56669000"},{"id":"113977","name":"Chisago City","state_id":1420,"state_code":"MN","country_id":233,"country_code":"US","latitude":"45.37358000","longitude":"-92.88994000"},{"id":"113978","name":"Chisago County","state_id":1420,"state_code":"MN","country_id":233,"country_code":"US","latitude":"45.50247000","longitude":"-92.90834000"},{"id":"113979","name":"Chisholm","state_id":1420,"state_code":"MN","country_id":233,"country_code":"US","latitude":"47.48910000","longitude":"-92.88380000"},{"id":"114030","name":"Circle Pines","state_id":1420,"state_code":"MN","country_id":233,"country_code":"US","latitude":"45.14858000","longitude":"-93.15161000"},{"id":"114100","name":"Clara City","state_id":1420,"state_code":"MN","country_id":233,"country_code":"US","latitude":"44.95496000","longitude":"-95.36640000"},{"id":"114188","name":"Clay County","state_id":1420,"state_code":"MN","country_id":233,"country_code":"US","latitude":"46.89234000","longitude":"-96.49065000"},{"id":"114225","name":"Clearwater","state_id":1420,"state_code":"MN","country_id":233,"country_code":"US","latitude":"45.41941000","longitude":"-94.04887000"},{"id":"114226","name":"Clearwater County","state_id":1420,"state_code":"MN","country_id":233,"country_code":"US","latitude":"47.57766000","longitude":"-95.37903000"},{"id":"114304","name":"Cloquet","state_id":1420,"state_code":"MN","country_id":233,"country_code":"US","latitude":"46.72161000","longitude":"-92.45936000"},{"id":"114373","name":"Cohasset","state_id":1420,"state_code":"MN","country_id":233,"country_code":"US","latitude":"47.26356000","longitude":"-93.62022000"},{"id":"114376","name":"Cokato","state_id":1420,"state_code":"MN","country_id":233,"country_code":"US","latitude":"45.07580000","longitude":"-94.18998000"},{"id":"114386","name":"Cold Spring","state_id":1420,"state_code":"MN","country_id":233,"country_code":"US","latitude":"45.45580000","longitude":"-94.42888000"},{"id":"114401","name":"Coleraine","state_id":1420,"state_code":"MN","country_id":233,"country_code":"US","latitude":"47.28883000","longitude":"-93.42771000"},{"id":"114419","name":"Collegeville","state_id":1420,"state_code":"MN","country_id":233,"country_code":"US","latitude":"45.59441000","longitude":"-94.36305000"},{"id":"114442","name":"Cologne","state_id":1420,"state_code":"MN","country_id":233,"country_code":"US","latitude":"44.77163000","longitude":"-93.78135000"},{"id":"114486","name":"Columbia Heights","state_id":1420,"state_code":"MN","country_id":233,"country_code":"US","latitude":"45.04080000","longitude":"-93.26300000"},{"id":"114500","name":"Columbus","state_id":1420,"state_code":"MN","country_id":233,"country_code":"US","latitude":"45.26522000","longitude":"-93.05015000"},{"id":"114593","name":"Cook County","state_id":1420,"state_code":"MN","country_id":233,"country_code":"US","latitude":"47.81684000","longitude":"-90.54108000"},{"id":"114600","name":"Coon Rapids","state_id":1420,"state_code":"MN","country_id":233,"country_code":"US","latitude":"45.11997000","longitude":"-93.28773000"},{"id":"114632","name":"Corcoran","state_id":1420,"state_code":"MN","country_id":233,"country_code":"US","latitude":"45.09524000","longitude":"-93.54746000"},{"id":"114691","name":"Cottage Grove","state_id":1420,"state_code":"MN","country_id":233,"country_code":"US","latitude":"44.82774000","longitude":"-92.94382000"},{"id":"114700","name":"Cottonwood","state_id":1420,"state_code":"MN","country_id":233,"country_code":"US","latitude":"44.60885000","longitude":"-95.67419000"},{"id":"114703","name":"Cottonwood County","state_id":1420,"state_code":"MN","country_id":233,"country_code":"US","latitude":"44.00711000","longitude":"-95.18115000"},{"id":"114840","name":"Crookston","state_id":1420,"state_code":"MN","country_id":233,"country_code":"US","latitude":"47.77414000","longitude":"-96.60812000"},{"id":"114843","name":"Crosby","state_id":1420,"state_code":"MN","country_id":233,"country_code":"US","latitude":"46.48218000","longitude":"-93.95776000"},{"id":"114849","name":"Cross Lake","state_id":1420,"state_code":"MN","country_id":233,"country_code":"US","latitude":"46.65941000","longitude":"-94.11387000"},{"id":"114861","name":"Crow Wing County","state_id":1420,"state_code":"MN","country_id":233,"country_code":"US","latitude":"46.48237000","longitude":"-94.07087000"},{"id":"114874","name":"Crystal","state_id":1420,"state_code":"MN","country_id":233,"country_code":"US","latitude":"45.03274000","longitude":"-93.36023000"},{"id":"114976","name":"Dakota County","state_id":1420,"state_code":"MN","country_id":233,"country_code":"US","latitude":"44.67189000","longitude":"-93.06544000"},{"id":"115055","name":"Dassel","state_id":1420,"state_code":"MN","country_id":233,"country_code":"US","latitude":"45.08163000","longitude":"-94.30693000"},{"id":"115082","name":"Dawson","state_id":1420,"state_code":"MN","country_id":233,"country_code":"US","latitude":"44.93274000","longitude":"-96.05448000"},{"id":"115096","name":"Dayton","state_id":1420,"state_code":"MN","country_id":233,"country_code":"US","latitude":"45.24385000","longitude":"-93.51496000"},{"id":"115171","name":"Deephaven","state_id":1420,"state_code":"MN","country_id":233,"country_code":"US","latitude":"44.92969000","longitude":"-93.52246000"},{"id":"115198","name":"Delano","state_id":1420,"state_code":"MN","country_id":233,"country_code":"US","latitude":"45.04191000","longitude":"-93.78913000"},{"id":"115216","name":"Dellwood","state_id":1420,"state_code":"MN","country_id":233,"country_code":"US","latitude":"45.08997000","longitude":"-92.97244000"},{"id":"115293","name":"Detroit Lakes","state_id":1420,"state_code":"MN","country_id":233,"country_code":"US","latitude":"46.81718000","longitude":"-95.84533000"},{"id":"115347","name":"Dilworth","state_id":1420,"state_code":"MN","country_id":233,"country_code":"US","latitude":"46.87663000","longitude":"-96.70341000"},{"id":"115375","name":"Dodge Center","state_id":1420,"state_code":"MN","country_id":233,"country_code":"US","latitude":"44.02802000","longitude":"-92.85464000"},{"id":"115378","name":"Dodge County","state_id":1420,"state_code":"MN","country_id":233,"country_code":"US","latitude":"44.02259000","longitude":"-92.86205000"},{"id":"115429","name":"Douglas County","state_id":1420,"state_code":"MN","country_id":233,"country_code":"US","latitude":"45.93372000","longitude":"-95.45352000"},{"id":"115513","name":"Duluth","state_id":1420,"state_code":"MN","country_id":233,"country_code":"US","latitude":"46.78327000","longitude":"-92.10658000"},{"id":"115527","name":"Dundas","state_id":1420,"state_code":"MN","country_id":233,"country_code":"US","latitude":"44.42941000","longitude":"-93.20188000"},{"id":"115593","name":"Eagan","state_id":1420,"state_code":"MN","country_id":233,"country_code":"US","latitude":"44.80413000","longitude":"-93.16689000"},{"id":"115604","name":"Eagle Lake","state_id":1420,"state_code":"MN","country_id":233,"country_code":"US","latitude":"44.16497000","longitude":"-93.88134000"},{"id":"115634","name":"East Bethel","state_id":1420,"state_code":"MN","country_id":233,"country_code":"US","latitude":"45.31941000","longitude":"-93.20245000"},{"id":"115670","name":"East Grand Forks","state_id":1420,"state_code":"MN","country_id":233,"country_code":"US","latitude":"47.92998000","longitude":"-97.02452000"},{"id":"115676","name":"East Gull Lake","state_id":1420,"state_code":"MN","country_id":233,"country_code":"US","latitude":"46.40802000","longitude":"-94.35584000"},{"id":"115832","name":"Eden Prairie","state_id":1420,"state_code":"MN","country_id":233,"country_code":"US","latitude":"44.85469000","longitude":"-93.47079000"},{"id":"115833","name":"Eden Valley","state_id":1420,"state_code":"MN","country_id":233,"country_code":"US","latitude":"45.32607000","longitude":"-94.54611000"},{"id":"115849","name":"Edgerton","state_id":1420,"state_code":"MN","country_id":233,"country_code":"US","latitude":"43.87247000","longitude":"-96.12864000"},{"id":"115867","name":"Edina","state_id":1420,"state_code":"MN","country_id":233,"country_code":"US","latitude":"44.88969000","longitude":"-93.34995000"},{"id":"115946","name":"Elbow Lake","state_id":1420,"state_code":"MN","country_id":233,"country_code":"US","latitude":"45.99413000","longitude":"-95.97672000"},{"id":"115967","name":"Elgin","state_id":1420,"state_code":"MN","country_id":233,"country_code":"US","latitude":"44.13024000","longitude":"-92.25156000"},{"id":"115993","name":"Elk River","state_id":1420,"state_code":"MN","country_id":233,"country_code":"US","latitude":"45.30385000","longitude":"-93.56718000"},{"id":"116010","name":"Elko New Market","state_id":1420,"state_code":"MN","country_id":233,"country_code":"US","latitude":"44.56472000","longitude":"-93.32694000"},{"id":"116085","name":"Ely","state_id":1420,"state_code":"MN","country_id":233,"country_code":"US","latitude":"47.90324000","longitude":"-91.86709000"},{"id":"116185","name":"Esko","state_id":1420,"state_code":"MN","country_id":233,"country_code":"US","latitude":"46.70578000","longitude":"-92.36325000"},{"id":"116257","name":"Eveleth","state_id":1420,"state_code":"MN","country_id":233,"country_code":"US","latitude":"47.46243000","longitude":"-92.53991000"},{"id":"116269","name":"Excelsior","state_id":1420,"state_code":"MN","country_id":233,"country_code":"US","latitude":"44.90330000","longitude":"-93.56635000"},{"id":"116278","name":"Eyota","state_id":1420,"state_code":"MN","country_id":233,"country_code":"US","latitude":"43.98830000","longitude":"-92.22850000"},{"id":"116305","name":"Fairfax","state_id":1420,"state_code":"MN","country_id":233,"country_code":"US","latitude":"44.52913000","longitude":"-94.72082000"},{"id":"116337","name":"Fairmont","state_id":1420,"state_code":"MN","country_id":233,"country_code":"US","latitude":"43.65218000","longitude":"-94.46108000"},{"id":"116365","name":"Falcon Heights","state_id":1420,"state_code":"MN","country_id":233,"country_code":"US","latitude":"44.99163000","longitude":"-93.16633000"},{"id":"116397","name":"Faribault","state_id":1420,"state_code":"MN","country_id":233,"country_code":"US","latitude":"44.29496000","longitude":"-93.26883000"},{"id":"116398","name":"Faribault County","state_id":1420,"state_code":"MN","country_id":233,"country_code":"US","latitude":"43.67393000","longitude":"-93.94800000"},{"id":"116419","name":"Farmington","state_id":1420,"state_code":"MN","country_id":233,"country_code":"US","latitude":"44.64024000","longitude":"-93.14355000"},{"id":"116479","name":"Fergus Falls","state_id":1420,"state_code":"MN","country_id":233,"country_code":"US","latitude":"46.28302000","longitude":"-96.07756000"},{"id":"116510","name":"Fillmore County","state_id":1420,"state_code":"MN","country_id":233,"country_code":"US","latitude":"43.67400000","longitude":"-92.09017000"},{"id":"116620","name":"Foley","state_id":1420,"state_code":"MN","country_id":233,"country_code":"US","latitude":"45.66469000","longitude":"-93.90970000"},{"id":"116661","name":"Forest Lake","state_id":1420,"state_code":"MN","country_id":233,"country_code":"US","latitude":"45.27886000","longitude":"-92.98522000"},{"id":"116773","name":"Fosston","state_id":1420,"state_code":"MN","country_id":233,"country_code":"US","latitude":"47.57635000","longitude":"-95.75141000"},{"id":"116882","name":"Frazee","state_id":1420,"state_code":"MN","country_id":233,"country_code":"US","latitude":"46.72801000","longitude":"-95.70088000"},{"id":"116899","name":"Freeborn County","state_id":1420,"state_code":"MN","country_id":233,"country_code":"US","latitude":"43.67384000","longitude":"-93.34882000"},{"id":"116944","name":"Fridley","state_id":1420,"state_code":"MN","country_id":233,"country_code":"US","latitude":"45.08608000","longitude":"-93.26328000"},{"id":"116979","name":"Fulda","state_id":1420,"state_code":"MN","country_id":233,"country_code":"US","latitude":"43.87052000","longitude":"-95.60029000"},{"id":"117128","name":"Gaylord","state_id":1420,"state_code":"MN","country_id":233,"country_code":"US","latitude":"44.55302000","longitude":"-94.22053000"},{"id":"117203","name":"Gilbert","state_id":1420,"state_code":"MN","country_id":233,"country_code":"US","latitude":"47.48882000","longitude":"-92.46491000"},{"id":"117279","name":"Glencoe","state_id":1420,"state_code":"MN","country_id":233,"country_code":"US","latitude":"44.76913000","longitude":"-94.15164000"},{"id":"117315","name":"Glenwood","state_id":1420,"state_code":"MN","country_id":233,"country_code":"US","latitude":"45.65024000","longitude":"-95.38976000"},{"id":"117330","name":"Glyndon","state_id":1420,"state_code":"MN","country_id":233,"country_code":"US","latitude":"46.87524000","longitude":"-96.57896000"},{"id":"117355","name":"Golden Valley","state_id":1420,"state_code":"MN","country_id":233,"country_code":"US","latitude":"45.00969000","longitude":"-93.34912000"},{"id":"117379","name":"Goodhue","state_id":1420,"state_code":"MN","country_id":233,"country_code":"US","latitude":"44.40052000","longitude":"-92.62380000"},{"id":"117380","name":"Goodhue County","state_id":1420,"state_code":"MN","country_id":233,"country_code":"US","latitude":"44.40985000","longitude":"-92.72259000"},{"id":"117390","name":"Goodview","state_id":1420,"state_code":"MN","country_id":233,"country_code":"US","latitude":"44.06246000","longitude":"-91.69571000"},{"id":"117467","name":"Grand Marais","state_id":1420,"state_code":"MN","country_id":233,"country_code":"US","latitude":"47.75045000","longitude":"-90.33427000"},{"id":"117468","name":"Grand Meadow","state_id":1420,"state_code":"MN","country_id":233,"country_code":"US","latitude":"43.70580000","longitude":"-92.57212000"},{"id":"117472","name":"Grand Rapids","state_id":1420,"state_code":"MN","country_id":233,"country_code":"US","latitude":"47.23717000","longitude":"-93.53021000"},{"id":"117497","name":"Granite Falls","state_id":1420,"state_code":"MN","country_id":233,"country_code":"US","latitude":"44.80996000","longitude":"-95.54558000"},{"id":"117504","name":"Grant","state_id":1420,"state_code":"MN","country_id":233,"country_code":"US","latitude":"45.08441000","longitude":"-92.91049000"},{"id":"117513","name":"Grant County","state_id":1420,"state_code":"MN","country_id":233,"country_code":"US","latitude":"45.93405000","longitude":"-96.01218000"},{"id":"117651","name":"Greenfield","state_id":1420,"state_code":"MN","country_id":233,"country_code":"US","latitude":"45.10330000","longitude":"-93.69135000"},{"id":"117871","name":"Hallock","state_id":1420,"state_code":"MN","country_id":233,"country_code":"US","latitude":"48.77443000","longitude":"-96.94645000"},{"id":"117879","name":"Ham Lake","state_id":1420,"state_code":"MN","country_id":233,"country_code":"US","latitude":"45.25024000","longitude":"-93.24995000"},{"id":"117971","name":"Hanover","state_id":1420,"state_code":"MN","country_id":233,"country_code":"US","latitude":"45.15580000","longitude":"-93.66635000"},{"id":"118043","name":"Harris","state_id":1420,"state_code":"MN","country_id":233,"country_code":"US","latitude":"45.58635000","longitude":"-92.97466000"},{"id":"118132","name":"Hastings","state_id":1420,"state_code":"MN","country_id":233,"country_code":"US","latitude":"44.74330000","longitude":"-92.85243000"},{"id":"118168","name":"Hawley","state_id":1420,"state_code":"MN","country_id":233,"country_code":"US","latitude":"46.88079000","longitude":"-96.31673000"},{"id":"118185","name":"Hayfield","state_id":1420,"state_code":"MN","country_id":233,"country_code":"US","latitude":"43.89052000","longitude":"-92.84769000"},{"id":"118241","name":"Hector","state_id":1420,"state_code":"MN","country_id":233,"country_code":"US","latitude":"44.74385000","longitude":"-94.71555000"},{"id":"118291","name":"Hennepin County","state_id":1420,"state_code":"MN","country_id":233,"country_code":"US","latitude":"45.00458000","longitude":"-93.47688000"},{"id":"118326","name":"Hermantown","state_id":1420,"state_code":"MN","country_id":233,"country_code":"US","latitude":"46.80689000","longitude":"-92.23825000"},{"id":"118359","name":"Hibbing","state_id":1420,"state_code":"MN","country_id":233,"country_code":"US","latitude":"47.42715000","longitude":"-92.93769000"},{"id":"118477","name":"Hinckley","state_id":1420,"state_code":"MN","country_id":233,"country_code":"US","latitude":"46.01134000","longitude":"-92.94437000"},{"id":"118652","name":"Hopkins","state_id":1420,"state_code":"MN","country_id":233,"country_code":"US","latitude":"44.92496000","longitude":"-93.46273000"},{"id":"118706","name":"Houston County","state_id":1420,"state_code":"MN","country_id":233,"country_code":"US","latitude":"43.67144000","longitude":"-91.49283000"},{"id":"118719","name":"Howard Lake","state_id":1420,"state_code":"MN","country_id":233,"country_code":"US","latitude":"45.06080000","longitude":"-94.07331000"},{"id":"118728","name":"Hoyt Lakes","state_id":1420,"state_code":"MN","country_id":233,"country_code":"US","latitude":"47.51965000","longitude":"-92.13851000"},{"id":"118732","name":"Hubbard County","state_id":1420,"state_code":"MN","country_id":233,"country_code":"US","latitude":"47.10865000","longitude":"-94.91664000"},{"id":"118766","name":"Hugo","state_id":1420,"state_code":"MN","country_id":233,"country_code":"US","latitude":"45.15997000","longitude":"-92.99327000"},{"id":"118836","name":"Hutchinson","state_id":1420,"state_code":"MN","country_id":233,"country_code":"US","latitude":"44.88774000","longitude":"-94.36971000"},{"id":"118895","name":"Independence","state_id":1420,"state_code":"MN","country_id":233,"country_code":"US","latitude":"45.02524000","longitude":"-93.70746000"},{"id":"118952","name":"International Falls","state_id":1420,"state_code":"MN","country_id":233,"country_code":"US","latitude":"48.60105000","longitude":"-93.41098000"},{"id":"118953","name":"Inver Grove Heights","state_id":1420,"state_code":"MN","country_id":233,"country_code":"US","latitude":"44.84802000","longitude":"-93.04272000"},{"id":"119017","name":"Isanti","state_id":1420,"state_code":"MN","country_id":233,"country_code":"US","latitude":"45.49024000","longitude":"-93.24773000"},{"id":"119018","name":"Isanti County","state_id":1420,"state_code":"MN","country_id":233,"country_code":"US","latitude":"45.56149000","longitude":"-93.29518000"},{"id":"119041","name":"Itasca County","state_id":1420,"state_code":"MN","country_id":233,"country_code":"US","latitude":"47.50953000","longitude":"-93.63200000"},{"id":"119048","name":"Ivanhoe","state_id":1420,"state_code":"MN","country_id":233,"country_code":"US","latitude":"44.46330000","longitude":"-96.24726000"},{"id":"119070","name":"Jackson","state_id":1420,"state_code":"MN","country_id":233,"country_code":"US","latitude":"43.62079000","longitude":"-94.98860000"},{"id":"119092","name":"Jackson County","state_id":1420,"state_code":"MN","country_id":233,"country_code":"US","latitude":"43.67417000","longitude":"-95.15411000"},{"id":"119130","name":"Janesville","state_id":1420,"state_code":"MN","country_id":233,"country_code":"US","latitude":"44.11608000","longitude":"-93.70800000"},{"id":"119315","name":"Jordan","state_id":1420,"state_code":"MN","country_id":233,"country_code":"US","latitude":"44.66691000","longitude":"-93.62690000"},{"id":"119373","name":"Kanabec County","state_id":1420,"state_code":"MN","country_id":233,"country_code":"US","latitude":"45.94522000","longitude":"-93.29343000"},{"id":"119375","name":"Kandiyohi County","state_id":1420,"state_code":"MN","country_id":233,"country_code":"US","latitude":"45.15238000","longitude":"-95.00474000"},{"id":"119392","name":"Kasson","state_id":1420,"state_code":"MN","country_id":233,"country_code":"US","latitude":"44.02996000","longitude":"-92.75074000"},{"id":"119424","name":"Keewatin","state_id":1420,"state_code":"MN","country_id":233,"country_code":"US","latitude":"47.39966000","longitude":"-93.07242000"},{"id":"119506","name":"Kenyon","state_id":1420,"state_code":"MN","country_id":233,"country_code":"US","latitude":"44.27219000","longitude":"-92.98548000"},{"id":"119667","name":"Kittson County","state_id":1420,"state_code":"MN","country_id":233,"country_code":"US","latitude":"48.77663000","longitude":"-96.78285000"},{"id":"119705","name":"Koochiching County","state_id":1420,"state_code":"MN","country_id":233,"country_code":"US","latitude":"48.24527000","longitude":"-93.78337000"},{"id":"119741","name":"La Crescent","state_id":1420,"state_code":"MN","country_id":233,"country_code":"US","latitude":"43.82802000","longitude":"-91.30403000"},{"id":"119811","name":"Lac qui Parle County","state_id":1420,"state_code":"MN","country_id":233,"country_code":"US","latitude":"44.99549000","longitude":"-96.17348000"},{"id":"119883","name":"Lake City","state_id":1420,"state_code":"MN","country_id":233,"country_code":"US","latitude":"44.44968000","longitude":"-92.26820000"},{"id":"119894","name":"Lake County","state_id":1420,"state_code":"MN","country_id":233,"country_code":"US","latitude":"47.52317000","longitude":"-91.40885000"},{"id":"119900","name":"Lake Crystal","state_id":1420,"state_code":"MN","country_id":233,"country_code":"US","latitude":"44.10580000","longitude":"-94.21885000"},{"id":"119905","name":"Lake Elmo","state_id":1420,"state_code":"MN","country_id":233,"country_code":"US","latitude":"44.99580000","longitude":"-92.87938000"},{"id":"120008","name":"Lake of the Woods County","state_id":1420,"state_code":"MN","country_id":233,"country_code":"US","latitude":"48.77051000","longitude":"-94.90503000"},{"id":"119971","name":"Lake Saint Croix Beach","state_id":1420,"state_code":"MN","country_id":233,"country_code":"US","latitude":"44.92080000","longitude":"-92.76687000"},{"id":"119977","name":"Lake Shore","state_id":1420,"state_code":"MN","country_id":233,"country_code":"US","latitude":"46.48552000","longitude":"-94.36056000"},{"id":"120009","name":"Lakefield","state_id":1420,"state_code":"MN","country_id":233,"country_code":"US","latitude":"43.67746000","longitude":"-95.17166000"},{"id":"120015","name":"Lakeland","state_id":1420,"state_code":"MN","country_id":233,"country_code":"US","latitude":"44.95636000","longitude":"-92.76576000"},{"id":"120043","name":"Lakeville","state_id":1420,"state_code":"MN","country_id":233,"country_code":"US","latitude":"44.64969000","longitude":"-93.24272000"},{"id":"120178","name":"Lauderdale","state_id":1420,"state_code":"MN","country_id":233,"country_code":"US","latitude":"44.99858000","longitude":"-93.20578000"},{"id":"120257","name":"Le Center","state_id":1420,"state_code":"MN","country_id":233,"country_code":"US","latitude":"44.38941000","longitude":"-93.73023000"},{"id":"120264","name":"Le Sueur","state_id":1420,"state_code":"MN","country_id":233,"country_code":"US","latitude":"44.46135000","longitude":"-93.91524000"},{"id":"120265","name":"Le Sueur County","state_id":1420,"state_code":"MN","country_id":233,"country_code":"US","latitude":"44.37143000","longitude":"-93.73008000"},{"id":"120399","name":"Lester Prairie","state_id":1420,"state_code":"MN","country_id":233,"country_code":"US","latitude":"44.88385000","longitude":"-94.04164000"},{"id":"120425","name":"Lewiston","state_id":1420,"state_code":"MN","country_id":233,"country_code":"US","latitude":"43.98441000","longitude":"-91.86932000"},{"id":"120450","name":"Lexington","state_id":1420,"state_code":"MN","country_id":233,"country_code":"US","latitude":"45.14247000","longitude":"-93.16328000"},{"id":"120527","name":"Lincoln County","state_id":1420,"state_code":"MN","country_id":233,"country_code":"US","latitude":"44.41260000","longitude":"-96.26709000"},{"id":"120576","name":"Lindstrom","state_id":1420,"state_code":"MN","country_id":233,"country_code":"US","latitude":"45.38941000","longitude":"-92.84799000"},{"id":"120587","name":"Lino Lakes","state_id":1420,"state_code":"MN","country_id":233,"country_code":"US","latitude":"45.16024000","longitude":"-93.08883000"},{"id":"120605","name":"Litchfield","state_id":1420,"state_code":"MN","country_id":233,"country_code":"US","latitude":"45.12718000","longitude":"-94.52805000"},{"id":"120613","name":"Little Canada","state_id":1420,"state_code":"MN","country_id":233,"country_code":"US","latitude":"45.02691000","longitude":"-93.08772000"},{"id":"120617","name":"Little Falls","state_id":1420,"state_code":"MN","country_id":233,"country_code":"US","latitude":"45.97635000","longitude":"-94.36250000"},{"id":"120627","name":"Little Rock","state_id":1420,"state_code":"MN","country_id":233,"country_code":"US","latitude":"47.86801000","longitude":"-95.11055000"},{"id":"120747","name":"Long Lake","state_id":1420,"state_code":"MN","country_id":233,"country_code":"US","latitude":"44.98663000","longitude":"-93.57162000"},{"id":"120749","name":"Long Prairie","state_id":1420,"state_code":"MN","country_id":233,"country_code":"US","latitude":"45.97469000","longitude":"-94.86558000"},{"id":"120763","name":"Lonsdale","state_id":1420,"state_code":"MN","country_id":233,"country_code":"US","latitude":"44.48024000","longitude":"-93.42856000"},{"id":"120900","name":"Luverne","state_id":1420,"state_code":"MN","country_id":233,"country_code":"US","latitude":"43.65414000","longitude":"-96.21281000"},{"id":"120938","name":"Lyon County","state_id":1420,"state_code":"MN","country_id":233,"country_code":"US","latitude":"44.41349000","longitude":"-95.83897000"},{"id":"120979","name":"Madelia","state_id":1420,"state_code":"MN","country_id":233,"country_code":"US","latitude":"44.05079000","longitude":"-94.41830000"},{"id":"120994","name":"Madison","state_id":1420,"state_code":"MN","country_id":233,"country_code":"US","latitude":"45.00968000","longitude":"-96.19588000"},{"id":"121022","name":"Madison Lake","state_id":1420,"state_code":"MN","country_id":233,"country_code":"US","latitude":"44.20441000","longitude":"-93.81551000"},{"id":"121043","name":"Mahnomen","state_id":1420,"state_code":"MN","country_id":233,"country_code":"US","latitude":"47.31524000","longitude":"-95.96865000"},{"id":"121044","name":"Mahnomen County","state_id":1420,"state_code":"MN","country_id":233,"country_code":"US","latitude":"47.32524000","longitude":"-95.80905000"},{"id":"121047","name":"Mahtomedi","state_id":1420,"state_code":"MN","country_id":233,"country_code":"US","latitude":"45.06969000","longitude":"-92.95160000"},{"id":"121130","name":"Mankato","state_id":1420,"state_code":"MN","country_id":233,"country_code":"US","latitude":"44.15906000","longitude":"-94.00915000"},{"id":"121159","name":"Mantorville","state_id":1420,"state_code":"MN","country_id":233,"country_code":"US","latitude":"44.06913000","longitude":"-92.75575000"},{"id":"121167","name":"Maple Grove","state_id":1420,"state_code":"MN","country_id":233,"country_code":"US","latitude":"45.07246000","longitude":"-93.45579000"},{"id":"121169","name":"Maple Lake","state_id":1420,"state_code":"MN","country_id":233,"country_code":"US","latitude":"45.22913000","longitude":"-94.00192000"},{"id":"121171","name":"Maple Plain","state_id":1420,"state_code":"MN","country_id":233,"country_code":"US","latitude":"45.00719000","longitude":"-93.65579000"},{"id":"121175","name":"Mapleton","state_id":1420,"state_code":"MN","country_id":233,"country_code":"US","latitude":"43.92885000","longitude":"-93.95606000"},{"id":"121178","name":"Maplewood","state_id":1420,"state_code":"MN","country_id":233,"country_code":"US","latitude":"44.95302000","longitude":"-92.99522000"},{"id":"121308","name":"Marshall","state_id":1420,"state_code":"MN","country_id":233,"country_code":"US","latitude":"44.44690000","longitude":"-95.78835000"},{"id":"121320","name":"Marshall County","state_id":1420,"state_code":"MN","country_id":233,"country_code":"US","latitude":"48.35813000","longitude":"-96.36847000"},{"id":"121341","name":"Martin County","state_id":1420,"state_code":"MN","country_id":233,"country_code":"US","latitude":"43.67436000","longitude":"-94.55107000"},{"id":"121432","name":"Mayer","state_id":1420,"state_code":"MN","country_id":233,"country_code":"US","latitude":"44.88496000","longitude":"-93.88775000"},{"id":"121535","name":"McLeod County","state_id":1420,"state_code":"MN","country_id":233,"country_code":"US","latitude":"44.82354000","longitude":"-94.27242000"},{"id":"121593","name":"Medford","state_id":1420,"state_code":"MN","country_id":233,"country_code":"US","latitude":"44.17413000","longitude":"-93.24632000"},{"id":"121604","name":"Medina","state_id":1420,"state_code":"MN","country_id":233,"country_code":"US","latitude":"45.03524000","longitude":"-93.58246000"},{"id":"121614","name":"Meeker County","state_id":1420,"state_code":"MN","country_id":233,"country_code":"US","latitude":"45.12312000","longitude":"-94.52731000"},{"id":"121629","name":"Melrose","state_id":1420,"state_code":"MN","country_id":233,"country_code":"US","latitude":"45.67469000","longitude":"-94.80752000"},{"id":"121644","name":"Menahga","state_id":1420,"state_code":"MN","country_id":233,"country_code":"US","latitude":"46.75385000","longitude":"-95.09808000"},{"id":"121658","name":"Mendota Heights","state_id":1420,"state_code":"MN","country_id":233,"country_code":"US","latitude":"44.88358000","longitude":"-93.13827000"},{"id":"121832","name":"Milaca","state_id":1420,"state_code":"MN","country_id":233,"country_code":"US","latitude":"45.75580000","longitude":"-93.65441000"},{"id":"121876","name":"Mille Lacs County","state_id":1420,"state_code":"MN","country_id":233,"country_code":"US","latitude":"45.93805000","longitude":"-93.63009000"},{"id":"121951","name":"Minneapolis","state_id":1420,"state_code":"MN","country_id":233,"country_code":"US","latitude":"44.97997000","longitude":"-93.26384000"},{"id":"121955","name":"Minneota","state_id":1420,"state_code":"MN","country_id":233,"country_code":"US","latitude":"44.55885000","longitude":"-95.98559000"},{"id":"121956","name":"Minnetonka","state_id":1420,"state_code":"MN","country_id":233,"country_code":"US","latitude":"44.91330000","longitude":"-93.50329000"},{"id":"121957","name":"Minnetonka Mills","state_id":1420,"state_code":"MN","country_id":233,"country_code":"US","latitude":"44.94107000","longitude":"-93.44190000"},{"id":"121958","name":"Minnetrista","state_id":1420,"state_code":"MN","country_id":233,"country_code":"US","latitude":"44.93830000","longitude":"-93.71774000"},{"id":"122126","name":"Montevideo","state_id":1420,"state_code":"MN","country_id":233,"country_code":"US","latitude":"44.94803000","longitude":"-95.71701000"},{"id":"122134","name":"Montgomery","state_id":1420,"state_code":"MN","country_id":233,"country_code":"US","latitude":"44.43885000","longitude":"-93.58134000"},{"id":"122167","name":"Monticello","state_id":1420,"state_code":"MN","country_id":233,"country_code":"US","latitude":"45.30552000","longitude":"-93.79414000"},{"id":"122180","name":"Montrose","state_id":1420,"state_code":"MN","country_id":233,"country_code":"US","latitude":"45.06496000","longitude":"-93.91108000"},{"id":"122212","name":"Moorhead","state_id":1420,"state_code":"MN","country_id":233,"country_code":"US","latitude":"46.87386000","longitude":"-96.76951000"},{"id":"122214","name":"Moose Lake","state_id":1420,"state_code":"MN","country_id":233,"country_code":"US","latitude":"46.45411000","longitude":"-92.76187000"},{"id":"122218","name":"Mora","state_id":1420,"state_code":"MN","country_id":233,"country_code":"US","latitude":"45.87690000","longitude":"-93.29384000"},{"id":"122268","name":"Morris","state_id":1420,"state_code":"MN","country_id":233,"country_code":"US","latitude":"45.58607000","longitude":"-95.91394000"},{"id":"122277","name":"Morrison County","state_id":1420,"state_code":"MN","country_id":233,"country_code":"US","latitude":"46.01262000","longitude":"-94.26842000"},{"id":"122318","name":"Mound","state_id":1420,"state_code":"MN","country_id":233,"country_code":"US","latitude":"44.93663000","longitude":"-93.66607000"},{"id":"122326","name":"Mounds View","state_id":1420,"state_code":"MN","country_id":233,"country_code":"US","latitude":"45.10497000","longitude":"-93.20856000"},{"id":"122419","name":"Mountain Iron","state_id":1420,"state_code":"MN","country_id":233,"country_code":"US","latitude":"47.53243000","longitude":"-92.62351000"},{"id":"122420","name":"Mountain Lake","state_id":1420,"state_code":"MN","country_id":233,"country_code":"US","latitude":"43.93885000","longitude":"-94.92971000"},{"id":"122445","name":"Mower County","state_id":1420,"state_code":"MN","country_id":233,"country_code":"US","latitude":"43.67147000","longitude":"-92.75251000"},{"id":"122495","name":"Murray County","state_id":1420,"state_code":"MN","country_id":233,"country_code":"US","latitude":"44.02212000","longitude":"-95.76328000"},{"id":"122671","name":"New Brighton","state_id":1420,"state_code":"MN","country_id":233,"country_code":"US","latitude":"45.06552000","longitude":"-93.20189000"},{"id":"122726","name":"New Hope","state_id":1420,"state_code":"MN","country_id":233,"country_code":"US","latitude":"45.03802000","longitude":"-93.38662000"},{"id":"122743","name":"New London","state_id":1420,"state_code":"MN","country_id":233,"country_code":"US","latitude":"45.30108000","longitude":"-94.94418000"},{"id":"122766","name":"New Prague","state_id":1420,"state_code":"MN","country_id":233,"country_code":"US","latitude":"44.54330000","longitude":"-93.57607000"},{"id":"122769","name":"New Richland","state_id":1420,"state_code":"MN","country_id":233,"country_code":"US","latitude":"43.89385000","longitude":"-93.49383000"},{"id":"122788","name":"New Ulm","state_id":1420,"state_code":"MN","country_id":233,"country_code":"US","latitude":"44.31246000","longitude":"-94.46053000"},{"id":"122797","name":"New York Mills","state_id":1420,"state_code":"MN","country_id":233,"country_code":"US","latitude":"46.51802000","longitude":"-95.37615000"},{"id":"122845","name":"Newport","state_id":1420,"state_code":"MN","country_id":233,"country_code":"US","latitude":"44.86636000","longitude":"-93.00049000"},{"id":"122895","name":"Nicollet","state_id":1420,"state_code":"MN","country_id":233,"country_code":"US","latitude":"44.27608000","longitude":"-94.18746000"},{"id":"122896","name":"Nicollet County","state_id":1420,"state_code":"MN","country_id":233,"country_code":"US","latitude":"44.34989000","longitude":"-94.24730000"},{"id":"122908","name":"Nisswa","state_id":1420,"state_code":"MN","country_id":233,"country_code":"US","latitude":"46.52052000","longitude":"-94.28861000"},{"id":"122920","name":"Nobles County","state_id":1420,"state_code":"MN","country_id":233,"country_code":"US","latitude":"43.67424000","longitude":"-95.75339000"},{"id":"122950","name":"Norman County","state_id":1420,"state_code":"MN","country_id":233,"country_code":"US","latitude":"47.32648000","longitude":"-96.45528000"},{"id":"122994","name":"North Branch","state_id":1420,"state_code":"MN","country_id":233,"country_code":"US","latitude":"45.51135000","longitude":"-92.98022000"},{"id":"123063","name":"North Mankato","state_id":1420,"state_code":"MN","country_id":233,"country_code":"US","latitude":"44.17330000","longitude":"-94.03385000"},{"id":"123073","name":"North Oaks","state_id":1420,"state_code":"MN","country_id":233,"country_code":"US","latitude":"45.10274000","longitude":"-93.07911000"},{"id":"123098","name":"North Saint Paul","state_id":1420,"state_code":"MN","country_id":233,"country_code":"US","latitude":"45.01247000","longitude":"-92.99188000"},{"id":"123152","name":"Northfield","state_id":1420,"state_code":"MN","country_id":233,"country_code":"US","latitude":"44.45830000","longitude":"-93.16160000"},{"id":"123202","name":"Norwood (historical)","state_id":1420,"state_code":"MN","country_id":233,"country_code":"US","latitude":"44.76802000","longitude":"-93.92747000"},{"id":"123203","name":"Norwood Young America","state_id":1420,"state_code":"MN","country_id":233,"country_code":"US","latitude":"44.77357000","longitude":"-93.92163000"},{"id":"123211","name":"Nowthen","state_id":1420,"state_code":"MN","country_id":233,"country_code":"US","latitude":"45.32802000","longitude":"-93.47023000"},{"id":"123239","name":"Oak Grove","state_id":1420,"state_code":"MN","country_id":233,"country_code":"US","latitude":"45.34080000","longitude":"-93.32690000"},{"id":"123258","name":"Oak Park Heights","state_id":1420,"state_code":"MN","country_id":233,"country_code":"US","latitude":"45.03136000","longitude":"-92.79298000"},{"id":"123271","name":"Oakdale","state_id":1420,"state_code":"MN","country_id":233,"country_code":"US","latitude":"44.96302000","longitude":"-92.96494000"},{"id":"123303","name":"Oakport","state_id":1420,"state_code":"MN","country_id":233,"country_code":"US","latitude":"46.93191000","longitude":"-96.77897000"},{"id":"123450","name":"Olivia","state_id":1420,"state_code":"MN","country_id":233,"country_code":"US","latitude":"44.77635000","longitude":"-94.98972000"},{"id":"123454","name":"Olmsted County","state_id":1420,"state_code":"MN","country_id":233,"country_code":"US","latitude":"44.00375000","longitude":"-92.40177000"},{"id":"123573","name":"Orono","state_id":1420,"state_code":"MN","country_id":233,"country_code":"US","latitude":"44.97135000","longitude":"-93.60440000"},{"id":"123575","name":"Oronoco","state_id":1420,"state_code":"MN","country_id":233,"country_code":"US","latitude":"44.16608000","longitude":"-92.53491000"},{"id":"123584","name":"Ortonville","state_id":1420,"state_code":"MN","country_id":233,"country_code":"US","latitude":"45.30469000","longitude":"-96.44478000"},{"id":"123592","name":"Osakis","state_id":1420,"state_code":"MN","country_id":233,"country_code":"US","latitude":"45.86691000","longitude":"-95.15225000"},{"id":"123614","name":"Osseo","state_id":1420,"state_code":"MN","country_id":233,"country_code":"US","latitude":"45.11941000","longitude":"-93.40245000"},{"id":"123633","name":"Otsego","state_id":1420,"state_code":"MN","country_id":233,"country_code":"US","latitude":"45.27413000","longitude":"-93.59135000"},{"id":"123641","name":"Otter Tail County","state_id":1420,"state_code":"MN","country_id":233,"country_code":"US","latitude":"46.40880000","longitude":"-95.70800000"},{"id":"123659","name":"Owatonna","state_id":1420,"state_code":"MN","country_id":233,"country_code":"US","latitude":"44.08385000","longitude":"-93.22604000"},{"id":"123850","name":"Park Rapids","state_id":1420,"state_code":"MN","country_id":233,"country_code":"US","latitude":"46.92218000","longitude":"-95.05863000"},{"id":"123866","name":"Parkers Prairie","state_id":1420,"state_code":"MN","country_id":233,"country_code":"US","latitude":"46.15302000","longitude":"-95.32892000"},{"id":"123880","name":"Parkville","state_id":1420,"state_code":"MN","country_id":233,"country_code":"US","latitude":"47.53104000","longitude":"-92.57907000"},{"id":"123947","name":"Paynesville","state_id":1420,"state_code":"MN","country_id":233,"country_code":"US","latitude":"45.38052000","longitude":"-94.71195000"},{"id":"123996","name":"Pelican Rapids","state_id":1420,"state_code":"MN","country_id":233,"country_code":"US","latitude":"46.57079000","longitude":"-96.08311000"},{"id":"124030","name":"Pennington County","state_id":1420,"state_code":"MN","country_id":233,"country_code":"US","latitude":"48.06623000","longitude":"-96.03667000"},{"id":"124056","name":"Pequot Lakes","state_id":1420,"state_code":"MN","country_id":233,"country_code":"US","latitude":"46.60302000","longitude":"-94.30944000"},{"id":"124059","name":"Perham","state_id":1420,"state_code":"MN","country_id":233,"country_code":"US","latitude":"46.59440000","longitude":"-95.57254000"},{"id":"124181","name":"Pierz","state_id":1420,"state_code":"MN","country_id":233,"country_code":"US","latitude":"45.98163000","longitude":"-94.10471000"},{"id":"124218","name":"Pine City","state_id":1420,"state_code":"MN","country_id":233,"country_code":"US","latitude":"45.82607000","longitude":"-92.96854000"},{"id":"124219","name":"Pine County","state_id":1420,"state_code":"MN","country_id":233,"country_code":"US","latitude":"46.12077000","longitude":"-92.74127000"},{"id":"124228","name":"Pine Island","state_id":1420,"state_code":"MN","country_id":233,"country_code":"US","latitude":"44.20135000","longitude":"-92.64630000"},{"id":"124277","name":"Pipestone","state_id":1420,"state_code":"MN","country_id":233,"country_code":"US","latitude":"44.00053000","longitude":"-96.31753000"},{"id":"124278","name":"Pipestone County","state_id":1420,"state_code":"MN","country_id":233,"country_code":"US","latitude":"44.02300000","longitude":"-96.25864000"},{"id":"124328","name":"Plainview","state_id":1420,"state_code":"MN","country_id":233,"country_code":"US","latitude":"44.16497000","longitude":"-92.17156000"},{"id":"124405","name":"Plymouth","state_id":1420,"state_code":"MN","country_id":233,"country_code":"US","latitude":"45.01052000","longitude":"-93.45551000"},{"id":"124448","name":"Polk County","state_id":1420,"state_code":"MN","country_id":233,"country_code":"US","latitude":"47.77385000","longitude":"-96.40181000"},{"id":"124483","name":"Pope County","state_id":1420,"state_code":"MN","country_id":233,"country_code":"US","latitude":"45.58602000","longitude":"-95.44448000"},{"id":"124656","name":"Preston","state_id":1420,"state_code":"MN","country_id":233,"country_code":"US","latitude":"43.67024000","longitude":"-92.08322000"},{"id":"124688","name":"Princeton","state_id":1420,"state_code":"MN","country_id":233,"country_code":"US","latitude":"45.56997000","longitude":"-93.58163000"},{"id":"124698","name":"Prior Lake","state_id":1420,"state_code":"MN","country_id":233,"country_code":"US","latitude":"44.71330000","longitude":"-93.42273000"},{"id":"124700","name":"Proctor","state_id":1420,"state_code":"MN","country_id":233,"country_code":"US","latitude":"46.74716000","longitude":"-92.22547000"},{"id":"124841","name":"Ramsey","state_id":1420,"state_code":"MN","country_id":233,"country_code":"US","latitude":"45.26110000","longitude":"-93.45000000"},{"id":"124843","name":"Ramsey County","state_id":1420,"state_code":"MN","country_id":233,"country_code":"US","latitude":"45.01706000","longitude":"-93.09961000"},{"id":"124949","name":"Red Lake","state_id":1420,"state_code":"MN","country_id":233,"country_code":"US","latitude":"47.87635000","longitude":"-95.01694000"},{"id":"124950","name":"Red Lake County","state_id":1420,"state_code":"MN","country_id":233,"country_code":"US","latitude":"47.87169000","longitude":"-96.09530000"},{"id":"124951","name":"Red Lake Falls","state_id":1420,"state_code":"MN","country_id":233,"country_code":"US","latitude":"47.88219000","longitude":"-96.27421000"},{"id":"124963","name":"Red Wing","state_id":1420,"state_code":"MN","country_id":233,"country_code":"US","latitude":"44.56247000","longitude":"-92.53380000"},{"id":"124965","name":"Redby","state_id":1420,"state_code":"MN","country_id":233,"country_code":"US","latitude":"47.87857000","longitude":"-94.91305000"},{"id":"124987","name":"Redwood County","state_id":1420,"state_code":"MN","country_id":233,"country_code":"US","latitude":"44.40366000","longitude":"-95.25383000"},{"id":"124988","name":"Redwood Falls","state_id":1420,"state_code":"MN","country_id":233,"country_code":"US","latitude":"44.53940000","longitude":"-95.11694000"},{"id":"125027","name":"Renville","state_id":1420,"state_code":"MN","country_id":233,"country_code":"US","latitude":"44.78913000","longitude":"-95.21167000"},{"id":"125028","name":"Renville County","state_id":1420,"state_code":"MN","country_id":233,"country_code":"US","latitude":"44.72681000","longitude":"-94.94714000"},{"id":"125052","name":"Rice","state_id":1420,"state_code":"MN","country_id":233,"country_code":"US","latitude":"45.75191000","longitude":"-94.22027000"},{"id":"125054","name":"Rice County","state_id":1420,"state_code":"MN","country_id":233,"country_code":"US","latitude":"44.35426000","longitude":"-93.29668000"},{"id":"125061","name":"Richfield","state_id":1420,"state_code":"MN","country_id":233,"country_code":"US","latitude":"44.88330000","longitude":"-93.28300000"},{"id":"125094","name":"Richmond","state_id":1420,"state_code":"MN","country_id":233,"country_code":"US","latitude":"45.45413000","longitude":"-94.51833000"},{"id":"125236","name":"Robbinsdale","state_id":1420,"state_code":"MN","country_id":233,"country_code":"US","latitude":"45.03219000","longitude":"-93.33856000"},{"id":"125266","name":"Rochester","state_id":1420,"state_code":"MN","country_id":233,"country_code":"US","latitude":"44.02163000","longitude":"-92.46990000"},{"id":"125272","name":"Rock County","state_id":1420,"state_code":"MN","country_id":233,"country_code":"US","latitude":"43.67463000","longitude":"-96.25321000"},{"id":"125276","name":"Rock Creek","state_id":1420,"state_code":"MN","country_id":233,"country_code":"US","latitude":"45.75746000","longitude":"-92.96243000"},{"id":"125302","name":"Rockford","state_id":1420,"state_code":"MN","country_id":233,"country_code":"US","latitude":"45.08830000","longitude":"-93.73441000"},{"id":"125324","name":"Rockville","state_id":1420,"state_code":"MN","country_id":233,"country_code":"US","latitude":"45.47191000","longitude":"-94.34083000"},{"id":"125350","name":"Rogers","state_id":1420,"state_code":"MN","country_id":233,"country_code":"US","latitude":"45.18885000","longitude":"-93.55301000"},{"id":"125407","name":"Roseau","state_id":1420,"state_code":"MN","country_id":233,"country_code":"US","latitude":"48.84609000","longitude":"-95.76277000"},{"id":"125408","name":"Roseau County","state_id":1420,"state_code":"MN","country_id":233,"country_code":"US","latitude":"48.77514000","longitude":"-95.81082000"},{"id":"125432","name":"Rosemount","state_id":1420,"state_code":"MN","country_id":233,"country_code":"US","latitude":"44.73941000","longitude":"-93.12577000"},{"id":"125440","name":"Roseville","state_id":1420,"state_code":"MN","country_id":233,"country_code":"US","latitude":"45.00608000","longitude":"-93.15661000"},{"id":"125496","name":"Royalton","state_id":1420,"state_code":"MN","country_id":233,"country_code":"US","latitude":"45.82997000","longitude":"-94.29361000"},{"id":"125519","name":"Rush City","state_id":1420,"state_code":"MN","country_id":233,"country_code":"US","latitude":"45.68551000","longitude":"-92.96549000"},{"id":"125523","name":"Rushford","state_id":1420,"state_code":"MN","country_id":233,"country_code":"US","latitude":"43.80830000","longitude":"-91.75293000"},{"id":"125601","name":"Saint Anthony","state_id":1420,"state_code":"MN","country_id":233,"country_code":"US","latitude":"45.02052000","longitude":"-93.21800000"},{"id":"125603","name":"Saint Augusta","state_id":1420,"state_code":"MN","country_id":233,"country_code":"US","latitude":"45.45830000","longitude":"-94.19804000"},{"id":"125610","name":"Saint Bonifacius","state_id":1420,"state_code":"MN","country_id":233,"country_code":"US","latitude":"44.90552000","longitude":"-93.74746000"},{"id":"125615","name":"Saint Charles","state_id":1420,"state_code":"MN","country_id":233,"country_code":"US","latitude":"43.96941000","longitude":"-92.06433000"},{"id":"125627","name":"Saint Cloud","state_id":1420,"state_code":"MN","country_id":233,"country_code":"US","latitude":"45.56080000","longitude":"-94.16249000"},{"id":"125633","name":"Saint Francis","state_id":1420,"state_code":"MN","country_id":233,"country_code":"US","latitude":"45.38691000","longitude":"-93.35940000"},{"id":"125655","name":"Saint James","state_id":1420,"state_code":"MN","country_id":233,"country_code":"US","latitude":"43.98246000","longitude":"-94.62692000"},{"id":"125674","name":"Saint Joseph","state_id":1420,"state_code":"MN","country_id":233,"country_code":"US","latitude":"45.56496000","longitude":"-94.31833000"},{"id":"125682","name":"Saint Louis County","state_id":1420,"state_code":"MN","country_id":233,"country_code":"US","latitude":"47.58986000","longitude":"-92.46147000"},{"id":"125683","name":"Saint Louis Park","state_id":1420,"state_code":"MN","country_id":233,"country_code":"US","latitude":"44.94830000","longitude":"-93.34801000"},{"id":"125697","name":"Saint Michael","state_id":1420,"state_code":"MN","country_id":233,"country_code":"US","latitude":"45.20996000","longitude":"-93.66496000"},{"id":"125703","name":"Saint Paul","state_id":1420,"state_code":"MN","country_id":233,"country_code":"US","latitude":"44.94441000","longitude":"-93.09327000"},{"id":"125705","name":"Saint Paul Park","state_id":1420,"state_code":"MN","country_id":233,"country_code":"US","latitude":"44.84219000","longitude":"-92.99132000"},{"id":"125708","name":"Saint Peter","state_id":1420,"state_code":"MN","country_id":233,"country_code":"US","latitude":"44.32358000","longitude":"-93.95801000"},{"id":"125874","name":"Sandstone","state_id":1420,"state_code":"MN","country_id":233,"country_code":"US","latitude":"46.13106000","longitude":"-92.86742000"},{"id":"125953","name":"Sartell","state_id":1420,"state_code":"MN","country_id":233,"country_code":"US","latitude":"45.62163000","longitude":"-94.20694000"},{"id":"125962","name":"Sauk Centre","state_id":1420,"state_code":"MN","country_id":233,"country_code":"US","latitude":"45.73747000","longitude":"-94.95252000"},{"id":"125965","name":"Sauk Rapids","state_id":1420,"state_code":"MN","country_id":233,"country_code":"US","latitude":"45.59191000","longitude":"-94.16610000"},{"id":"125972","name":"Savage","state_id":1420,"state_code":"MN","country_id":233,"country_code":"US","latitude":"44.77913000","longitude":"-93.33634000"},{"id":"125995","name":"Scandia","state_id":1420,"state_code":"MN","country_id":233,"country_code":"US","latitude":"45.25358000","longitude":"-92.80577000"},{"id":"126052","name":"Scott County","state_id":1420,"state_code":"MN","country_id":233,"country_code":"US","latitude":"44.64846000","longitude":"-93.53593000"},{"id":"126209","name":"Shafer","state_id":1420,"state_code":"MN","country_id":233,"country_code":"US","latitude":"45.38691000","longitude":"-92.74771000"},{"id":"126211","name":"Shakopee","state_id":1420,"state_code":"MN","country_id":233,"country_code":"US","latitude":"44.79802000","longitude":"-93.52690000"},{"id":"126314","name":"Sherburn","state_id":1420,"state_code":"MN","country_id":233,"country_code":"US","latitude":"43.65218000","longitude":"-94.72692000"},{"id":"126316","name":"Sherburne County","state_id":1420,"state_code":"MN","country_id":233,"country_code":"US","latitude":"45.44395000","longitude":"-93.77459000"},{"id":"126369","name":"Shoreview","state_id":1420,"state_code":"MN","country_id":233,"country_code":"US","latitude":"45.07913000","longitude":"-93.14717000"},{"id":"126371","name":"Shorewood","state_id":1420,"state_code":"MN","country_id":233,"country_code":"US","latitude":"44.90080000","longitude":"-93.58912000"},{"id":"126392","name":"Sibley County","state_id":1420,"state_code":"MN","country_id":233,"country_code":"US","latitude":"44.57948000","longitude":"-94.23216000"},{"id":"126420","name":"Silver Bay","state_id":1420,"state_code":"MN","country_id":233,"country_code":"US","latitude":"47.29436000","longitude":"-91.25739000"},{"id":"126495","name":"Slayton","state_id":1420,"state_code":"MN","country_id":233,"country_code":"US","latitude":"43.98774000","longitude":"-95.75585000"},{"id":"126496","name":"Sleepy Eye","state_id":1420,"state_code":"MN","country_id":233,"country_code":"US","latitude":"44.29718000","longitude":"-94.72415000"},{"id":"126721","name":"South Saint Paul","state_id":1420,"state_code":"MN","country_id":233,"country_code":"US","latitude":"44.89274000","longitude":"-93.03494000"},{"id":"126834","name":"Spicer","state_id":1420,"state_code":"MN","country_id":233,"country_code":"US","latitude":"45.23302000","longitude":"-94.94001000"},{"id":"126859","name":"Spring Grove","state_id":1420,"state_code":"MN","country_id":233,"country_code":"US","latitude":"43.56108000","longitude":"-91.63598000"},{"id":"126869","name":"Spring Lake Park","state_id":1420,"state_code":"MN","country_id":233,"country_code":"US","latitude":"45.10774000","longitude":"-93.23800000"},{"id":"126871","name":"Spring Park","state_id":1420,"state_code":"MN","country_id":233,"country_code":"US","latitude":"44.93524000","longitude":"-93.63218000"},{"id":"126876","name":"Spring Valley","state_id":1420,"state_code":"MN","country_id":233,"country_code":"US","latitude":"43.68691000","longitude":"-92.38906000"},{"id":"126902","name":"Springfield","state_id":1420,"state_code":"MN","country_id":233,"country_code":"US","latitude":"44.23885000","longitude":"-94.97582000"},{"id":"126931","name":"Stacy","state_id":1420,"state_code":"MN","country_id":233,"country_code":"US","latitude":"45.39802000","longitude":"-92.98744000"},{"id":"126975","name":"Staples","state_id":1420,"state_code":"MN","country_id":233,"country_code":"US","latitude":"46.35552000","longitude":"-94.79224000"},{"id":"126983","name":"Starbuck","state_id":1420,"state_code":"MN","country_id":233,"country_code":"US","latitude":"45.61440000","longitude":"-95.53115000"},{"id":"127005","name":"Stearns County","state_id":1420,"state_code":"MN","country_id":233,"country_code":"US","latitude":"45.55215000","longitude":"-94.61302000"},{"id":"127010","name":"Steele County","state_id":1420,"state_code":"MN","country_id":233,"country_code":"US","latitude":"44.02234000","longitude":"-93.22604000"},{"id":"127040","name":"Stevens County","state_id":1420,"state_code":"MN","country_id":233,"country_code":"US","latitude":"45.58613000","longitude":"-96.00030000"},{"id":"127055","name":"Stewartville","state_id":1420,"state_code":"MN","country_id":233,"country_code":"US","latitude":"43.85552000","longitude":"-92.48851000"},{"id":"127061","name":"Stillwater","state_id":1420,"state_code":"MN","country_id":233,"country_code":"US","latitude":"45.05636000","longitude":"-92.80604000"},{"id":"127345","name":"Swift County","state_id":1420,"state_code":"MN","country_id":233,"country_code":"US","latitude":"45.28271000","longitude":"-95.68143000"},{"id":"127462","name":"Taylors Falls","state_id":1420,"state_code":"MN","country_id":233,"country_code":"US","latitude":"45.40191000","longitude":"-92.65243000"},{"id":"127574","name":"Thief River Falls","state_id":1420,"state_code":"MN","country_id":233,"country_code":"US","latitude":"48.11914000","longitude":"-96.18115000"},{"id":"127693","name":"Todd County","state_id":1420,"state_code":"MN","country_id":233,"country_code":"US","latitude":"46.07062000","longitude":"-94.89760000"},{"id":"127720","name":"Tonka Bay","state_id":1420,"state_code":"MN","country_id":233,"country_code":"US","latitude":"44.90857000","longitude":"-93.59301000"},{"id":"127770","name":"Tracy","state_id":1420,"state_code":"MN","country_id":233,"country_code":"US","latitude":"44.23329000","longitude":"-95.61918000"},{"id":"127785","name":"Traverse County","state_id":1420,"state_code":"MN","country_id":233,"country_code":"US","latitude":"45.77218000","longitude":"-96.47164000"},{"id":"127855","name":"Truman","state_id":1420,"state_code":"MN","country_id":233,"country_code":"US","latitude":"43.82773000","longitude":"-94.43719000"},{"id":"127935","name":"Two Harbors","state_id":1420,"state_code":"MN","country_id":233,"country_code":"US","latitude":"47.02271000","longitude":"-91.67073000"},{"id":"127941","name":"Tyler","state_id":1420,"state_code":"MN","country_id":233,"country_code":"US","latitude":"44.27830000","longitude":"-96.13475000"},{"id":"128073","name":"Vadnais Heights","state_id":1420,"state_code":"MN","country_id":233,"country_code":"US","latitude":"45.05747000","longitude":"-93.07383000"},{"id":"128222","name":"Victoria","state_id":1420,"state_code":"MN","country_id":233,"country_code":"US","latitude":"44.85857000","longitude":"-93.66163000"},{"id":"128271","name":"Vineland","state_id":1420,"state_code":"MN","country_id":233,"country_code":"US","latitude":"46.16357000","longitude":"-93.75747000"},{"id":"128287","name":"Virginia","state_id":1420,"state_code":"MN","country_id":233,"country_code":"US","latitude":"47.52326000","longitude":"-92.53657000"},{"id":"128312","name":"Wabasha","state_id":1420,"state_code":"MN","country_id":233,"country_code":"US","latitude":"44.38386000","longitude":"-92.03294000"},{"id":"128313","name":"Wabasha County","state_id":1420,"state_code":"MN","country_id":233,"country_code":"US","latitude":"44.28428000","longitude":"-92.23027000"},{"id":"128317","name":"Waconia","state_id":1420,"state_code":"MN","country_id":233,"country_code":"US","latitude":"44.85080000","longitude":"-93.78691000"},{"id":"128321","name":"Wadena","state_id":1420,"state_code":"MN","country_id":233,"country_code":"US","latitude":"46.44246000","longitude":"-95.13614000"},{"id":"128322","name":"Wadena County","state_id":1420,"state_code":"MN","country_id":233,"country_code":"US","latitude":"46.58576000","longitude":"-94.96941000"},{"id":"128353","name":"Waite Park","state_id":1420,"state_code":"MN","country_id":233,"country_code":"US","latitude":"45.55719000","longitude":"-94.22416000"},{"id":"128385","name":"Walker","state_id":1420,"state_code":"MN","country_id":233,"country_code":"US","latitude":"47.10135000","longitude":"-94.58722000"},{"id":"128448","name":"Wanamingo","state_id":1420,"state_code":"MN","country_id":233,"country_code":"US","latitude":"44.30441000","longitude":"-92.79047000"},{"id":"128482","name":"Warren","state_id":1420,"state_code":"MN","country_id":233,"country_code":"US","latitude":"48.19664000","longitude":"-96.77284000"},{"id":"128514","name":"Warroad","state_id":1420,"state_code":"MN","country_id":233,"country_code":"US","latitude":"48.90527000","longitude":"-95.31440000"},{"id":"128530","name":"Waseca","state_id":1420,"state_code":"MN","country_id":233,"country_code":"US","latitude":"44.07774000","longitude":"-93.50744000"},{"id":"128531","name":"Waseca County","state_id":1420,"state_code":"MN","country_id":233,"country_code":"US","latitude":"44.02212000","longitude":"-93.58728000"},{"id":"128570","name":"Washington County","state_id":1420,"state_code":"MN","country_id":233,"country_code":"US","latitude":"45.03873000","longitude":"-92.88396000"},{"id":"128622","name":"Watertown","state_id":1420,"state_code":"MN","country_id":233,"country_code":"US","latitude":"44.96357000","longitude":"-93.84719000"},{"id":"128627","name":"Waterville","state_id":1420,"state_code":"MN","country_id":233,"country_code":"US","latitude":"44.21885000","longitude":"-93.56800000"},{"id":"128637","name":"Watonwan County","state_id":1420,"state_code":"MN","country_id":233,"country_code":"US","latitude":"43.97843000","longitude":"-94.61406000"},{"id":"128670","name":"Waverly","state_id":1420,"state_code":"MN","country_id":233,"country_code":"US","latitude":"45.06663000","longitude":"-93.96636000"},{"id":"128713","name":"Wayzata","state_id":1420,"state_code":"MN","country_id":233,"country_code":"US","latitude":"44.97413000","longitude":"-93.50662000"},{"id":"128782","name":"Wells","state_id":1420,"state_code":"MN","country_id":233,"country_code":"US","latitude":"43.74607000","longitude":"-93.72884000"},{"id":"128852","name":"West Coon Rapids","state_id":1420,"state_code":"MN","country_id":233,"country_code":"US","latitude":"45.15969000","longitude":"-93.34967000"},{"id":"128972","name":"West Saint Paul","state_id":1420,"state_code":"MN","country_id":233,"country_code":"US","latitude":"44.91608000","longitude":"-93.10161000"},{"id":"129114","name":"Wheaton","state_id":1420,"state_code":"MN","country_id":233,"country_code":"US","latitude":"45.80441000","longitude":"-96.49923000"},{"id":"129126","name":"White Bear Lake","state_id":1420,"state_code":"MN","country_id":233,"country_code":"US","latitude":"45.08469000","longitude":"-93.00994000"},{"id":"129248","name":"Wilkin County","state_id":1420,"state_code":"MN","country_id":233,"country_code":"US","latitude":"46.35708000","longitude":"-96.46835000"},{"id":"129303","name":"Willmar","state_id":1420,"state_code":"MN","country_id":233,"country_code":"US","latitude":"45.12191000","longitude":"-95.04334000"},{"id":"129375","name":"Windom","state_id":1420,"state_code":"MN","country_id":233,"country_code":"US","latitude":"43.86635000","longitude":"-95.11694000"},{"id":"129406","name":"Winnebago","state_id":1420,"state_code":"MN","country_id":233,"country_code":"US","latitude":"43.76773000","longitude":"-94.16579000"},{"id":"129424","name":"Winona","state_id":1420,"state_code":"MN","country_id":233,"country_code":"US","latitude":"44.04996000","longitude":"-91.63932000"},{"id":"129425","name":"Winona County","state_id":1420,"state_code":"MN","country_id":233,"country_code":"US","latitude":"43.98685000","longitude":"-91.77913000"},{"id":"129431","name":"Winsted","state_id":1420,"state_code":"MN","country_id":233,"country_code":"US","latitude":"44.96385000","longitude":"-94.04747000"},{"id":"129451","name":"Winthrop","state_id":1420,"state_code":"MN","country_id":233,"country_code":"US","latitude":"44.54302000","longitude":"-94.36637000"},{"id":"129509","name":"Woodbury","state_id":1420,"state_code":"MN","country_id":233,"country_code":"US","latitude":"44.92386000","longitude":"-92.95938000"},{"id":"129598","name":"Worthington","state_id":1420,"state_code":"MN","country_id":233,"country_code":"US","latitude":"43.61996000","longitude":"-95.59640000"},{"id":"129610","name":"Wright County","state_id":1420,"state_code":"MN","country_id":233,"country_code":"US","latitude":"45.17393000","longitude":"-93.96305000"},{"id":"129637","name":"Wyoming","state_id":1420,"state_code":"MN","country_id":233,"country_code":"US","latitude":"45.33636000","longitude":"-92.99716000"},{"id":"129678","name":"Yellow Medicine County","state_id":1420,"state_code":"MN","country_id":233,"country_code":"US","latitude":"44.71625000","longitude":"-95.86836000"},{"id":"129713","name":"Young America (historical)","state_id":1420,"state_code":"MN","country_id":233,"country_code":"US","latitude":"44.78274000","longitude":"-93.91358000"},{"id":"129756","name":"Zimmerman","state_id":1420,"state_code":"MN","country_id":233,"country_code":"US","latitude":"45.44330000","longitude":"-93.58996000"},{"id":"129761","name":"Zumbrota","state_id":1420,"state_code":"MN","country_id":233,"country_code":"US","latitude":"44.29413000","longitude":"-92.66908000"}]