[{"id":"111005","name":"Ada","state_id":1421,"state_code":"OK","country_id":233,"country_code":"US","latitude":"34.77453000","longitude":"-96.67834000"},{"id":"111009","name":"Adair County","state_id":1421,"state_code":"OK","country_id":233,"country_code":"US","latitude":"35.88393000","longitude":"-94.65868000"},{"id":"111052","name":"Afton","state_id":1421,"state_code":"OK","country_id":233,"country_code":"US","latitude":"36.69369000","longitude":"-94.96302000"},{"id":"111158","name":"Alfalfa County","state_id":1421,"state_code":"OK","country_id":233,"country_code":"US","latitude":"36.73098000","longitude":"-98.32400000"},{"id":"111252","name":"Altus","state_id":1421,"state_code":"OK","country_id":233,"country_code":"US","latitude":"34.63813000","longitude":"-99.33398000"},{"id":"111256","name":"Alva","state_id":1421,"state_code":"OK","country_id":233,"country_code":"US","latitude":"36.80499000","longitude":"-98.66718000"},{"id":"111298","name":"Anadarko","state_id":1421,"state_code":"OK","country_id":233,"country_code":"US","latitude":"35.07256000","longitude":"-98.24366000"},{"id":"111374","name":"Antlers","state_id":1421,"state_code":"OK","country_id":233,"country_code":"US","latitude":"34.23121000","longitude":"-95.62025000"},{"id":"111379","name":"Apache","state_id":1421,"state_code":"OK","country_id":233,"country_code":"US","latitude":"34.89368000","longitude":"-98.36589000"},{"id":"111412","name":"Arapaho","state_id":1421,"state_code":"OK","country_id":233,"country_code":"US","latitude":"35.57783000","longitude":"-98.96453000"},{"id":"111442","name":"Ardmore","state_id":1421,"state_code":"OK","country_id":233,"country_code":"US","latitude":"34.17426000","longitude":"-97.14363000"},{"id":"111459","name":"Arkoma","state_id":1421,"state_code":"OK","country_id":233,"country_code":"US","latitude":"35.35454000","longitude":"-94.43410000"},{"id":"111483","name":"Arnett","state_id":1421,"state_code":"OK","country_id":233,"country_code":"US","latitude":"36.13504000","longitude":"-99.77484000"},{"id":"111603","name":"Atoka","state_id":1421,"state_code":"OK","country_id":233,"country_code":"US","latitude":"34.38593000","longitude":"-96.12833000"},{"id":"111606","name":"Atoka County","state_id":1421,"state_code":"OK","country_id":233,"country_code":"US","latitude":"34.37372000","longitude":"-96.03783000"},{"id":"111833","name":"Barnsdall","state_id":1421,"state_code":"OK","country_id":233,"country_code":"US","latitude":"36.56202000","longitude":"-96.16167000"},{"id":"111860","name":"Bartlesville","state_id":1421,"state_code":"OK","country_id":233,"country_code":"US","latitude":"36.74731000","longitude":"-95.98082000"},{"id":"111994","name":"Beaver","state_id":1421,"state_code":"OK","country_id":233,"country_code":"US","latitude":"36.81614000","longitude":"-100.51987000"},{"id":"111998","name":"Beaver County","state_id":1421,"state_code":"OK","country_id":233,"country_code":"US","latitude":"36.74971000","longitude":"-100.47678000"},{"id":"112016","name":"Beckham County","state_id":1421,"state_code":"OK","country_id":233,"country_code":"US","latitude":"35.26871000","longitude":"-99.68192000"},{"id":"112045","name":"Beggs","state_id":1421,"state_code":"OK","country_id":233,"country_code":"US","latitude":"35.74260000","longitude":"-96.07027000"},{"id":"112273","name":"Bethany","state_id":1421,"state_code":"OK","country_id":233,"country_code":"US","latitude":"35.51867000","longitude":"-97.63226000"},{"id":"112283","name":"Bethel Acres","state_id":1421,"state_code":"OK","country_id":233,"country_code":"US","latitude":"35.30868000","longitude":"-97.02558000"},{"id":"112370","name":"Bixby","state_id":1421,"state_code":"OK","country_id":233,"country_code":"US","latitude":"35.94204000","longitude":"-95.88332000"},{"id":"112396","name":"Blackwell","state_id":1421,"state_code":"OK","country_id":233,"country_code":"US","latitude":"36.80448000","longitude":"-97.28282000"},{"id":"112405","name":"Blaine County","state_id":1421,"state_code":"OK","country_id":233,"country_code":"US","latitude":"35.87525000","longitude":"-98.43346000"},{"id":"112417","name":"Blanchard","state_id":1421,"state_code":"OK","country_id":233,"country_code":"US","latitude":"35.13784000","longitude":"-97.65809000"},{"id":"112509","name":"Boise City","state_id":1421,"state_code":"OK","country_id":233,"country_code":"US","latitude":"36.72947000","longitude":"-102.51324000"},{"id":"112513","name":"Boley","state_id":1421,"state_code":"OK","country_id":233,"country_code":"US","latitude":"35.49341000","longitude":"-96.48362000"},{"id":"112702","name":"Bray","state_id":1421,"state_code":"OK","country_id":233,"country_code":"US","latitude":"34.63786000","longitude":"-97.81753000"},{"id":"112816","name":"Bristow","state_id":1421,"state_code":"OK","country_id":233,"country_code":"US","latitude":"35.83063000","longitude":"-96.39112000"},{"id":"112841","name":"Broken Arrow","state_id":1421,"state_code":"OK","country_id":233,"country_code":"US","latitude":"36.05260000","longitude":"-95.79082000"},{"id":"112842","name":"Broken Bow","state_id":1421,"state_code":"OK","country_id":233,"country_code":"US","latitude":"34.02928000","longitude":"-94.73910000"},{"id":"112961","name":"Bryan County","state_id":1421,"state_code":"OK","country_id":233,"country_code":"US","latitude":"33.96230000","longitude":"-96.25975000"},{"id":"113008","name":"Buffalo","state_id":1421,"state_code":"OK","country_id":233,"country_code":"US","latitude":"36.83559000","longitude":"-99.63040000"},{"id":"113088","name":"Burns Flat","state_id":1421,"state_code":"OK","country_id":233,"country_code":"US","latitude":"35.34894000","longitude":"-99.17036000"},{"id":"113104","name":"Bushyhead","state_id":1421,"state_code":"OK","country_id":233,"country_code":"US","latitude":"36.46148000","longitude":"-95.49414000"},{"id":"113137","name":"Byng","state_id":1421,"state_code":"OK","country_id":233,"country_code":"US","latitude":"34.86120000","longitude":"-96.66557000"},{"id":"113155","name":"Cache","state_id":1421,"state_code":"OK","country_id":233,"country_code":"US","latitude":"34.62952000","longitude":"-98.62867000"},{"id":"113159","name":"Caddo","state_id":1421,"state_code":"OK","country_id":233,"country_code":"US","latitude":"34.12676000","longitude":"-96.26332000"},{"id":"113160","name":"Caddo County","state_id":1421,"state_code":"OK","country_id":233,"country_code":"US","latitude":"35.17438000","longitude":"-98.37515000"},{"id":"113195","name":"Calera","state_id":1421,"state_code":"OK","country_id":233,"country_code":"US","latitude":"33.93454000","longitude":"-96.42860000"},{"id":"113315","name":"Canadian County","state_id":1421,"state_code":"OK","country_id":233,"country_code":"US","latitude":"35.54244000","longitude":"-97.98238000"},{"id":"113425","name":"Carnegie","state_id":1421,"state_code":"OK","country_id":233,"country_code":"US","latitude":"35.10367000","longitude":"-98.60367000"},{"id":"113482","name":"Carter County","state_id":1421,"state_code":"OK","country_id":233,"country_code":"US","latitude":"34.25086000","longitude":"-97.28579000"},{"id":"113576","name":"Catoosa","state_id":1421,"state_code":"OK","country_id":233,"country_code":"US","latitude":"36.18899000","longitude":"-95.74582000"},{"id":"113677","name":"Central High","state_id":1421,"state_code":"OK","country_id":233,"country_code":"US","latitude":"34.62313000","longitude":"-98.08976000"},{"id":"113729","name":"Chandler","state_id":1421,"state_code":"OK","country_id":233,"country_code":"US","latitude":"35.70173000","longitude":"-96.88086000"},{"id":"113823","name":"Checotah","state_id":1421,"state_code":"OK","country_id":233,"country_code":"US","latitude":"35.47010000","longitude":"-95.52304000"},{"id":"113830","name":"Chelsea","state_id":1421,"state_code":"OK","country_id":233,"country_code":"US","latitude":"36.53565000","longitude":"-95.43247000"},{"id":"113847","name":"Cherokee","state_id":1421,"state_code":"OK","country_id":233,"country_code":"US","latitude":"36.75447000","longitude":"-98.35674000"},{"id":"113853","name":"Cherokee County","state_id":1421,"state_code":"OK","country_id":233,"country_code":"US","latitude":"35.90663000","longitude":"-94.99966000"},{"id":"113925","name":"Cheyenne","state_id":1421,"state_code":"OK","country_id":233,"country_code":"US","latitude":"35.61394000","longitude":"-99.67149000"},{"id":"113941","name":"Chickasha","state_id":1421,"state_code":"OK","country_id":233,"country_code":"US","latitude":"35.05257000","longitude":"-97.93643000"},{"id":"113985","name":"Choctaw","state_id":1421,"state_code":"OK","country_id":233,"country_code":"US","latitude":"35.49756000","longitude":"-97.26892000"},{"id":"113988","name":"Choctaw County","state_id":1421,"state_code":"OK","country_id":233,"country_code":"US","latitude":"34.02662000","longitude":"-95.55214000"},{"id":"113990","name":"Chouteau","state_id":1421,"state_code":"OK","country_id":233,"country_code":"US","latitude":"36.18593000","longitude":"-95.34302000"},{"id":"114024","name":"Cimarron County","state_id":1421,"state_code":"OK","country_id":233,"country_code":"US","latitude":"36.74831000","longitude":"-102.51771000"},{"id":"114107","name":"Claremore","state_id":1421,"state_code":"OK","country_id":233,"country_code":"US","latitude":"36.31260000","longitude":"-95.61609000"},{"id":"114237","name":"Cleora","state_id":1421,"state_code":"OK","country_id":233,"country_code":"US","latitude":"36.57897000","longitude":"-94.97107000"},{"id":"114245","name":"Cleveland","state_id":1421,"state_code":"OK","country_id":233,"country_code":"US","latitude":"36.31032000","longitude":"-96.46584000"},{"id":"114250","name":"Cleveland County","state_id":1421,"state_code":"OK","country_id":233,"country_code":"US","latitude":"35.20302000","longitude":"-97.32641000"},{"id":"114276","name":"Clinton","state_id":1421,"state_code":"OK","country_id":233,"country_code":"US","latitude":"35.51561000","longitude":"-98.96731000"},{"id":"114328","name":"Coal County","state_id":1421,"state_code":"OK","country_id":233,"country_code":"US","latitude":"34.58819000","longitude":"-96.29786000"},{"id":"114336","name":"Coalgate","state_id":1421,"state_code":"OK","country_id":233,"country_code":"US","latitude":"34.53815000","longitude":"-96.21861000"},{"id":"114378","name":"Colbert","state_id":1421,"state_code":"OK","country_id":233,"country_code":"US","latitude":"33.85316000","longitude":"-96.50249000"},{"id":"114436","name":"Collinsville","state_id":1421,"state_code":"OK","country_id":233,"country_code":"US","latitude":"36.36454000","longitude":"-95.83888000"},{"id":"114510","name":"Comanche","state_id":1421,"state_code":"OK","country_id":233,"country_code":"US","latitude":"34.36897000","longitude":"-97.96392000"},{"id":"114513","name":"Comanche County","state_id":1421,"state_code":"OK","country_id":233,"country_code":"US","latitude":"34.66210000","longitude":"-98.47166000"},{"id":"114523","name":"Commerce","state_id":1421,"state_code":"OK","country_id":233,"country_code":"US","latitude":"36.93340000","longitude":"-94.87301000"},{"id":"114615","name":"Copeland","state_id":1421,"state_code":"OK","country_id":233,"country_code":"US","latitude":"36.65591000","longitude":"-94.82829000"},{"id":"114636","name":"Cordell","state_id":1421,"state_code":"OK","country_id":233,"country_code":"US","latitude":"35.29061000","longitude":"-98.98841000"},{"id":"114697","name":"Cotton County","state_id":1421,"state_code":"OK","country_id":233,"country_code":"US","latitude":"34.29024000","longitude":"-98.37223000"},{"id":"114746","name":"Coweta","state_id":1421,"state_code":"OK","country_id":233,"country_code":"US","latitude":"35.95177000","longitude":"-95.65081000"},{"id":"114757","name":"Craig County","state_id":1421,"state_code":"OK","country_id":233,"country_code":"US","latitude":"36.76176000","longitude":"-95.20850000"},{"id":"114789","name":"Creek County","state_id":1421,"state_code":"OK","country_id":233,"country_code":"US","latitude":"35.90268000","longitude":"-96.37094000"},{"id":"114794","name":"Crescent","state_id":1421,"state_code":"OK","country_id":233,"country_code":"US","latitude":"35.95254000","longitude":"-97.59477000"},{"id":"114931","name":"Cushing","state_id":1421,"state_code":"OK","country_id":233,"country_code":"US","latitude":"35.98506000","longitude":"-96.76697000"},{"id":"114935","name":"Custer County","state_id":1421,"state_code":"OK","country_id":233,"country_code":"US","latitude":"35.63886000","longitude":"-99.00150000"},{"id":"114959","name":"Cyril","state_id":1421,"state_code":"OK","country_id":233,"country_code":"US","latitude":"34.89646000","longitude":"-98.20060000"},{"id":"115072","name":"Davis","state_id":1421,"state_code":"OK","country_id":233,"country_code":"US","latitude":"34.50453000","longitude":"-97.11946000"},{"id":"115187","name":"Del City","state_id":1421,"state_code":"OK","country_id":233,"country_code":"US","latitude":"35.44201000","longitude":"-97.44087000"},{"id":"115204","name":"Delaware County","state_id":1421,"state_code":"OK","country_id":233,"country_code":"US","latitude":"36.40820000","longitude":"-94.80265000"},{"id":"115302","name":"Dewey","state_id":1421,"state_code":"OK","country_id":233,"country_code":"US","latitude":"36.79592000","longitude":"-95.93554000"},{"id":"115303","name":"Dewey County","state_id":1421,"state_code":"OK","country_id":233,"country_code":"US","latitude":"35.98766000","longitude":"-99.00789000"},{"id":"115330","name":"Dickson","state_id":1421,"state_code":"OK","country_id":233,"country_code":"US","latitude":"34.18732000","longitude":"-96.98446000"},{"id":"115482","name":"Drumright","state_id":1421,"state_code":"OK","country_id":233,"country_code":"US","latitude":"35.98840000","longitude":"-96.60113000"},{"id":"115521","name":"Duncan","state_id":1421,"state_code":"OK","country_id":233,"country_code":"US","latitude":"34.50230000","longitude":"-97.95781000"},{"id":"115567","name":"Durant","state_id":1421,"state_code":"OK","country_id":233,"country_code":"US","latitude":"33.99399000","longitude":"-96.37082000"},{"id":"115877","name":"Edmond","state_id":1421,"state_code":"OK","country_id":233,"country_code":"US","latitude":"35.65283000","longitude":"-97.47810000"},{"id":"115935","name":"El Reno","state_id":1421,"state_code":"OK","country_id":233,"country_code":"US","latitude":"35.53227000","longitude":"-97.95505000"},{"id":"115964","name":"Elgin","state_id":1421,"state_code":"OK","country_id":233,"country_code":"US","latitude":"34.78035000","longitude":"-98.29227000"},{"id":"115983","name":"Elk City","state_id":1421,"state_code":"OK","country_id":233,"country_code":"US","latitude":"35.41199000","longitude":"-99.40426000"},{"id":"116031","name":"Ellis County","state_id":1421,"state_code":"OK","country_id":233,"country_code":"US","latitude":"36.21836000","longitude":"-99.75460000"},{"id":"116138","name":"Enid","state_id":1421,"state_code":"OK","country_id":233,"country_code":"US","latitude":"36.39559000","longitude":"-97.87839000"},{"id":"116163","name":"Erick","state_id":1421,"state_code":"OK","country_id":233,"country_code":"US","latitude":"35.21533000","longitude":"-99.86649000"},{"id":"116225","name":"Eufaula","state_id":1421,"state_code":"OK","country_id":233,"country_code":"US","latitude":"35.28722000","longitude":"-95.58250000"},{"id":"116302","name":"Fairfax","state_id":1421,"state_code":"OK","country_id":233,"country_code":"US","latitude":"36.57366000","longitude":"-96.70420000"},{"id":"116329","name":"Fairland","state_id":1421,"state_code":"OK","country_id":233,"country_code":"US","latitude":"36.75118000","longitude":"-94.84746000"},{"id":"116350","name":"Fairview","state_id":1421,"state_code":"OK","country_id":233,"country_code":"US","latitude":"36.26892000","longitude":"-98.47980000"},{"id":"116565","name":"Fletcher","state_id":1421,"state_code":"OK","country_id":233,"country_code":"US","latitude":"34.82312000","longitude":"-98.24422000"},{"id":"116665","name":"Forest Park","state_id":1421,"state_code":"OK","country_id":233,"country_code":"US","latitude":"35.50423000","longitude":"-97.44615000"},{"id":"116713","name":"Fort Gibson","state_id":1421,"state_code":"OK","country_id":233,"country_code":"US","latitude":"35.79760000","longitude":"-95.25052000"},{"id":"116886","name":"Frederick","state_id":1421,"state_code":"OK","country_id":233,"country_code":"US","latitude":"34.39203000","longitude":"-99.01841000"},{"id":"117082","name":"Garfield County","state_id":1421,"state_code":"OK","country_id":233,"country_code":"US","latitude":"36.37906000","longitude":"-97.78272000"},{"id":"117104","name":"Garvin County","state_id":1421,"state_code":"OK","country_id":233,"country_code":"US","latitude":"34.70457000","longitude":"-97.30932000"},{"id":"117130","name":"Geary","state_id":1421,"state_code":"OK","country_id":233,"country_code":"US","latitude":"35.63116000","longitude":"-98.31729000"},{"id":"117176","name":"Geronimo","state_id":1421,"state_code":"OK","country_id":233,"country_code":"US","latitude":"34.48119000","longitude":"-98.38311000"},{"id":"117302","name":"Glenpool","state_id":1421,"state_code":"OK","country_id":233,"country_code":"US","latitude":"35.95537000","longitude":"-96.00888000"},{"id":"117365","name":"Goldsby","state_id":1421,"state_code":"OK","country_id":233,"country_code":"US","latitude":"35.14118000","longitude":"-97.47698000"},{"id":"117392","name":"Goodwell","state_id":1421,"state_code":"OK","country_id":233,"country_code":"US","latitude":"36.59530000","longitude":"-101.63655000"},{"id":"117427","name":"Grady County","state_id":1421,"state_code":"OK","country_id":233,"country_code":"US","latitude":"35.01694000","longitude":"-97.88411000"},{"id":"117491","name":"Granite","state_id":1421,"state_code":"OK","country_id":233,"country_code":"US","latitude":"34.96228000","longitude":"-99.38064000"},{"id":"117510","name":"Grant County","state_id":1421,"state_code":"OK","country_id":233,"country_code":"US","latitude":"36.79614000","longitude":"-97.78616000"},{"id":"117714","name":"Greer County","state_id":1421,"state_code":"OK","country_id":233,"country_code":"US","latitude":"34.93570000","longitude":"-99.56080000"},{"id":"117754","name":"Grove","state_id":1421,"state_code":"OK","country_id":233,"country_code":"US","latitude":"36.59369000","longitude":"-94.76912000"},{"id":"117812","name":"Guthrie","state_id":1421,"state_code":"OK","country_id":233,"country_code":"US","latitude":"35.87894000","longitude":"-97.42532000"},{"id":"117818","name":"Guymon","state_id":1421,"state_code":"OK","country_id":233,"country_code":"US","latitude":"36.68280000","longitude":"-101.48155000"},{"id":"117867","name":"Hall Park","state_id":1421,"state_code":"OK","country_id":233,"country_code":"US","latitude":"35.23701000","longitude":"-97.40642000"},{"id":"118028","name":"Harmon County","state_id":1421,"state_code":"OK","country_id":233,"country_code":"US","latitude":"34.74412000","longitude":"-99.84628000"},{"id":"118034","name":"Harper County","state_id":1421,"state_code":"OK","country_id":233,"country_code":"US","latitude":"36.78873000","longitude":"-99.66736000"},{"id":"118038","name":"Harrah","state_id":1421,"state_code":"OK","country_id":233,"country_code":"US","latitude":"35.48951000","longitude":"-97.16364000"},{"id":"118103","name":"Hartshorne","state_id":1421,"state_code":"OK","country_id":233,"country_code":"US","latitude":"34.84510000","longitude":"-95.55748000"},{"id":"118123","name":"Haskell","state_id":1421,"state_code":"OK","country_id":233,"country_code":"US","latitude":"35.82038000","longitude":"-95.67415000"},{"id":"118125","name":"Haskell County","state_id":1421,"state_code":"OK","country_id":233,"country_code":"US","latitude":"35.22482000","longitude":"-95.11660000"},{"id":"118218","name":"Healdton","state_id":1421,"state_code":"OK","country_id":233,"country_code":"US","latitude":"34.23315000","longitude":"-97.48780000"},{"id":"118226","name":"Heavener","state_id":1421,"state_code":"OK","country_id":233,"country_code":"US","latitude":"34.88927000","longitude":"-94.60078000"},{"id":"118250","name":"Helena","state_id":1421,"state_code":"OK","country_id":233,"country_code":"US","latitude":"36.54614000","longitude":"-98.27007000"},{"id":"118292","name":"Hennessey","state_id":1421,"state_code":"OK","country_id":233,"country_code":"US","latitude":"36.10920000","longitude":"-97.89867000"},{"id":"118307","name":"Henryetta","state_id":1421,"state_code":"OK","country_id":233,"country_code":"US","latitude":"35.43983000","longitude":"-95.98194000"},{"id":"118488","name":"Hinton","state_id":1421,"state_code":"OK","country_id":233,"country_code":"US","latitude":"35.47144000","longitude":"-98.35562000"},{"id":"118496","name":"Hobart","state_id":1421,"state_code":"OK","country_id":233,"country_code":"US","latitude":"35.02950000","longitude":"-99.09313000"},{"id":"118526","name":"Holdenville","state_id":1421,"state_code":"OK","country_id":233,"country_code":"US","latitude":"35.08036000","longitude":"-96.39918000"},{"id":"118547","name":"Hollis","state_id":1421,"state_code":"OK","country_id":233,"country_code":"US","latitude":"34.68839000","longitude":"-99.91205000"},{"id":"118609","name":"Hominy","state_id":1421,"state_code":"OK","country_id":233,"country_code":"US","latitude":"36.41424000","longitude":"-96.39530000"},{"id":"118628","name":"Hooker","state_id":1421,"state_code":"OK","country_id":233,"country_code":"US","latitude":"36.86003000","longitude":"-101.21350000"},{"id":"118758","name":"Hughes County","state_id":1421,"state_code":"OK","country_id":233,"country_code":"US","latitude":"35.04834000","longitude":"-96.25024000"},{"id":"118765","name":"Hugo","state_id":1421,"state_code":"OK","country_id":233,"country_code":"US","latitude":"34.01066000","longitude":"-95.50968000"},{"id":"118868","name":"Idabel","state_id":1421,"state_code":"OK","country_id":233,"country_code":"US","latitude":"33.89566000","longitude":"-94.82633000"},{"id":"118948","name":"Inola","state_id":1421,"state_code":"OK","country_id":233,"country_code":"US","latitude":"36.15121000","longitude":"-95.50942000"},{"id":"119086","name":"Jackson County","state_id":1421,"state_code":"OK","country_id":233,"country_code":"US","latitude":"34.58797000","longitude":"-99.41476000"},{"id":"119153","name":"Jay","state_id":1421,"state_code":"OK","country_id":233,"country_code":"US","latitude":"36.42119000","longitude":"-94.79690000"},{"id":"119185","name":"Jefferson County","state_id":1421,"state_code":"OK","country_id":233,"country_code":"US","latitude":"34.11101000","longitude":"-97.83585000"},{"id":"119217","name":"Jenks","state_id":1421,"state_code":"OK","country_id":233,"country_code":"US","latitude":"36.02287000","longitude":"-95.96833000"},{"id":"119282","name":"Johnston County","state_id":1421,"state_code":"OK","country_id":233,"country_code":"US","latitude":"34.31649000","longitude":"-96.66066000"},{"id":"119291","name":"Jones","state_id":1421,"state_code":"OK","country_id":233,"country_code":"US","latitude":"35.56589000","longitude":"-97.28698000"},{"id":"119344","name":"Justice","state_id":1421,"state_code":"OK","country_id":233,"country_code":"US","latitude":"36.29287000","longitude":"-95.56664000"},{"id":"119401","name":"Kay County","state_id":1421,"state_code":"OK","country_id":233,"country_code":"US","latitude":"36.81801000","longitude":"-97.14392000"},{"id":"119430","name":"Kellyville","state_id":1421,"state_code":"OK","country_id":233,"country_code":"US","latitude":"35.94370000","longitude":"-96.21361000"},{"id":"119503","name":"Kenwood","state_id":1421,"state_code":"OK","country_id":233,"country_code":"US","latitude":"36.31453000","longitude":"-94.98579000"},{"id":"119553","name":"Kiefer","state_id":1421,"state_code":"OK","country_id":233,"country_code":"US","latitude":"35.94482000","longitude":"-96.06528000"},{"id":"119592","name":"Kingfisher","state_id":1421,"state_code":"OK","country_id":233,"country_code":"US","latitude":"35.86143000","longitude":"-97.93172000"},{"id":"119593","name":"Kingfisher County","state_id":1421,"state_code":"OK","country_id":233,"country_code":"US","latitude":"35.94539000","longitude":"-97.94211000"},{"id":"119622","name":"Kingston","state_id":1421,"state_code":"OK","country_id":233,"country_code":"US","latitude":"33.99871000","longitude":"-96.71972000"},{"id":"119647","name":"Kiowa County","state_id":1421,"state_code":"OK","country_id":233,"country_code":"US","latitude":"34.91637000","longitude":"-98.98087000"},{"id":"119704","name":"Konawa","state_id":1421,"state_code":"OK","country_id":233,"country_code":"US","latitude":"34.95953000","longitude":"-96.75280000"},{"id":"119715","name":"Krebs","state_id":1421,"state_code":"OK","country_id":233,"country_code":"US","latitude":"34.92787000","longitude":"-95.71582000"},{"id":"120116","name":"Langston","state_id":1421,"state_code":"OK","country_id":233,"country_code":"US","latitude":"35.94505000","longitude":"-97.25531000"},{"id":"120173","name":"Latimer County","state_id":1421,"state_code":"OK","country_id":233,"country_code":"US","latitude":"34.87606000","longitude":"-95.25042000"},{"id":"120218","name":"Laverne","state_id":1421,"state_code":"OK","country_id":233,"country_code":"US","latitude":"36.70975000","longitude":"-99.89346000"},{"id":"120250","name":"Lawton","state_id":1421,"state_code":"OK","country_id":233,"country_code":"US","latitude":"34.60869000","longitude":"-98.39033000"},{"id":"120259","name":"Le Flore County","state_id":1421,"state_code":"OK","country_id":233,"country_code":"US","latitude":"34.90030000","longitude":"-94.70339000"},{"id":"120445","name":"Lexington","state_id":1421,"state_code":"OK","country_id":233,"country_code":"US","latitude":"35.01479000","longitude":"-97.33558000"},{"id":"120523","name":"Lincoln County","state_id":1421,"state_code":"OK","country_id":233,"country_code":"US","latitude":"35.70300000","longitude":"-96.88092000"},{"id":"120572","name":"Lindsay","state_id":1421,"state_code":"OK","country_id":233,"country_code":"US","latitude":"34.83480000","longitude":"-97.60253000"},{"id":"120687","name":"Locust Grove","state_id":1421,"state_code":"OK","country_id":233,"country_code":"US","latitude":"36.20009000","longitude":"-95.16774000"},{"id":"120698","name":"Logan County","state_id":1421,"state_code":"OK","country_id":233,"country_code":"US","latitude":"35.91934000","longitude":"-97.44332000"},{"id":"120726","name":"Lone Grove","state_id":1421,"state_code":"OK","country_id":233,"country_code":"US","latitude":"34.17537000","longitude":"-97.26279000"},{"id":"120755","name":"Longtown","state_id":1421,"state_code":"OK","country_id":233,"country_code":"US","latitude":"35.24538000","longitude":"-95.51276000"},{"id":"120820","name":"Love County","state_id":1421,"state_code":"OK","country_id":233,"country_code":"US","latitude":"33.94986000","longitude":"-97.24418000"},{"id":"120894","name":"Luther","state_id":1421,"state_code":"OK","country_id":233,"country_code":"US","latitude":"35.66173000","longitude":"-97.19559000"},{"id":"120983","name":"Madill","state_id":1421,"state_code":"OK","country_id":233,"country_code":"US","latitude":"34.09038000","longitude":"-96.77167000"},{"id":"121053","name":"Major County","state_id":1421,"state_code":"OK","country_id":233,"country_code":"US","latitude":"36.31164000","longitude":"-98.53595000"},{"id":"121110","name":"Mangum","state_id":1421,"state_code":"OK","country_id":233,"country_code":"US","latitude":"34.87200000","longitude":"-99.50426000"},{"id":"121133","name":"Mannford","state_id":1421,"state_code":"OK","country_id":233,"country_code":"US","latitude":"36.13341000","longitude":"-96.35446000"},{"id":"121217","name":"Marietta","state_id":1421,"state_code":"OK","country_id":233,"country_code":"US","latitude":"33.93704000","longitude":"-97.11668000"},{"id":"121285","name":"Marlow","state_id":1421,"state_code":"OK","country_id":233,"country_code":"US","latitude":"34.64813000","longitude":"-97.95809000"},{"id":"121314","name":"Marshall County","state_id":1421,"state_code":"OK","country_id":233,"country_code":"US","latitude":"34.02449000","longitude":"-96.76913000"},{"id":"121416","name":"Maud","state_id":1421,"state_code":"OK","country_id":233,"country_code":"US","latitude":"35.13036000","longitude":"-96.77585000"},{"id":"121435","name":"Mayes County","state_id":1421,"state_code":"OK","country_id":233,"country_code":"US","latitude":"36.30188000","longitude":"-95.23085000"},{"id":"121452","name":"Maysville","state_id":1421,"state_code":"OK","country_id":233,"country_code":"US","latitude":"34.81730000","longitude":"-97.40586000"},{"id":"121462","name":"McAlester","state_id":1421,"state_code":"OK","country_id":233,"country_code":"US","latitude":"34.93343000","longitude":"-95.76971000"},{"id":"121469","name":"McClain County","state_id":1421,"state_code":"OK","country_id":233,"country_code":"US","latitude":"35.00934000","longitude":"-97.44430000"},{"id":"121481","name":"McCord","state_id":1421,"state_code":"OK","country_id":233,"country_code":"US","latitude":"36.67847000","longitude":"-97.04000000"},{"id":"121490","name":"McCurtain County","state_id":1421,"state_code":"OK","country_id":233,"country_code":"US","latitude":"34.11529000","longitude":"-94.77133000"},{"id":"121514","name":"McIntosh County","state_id":1421,"state_code":"OK","country_id":233,"country_code":"US","latitude":"35.37366000","longitude":"-95.66684000"},{"id":"121536","name":"McLoud","state_id":1421,"state_code":"OK","country_id":233,"country_code":"US","latitude":"35.43590000","longitude":"-97.09142000"},{"id":"121591","name":"Medford","state_id":1421,"state_code":"OK","country_id":233,"country_code":"US","latitude":"36.80697000","longitude":"-97.73366000"},{"id":"121612","name":"Meeker","state_id":1421,"state_code":"OK","country_id":233,"country_code":"US","latitude":"35.50340000","longitude":"-96.90280000"},{"id":"121691","name":"Meridian","state_id":1421,"state_code":"OK","country_id":233,"country_code":"US","latitude":"34.42731000","longitude":"-97.97809000"},{"id":"121747","name":"Miami","state_id":1421,"state_code":"OK","country_id":233,"country_code":"US","latitude":"36.87451000","longitude":"-94.87746000"},{"id":"121824","name":"Midwest City","state_id":1421,"state_code":"OK","country_id":233,"country_code":"US","latitude":"35.44951000","longitude":"-97.39670000"},{"id":"121927","name":"Minco","state_id":1421,"state_code":"OK","country_id":233,"country_code":"US","latitude":"35.31284000","longitude":"-97.94449000"},{"id":"122200","name":"Moore","state_id":1421,"state_code":"OK","country_id":233,"country_code":"US","latitude":"35.33951000","longitude":"-97.48670000"},{"id":"122206","name":"Mooreland","state_id":1421,"state_code":"OK","country_id":233,"country_code":"US","latitude":"36.43920000","longitude":"-99.20482000"},{"id":"122266","name":"Morris","state_id":1421,"state_code":"OK","country_id":233,"country_code":"US","latitude":"35.60760000","longitude":"-95.86027000"},{"id":"122325","name":"Mounds","state_id":1421,"state_code":"OK","country_id":233,"country_code":"US","latitude":"35.87648000","longitude":"-96.06111000"},{"id":"122456","name":"Muldrow","state_id":1421,"state_code":"OK","country_id":233,"country_code":"US","latitude":"35.40620000","longitude":"-94.59883000"},{"id":"122494","name":"Murray County","state_id":1421,"state_code":"OK","country_id":233,"country_code":"US","latitude":"34.48233000","longitude":"-97.06792000"},{"id":"122512","name":"Muskogee","state_id":1421,"state_code":"OK","country_id":233,"country_code":"US","latitude":"35.74788000","longitude":"-95.36969000"},{"id":"122513","name":"Muskogee County","state_id":1421,"state_code":"OK","country_id":233,"country_code":"US","latitude":"35.61613000","longitude":"-95.37953000"},{"id":"122515","name":"Mustang","state_id":1421,"state_code":"OK","country_id":233,"country_code":"US","latitude":"35.38423000","longitude":"-97.72449000"},{"id":"122820","name":"Newcastle","state_id":1421,"state_code":"OK","country_id":233,"country_code":"US","latitude":"35.24729000","longitude":"-97.59976000"},{"id":"122832","name":"Newkirk","state_id":1421,"state_code":"OK","country_id":233,"country_code":"US","latitude":"36.88225000","longitude":"-97.05337000"},{"id":"122891","name":"Nichols Hills","state_id":1421,"state_code":"OK","country_id":233,"country_code":"US","latitude":"35.55089000","longitude":"-97.54893000"},{"id":"122897","name":"Nicoma Park","state_id":1421,"state_code":"OK","country_id":233,"country_code":"US","latitude":"35.49117000","longitude":"-97.32309000"},{"id":"122903","name":"Ninnekah","state_id":1421,"state_code":"OK","country_id":233,"country_code":"US","latitude":"34.94785000","longitude":"-97.92393000"},{"id":"122916","name":"Noble","state_id":1421,"state_code":"OK","country_id":233,"country_code":"US","latitude":"35.13924000","longitude":"-97.39475000"},{"id":"122917","name":"Noble County","state_id":1421,"state_code":"OK","country_id":233,"country_code":"US","latitude":"36.38860000","longitude":"-97.23051000"},{"id":"122949","name":"Norman","state_id":1421,"state_code":"OK","country_id":233,"country_code":"US","latitude":"35.22257000","longitude":"-97.43948000"},{"id":"123209","name":"Nowata","state_id":1421,"state_code":"OK","country_id":233,"country_code":"US","latitude":"36.70065000","longitude":"-95.63803000"},{"id":"123210","name":"Nowata County","state_id":1421,"state_code":"OK","country_id":233,"country_code":"US","latitude":"36.79848000","longitude":"-95.61740000"},{"id":"123279","name":"Oakhurst","state_id":1421,"state_code":"OK","country_id":233,"country_code":"US","latitude":"36.07537000","longitude":"-96.06444000"},{"id":"123287","name":"Oakland","state_id":1421,"state_code":"OK","country_id":233,"country_code":"US","latitude":"34.10010000","longitude":"-96.79389000"},{"id":"123389","name":"Oilton","state_id":1421,"state_code":"OK","country_id":233,"country_code":"US","latitude":"36.08451000","longitude":"-96.58363000"},{"id":"123395","name":"Okarche","state_id":1421,"state_code":"OK","country_id":233,"country_code":"US","latitude":"35.72588000","longitude":"-97.97644000"},{"id":"123400","name":"Okeene","state_id":1421,"state_code":"OK","country_id":233,"country_code":"US","latitude":"36.11615000","longitude":"-98.31702000"},{"id":"123401","name":"Okemah","state_id":1421,"state_code":"OK","country_id":233,"country_code":"US","latitude":"35.43259000","longitude":"-96.30501000"},{"id":"123403","name":"Okfuskee County","state_id":1421,"state_code":"OK","country_id":233,"country_code":"US","latitude":"35.46546000","longitude":"-96.32280000"},{"id":"123404","name":"Oklahoma City","state_id":1421,"state_code":"OK","country_id":233,"country_code":"US","latitude":"35.46756000","longitude":"-97.51643000"},{"id":"123405","name":"Oklahoma County","state_id":1421,"state_code":"OK","country_id":233,"country_code":"US","latitude":"35.55152000","longitude":"-97.40720000"},{"id":"123406","name":"Okmulgee","state_id":1421,"state_code":"OK","country_id":233,"country_code":"US","latitude":"35.62344000","longitude":"-95.96055000"},{"id":"123407","name":"Okmulgee County","state_id":1421,"state_code":"OK","country_id":233,"country_code":"US","latitude":"35.64666000","longitude":"-95.96431000"},{"id":"123492","name":"Oologah","state_id":1421,"state_code":"OK","country_id":233,"country_code":"US","latitude":"36.44704000","longitude":"-95.70832000"},{"id":"123591","name":"Osage County","state_id":1421,"state_code":"OK","country_id":233,"country_code":"US","latitude":"36.62919000","longitude":"-96.39849000"},{"id":"123639","name":"Ottawa County","state_id":1421,"state_code":"OK","country_id":233,"country_code":"US","latitude":"36.83551000","longitude":"-94.81044000"},{"id":"123658","name":"Owasso","state_id":1421,"state_code":"OK","country_id":233,"country_code":"US","latitude":"36.26954000","longitude":"-95.85471000"},{"id":"123797","name":"Panama","state_id":1421,"state_code":"OK","country_id":233,"country_code":"US","latitude":"35.16732000","longitude":"-94.67245000"},{"id":"123847","name":"Park Hill","state_id":1421,"state_code":"OK","country_id":233,"country_code":"US","latitude":"35.86120000","longitude":"-94.95884000"},{"id":"123925","name":"Pauls Valley","state_id":1421,"state_code":"OK","country_id":233,"country_code":"US","latitude":"34.74008000","longitude":"-97.22225000"},{"id":"123930","name":"Pawhuska","state_id":1421,"state_code":"OK","country_id":233,"country_code":"US","latitude":"36.66784000","longitude":"-96.33723000"},{"id":"123934","name":"Pawnee","state_id":1421,"state_code":"OK","country_id":233,"country_code":"US","latitude":"36.33783000","longitude":"-96.80392000"},{"id":"123937","name":"Pawnee County","state_id":1421,"state_code":"OK","country_id":233,"country_code":"US","latitude":"36.31693000","longitude":"-96.69930000"},{"id":"123946","name":"Payne County","state_id":1421,"state_code":"OK","country_id":233,"country_code":"US","latitude":"36.07732000","longitude":"-96.97577000"},{"id":"124062","name":"Perkins","state_id":1421,"state_code":"OK","country_id":233,"country_code":"US","latitude":"35.97394000","longitude":"-97.03364000"},{"id":"124069","name":"Perry","state_id":1421,"state_code":"OK","country_id":233,"country_code":"US","latitude":"36.28949000","longitude":"-97.28810000"},{"id":"124167","name":"Piedmont","state_id":1421,"state_code":"OK","country_id":233,"country_code":"US","latitude":"35.64200000","longitude":"-97.74643000"},{"id":"124270","name":"Pink","state_id":1421,"state_code":"OK","country_id":233,"country_code":"US","latitude":"35.26063000","longitude":"-97.11975000"},{"id":"124295","name":"Pittsburg County","state_id":1421,"state_code":"OK","country_id":233,"country_code":"US","latitude":"34.92391000","longitude":"-95.74840000"},{"id":"124419","name":"Pocola","state_id":1421,"state_code":"OK","country_id":233,"country_code":"US","latitude":"35.23121000","longitude":"-94.47800000"},{"id":"124464","name":"Ponca City","state_id":1421,"state_code":"OK","country_id":233,"country_code":"US","latitude":"36.70698000","longitude":"-97.08559000"},{"id":"124478","name":"Pontotoc County","state_id":1421,"state_code":"OK","country_id":233,"country_code":"US","latitude":"34.72800000","longitude":"-96.68444000"},{"id":"124579","name":"Poteau","state_id":1421,"state_code":"OK","country_id":233,"country_code":"US","latitude":"35.05371000","longitude":"-94.62356000"},{"id":"124590","name":"Pottawatomie County","state_id":1421,"state_code":"OK","country_id":233,"country_code":"US","latitude":"35.20672000","longitude":"-96.94830000"},{"id":"124622","name":"Prague","state_id":1421,"state_code":"OK","country_id":233,"country_code":"US","latitude":"35.48674000","longitude":"-96.68502000"},{"id":"124726","name":"Pryor","state_id":1421,"state_code":"OK","country_id":233,"country_code":"US","latitude":"36.30843000","longitude":"-95.31691000"},{"id":"124727","name":"Pryor Creek","state_id":1421,"state_code":"OK","country_id":233,"country_code":"US","latitude":"36.30862000","longitude":"-95.31777000"},{"id":"124753","name":"Purcell","state_id":1421,"state_code":"OK","country_id":233,"country_code":"US","latitude":"35.01368000","longitude":"-97.36114000"},{"id":"124759","name":"Pushmataha County","state_id":1421,"state_code":"OK","country_id":233,"country_code":"US","latitude":"34.41620000","longitude":"-95.37579000"},{"id":"124804","name":"Quinton","state_id":1421,"state_code":"OK","country_id":233,"country_code":"US","latitude":"35.12288000","longitude":"-95.37109000"},{"id":"125144","name":"Ringling","state_id":1421,"state_code":"OK","country_id":233,"country_code":"US","latitude":"34.17843000","longitude":"-97.59253000"},{"id":"125347","name":"Roger Mills County","state_id":1421,"state_code":"OK","country_id":233,"country_code":"US","latitude":"35.68839000","longitude":"-99.69569000"},{"id":"125352","name":"Rogers County","state_id":1421,"state_code":"OK","country_id":233,"country_code":"US","latitude":"36.37157000","longitude":"-95.60436000"},{"id":"125359","name":"Roland","state_id":1421,"state_code":"OK","country_id":233,"country_code":"US","latitude":"35.42120000","longitude":"-94.51466000"},{"id":"125522","name":"Rush Springs","state_id":1421,"state_code":"OK","country_id":233,"country_code":"US","latitude":"34.78257000","longitude":"-97.95698000"},{"id":"125745","name":"Salina","state_id":1421,"state_code":"OK","country_id":233,"country_code":"US","latitude":"36.29287000","longitude":"-95.15330000"},{"id":"125762","name":"Sallisaw","state_id":1421,"state_code":"OK","country_id":233,"country_code":"US","latitude":"35.46037000","longitude":"-94.78745000"},{"id":"125861","name":"Sand Springs","state_id":1421,"state_code":"OK","country_id":233,"country_code":"US","latitude":"36.13981000","longitude":"-96.10889000"},{"id":"125933","name":"Sapulpa","state_id":1421,"state_code":"OK","country_id":233,"country_code":"US","latitude":"35.99870000","longitude":"-96.11417000"},{"id":"125989","name":"Sayre","state_id":1421,"state_code":"OK","country_id":233,"country_code":"US","latitude":"35.29116000","longitude":"-99.64010000"},{"id":"126145","name":"Seminole","state_id":1421,"state_code":"OK","country_id":233,"country_code":"US","latitude":"35.22452000","longitude":"-96.67057000"},{"id":"126149","name":"Seminole County","state_id":1421,"state_code":"OK","country_id":233,"country_code":"US","latitude":"35.16749000","longitude":"-96.61552000"},{"id":"126165","name":"Sequoyah County","state_id":1421,"state_code":"OK","country_id":233,"country_code":"US","latitude":"35.49535000","longitude":"-94.75524000"},{"id":"126241","name":"Shattuck","state_id":1421,"state_code":"OK","country_id":233,"country_code":"US","latitude":"36.27614000","longitude":"-99.88276000"},{"id":"126250","name":"Shawnee","state_id":1421,"state_code":"OK","country_id":233,"country_code":"US","latitude":"35.32729000","longitude":"-96.92530000"},{"id":"126478","name":"Skiatook","state_id":1421,"state_code":"OK","country_id":233,"country_code":"US","latitude":"36.36842000","longitude":"-96.00138000"},{"id":"126494","name":"Slaughterville","state_id":1421,"state_code":"OK","country_id":233,"country_code":"US","latitude":"35.08729000","longitude":"-97.33503000"},{"id":"126549","name":"Snyder","state_id":1421,"state_code":"OK","country_id":233,"country_code":"US","latitude":"34.65896000","longitude":"-98.95174000"},{"id":"126822","name":"Spencer","state_id":1421,"state_code":"OK","country_id":233,"country_code":"US","latitude":"35.52284000","longitude":"-97.37726000"},{"id":"126833","name":"Sperry","state_id":1421,"state_code":"OK","country_id":233,"country_code":"US","latitude":"36.29731000","longitude":"-95.99139000"},{"id":"126840","name":"Spiro","state_id":1421,"state_code":"OK","country_id":233,"country_code":"US","latitude":"35.24121000","longitude":"-94.61994000"},{"id":"127022","name":"Stephens County","state_id":1421,"state_code":"OK","country_id":233,"country_code":"US","latitude":"34.48559000","longitude":"-97.85148000"},{"id":"127057","name":"Stigler","state_id":1421,"state_code":"OK","country_id":233,"country_code":"US","latitude":"35.25371000","longitude":"-95.12302000"},{"id":"127060","name":"Stillwater","state_id":1421,"state_code":"OK","country_id":233,"country_code":"US","latitude":"36.11561000","longitude":"-97.05837000"},{"id":"127064","name":"Stilwell","state_id":1421,"state_code":"OK","country_id":233,"country_code":"US","latitude":"35.81453000","longitude":"-94.62856000"},{"id":"127123","name":"Stratford","state_id":1421,"state_code":"OK","country_id":233,"country_code":"US","latitude":"34.79675000","longitude":"-96.95946000"},{"id":"127139","name":"Stroud","state_id":1421,"state_code":"OK","country_id":233,"country_code":"US","latitude":"35.74868000","longitude":"-96.65807000"},{"id":"127195","name":"Sulphur","state_id":1421,"state_code":"OK","country_id":233,"country_code":"US","latitude":"34.50787000","longitude":"-96.96835000"},{"id":"127377","name":"Tahlequah","state_id":1421,"state_code":"OK","country_id":233,"country_code":"US","latitude":"35.91537000","longitude":"-94.96996000"},{"id":"127388","name":"Talihina","state_id":1421,"state_code":"OK","country_id":233,"country_code":"US","latitude":"34.75149000","longitude":"-95.04802000"},{"id":"127398","name":"Taloga","state_id":1421,"state_code":"OK","country_id":233,"country_code":"US","latitude":"36.03865000","longitude":"-98.96371000"},{"id":"127478","name":"Tecumseh","state_id":1421,"state_code":"OK","country_id":233,"country_code":"US","latitude":"35.25785000","longitude":"-96.93669000"},{"id":"127543","name":"Texanna","state_id":1421,"state_code":"OK","country_id":233,"country_code":"US","latitude":"35.34732000","longitude":"-95.43692000"},{"id":"127548","name":"Texas County","state_id":1421,"state_code":"OK","country_id":233,"country_code":"US","latitude":"36.74791000","longitude":"-101.49001000"},{"id":"127564","name":"The Village","state_id":1421,"state_code":"OK","country_id":233,"country_code":"US","latitude":"35.56089000","longitude":"-97.55143000"},{"id":"127578","name":"Thomas","state_id":1421,"state_code":"OK","country_id":233,"country_code":"US","latitude":"35.74422000","longitude":"-98.74758000"},{"id":"127650","name":"Tillman County","state_id":1421,"state_code":"OK","country_id":233,"country_code":"US","latitude":"34.37285000","longitude":"-98.92424000"},{"id":"127682","name":"Tishomingo","state_id":1421,"state_code":"OK","country_id":233,"country_code":"US","latitude":"34.23621000","longitude":"-96.67861000"},{"id":"127721","name":"Tonkawa","state_id":1421,"state_code":"OK","country_id":233,"country_code":"US","latitude":"36.67837000","longitude":"-97.31004000"},{"id":"127888","name":"Tulsa","state_id":1421,"state_code":"OK","country_id":233,"country_code":"US","latitude":"36.15398000","longitude":"-95.99277000"},{"id":"127889","name":"Tulsa County","state_id":1421,"state_code":"OK","country_id":233,"country_code":"US","latitude":"36.12108000","longitude":"-95.94148000"},{"id":"127899","name":"Turley","state_id":1421,"state_code":"OK","country_id":233,"country_code":"US","latitude":"36.24204000","longitude":"-95.97583000"},{"id":"127918","name":"Tuttle","state_id":1421,"state_code":"OK","country_id":233,"country_code":"US","latitude":"35.29089000","longitude":"-97.81227000"},{"id":"127981","name":"Union City","state_id":1421,"state_code":"OK","country_id":233,"country_code":"US","latitude":"35.39172000","longitude":"-97.94144000"},{"id":"128181","name":"Verdigris","state_id":1421,"state_code":"OK","country_id":233,"country_code":"US","latitude":"36.23482000","longitude":"-95.69109000"},{"id":"128214","name":"Vian","state_id":1421,"state_code":"OK","country_id":233,"country_code":"US","latitude":"35.49843000","longitude":"-94.96967000"},{"id":"128277","name":"Vinita","state_id":1421,"state_code":"OK","country_id":233,"country_code":"US","latitude":"36.63869000","longitude":"-95.15413000"},{"id":"128329","name":"Wagoner","state_id":1421,"state_code":"OK","country_id":233,"country_code":"US","latitude":"35.95954000","longitude":"-95.36941000"},{"id":"128330","name":"Wagoner County","state_id":1421,"state_code":"OK","country_id":233,"country_code":"US","latitude":"35.96110000","longitude":"-95.52118000"},{"id":"128429","name":"Walters","state_id":1421,"state_code":"OK","country_id":233,"country_code":"US","latitude":"34.35981000","longitude":"-98.30783000"},{"id":"128473","name":"Warner","state_id":1421,"state_code":"OK","country_id":233,"country_code":"US","latitude":"35.49426000","longitude":"-95.30552000"},{"id":"128475","name":"Warr Acres","state_id":1421,"state_code":"OK","country_id":233,"country_code":"US","latitude":"35.52256000","longitude":"-97.61893000"},{"id":"128564","name":"Washington County","state_id":1421,"state_code":"OK","country_id":233,"country_code":"US","latitude":"36.71524000","longitude":"-95.90437000"},{"id":"128589","name":"Washita County","state_id":1421,"state_code":"OK","country_id":233,"country_code":"US","latitude":"35.29038000","longitude":"-98.99223000"},{"id":"128636","name":"Watonga","state_id":1421,"state_code":"OK","country_id":233,"country_code":"US","latitude":"35.84477000","longitude":"-98.41313000"},{"id":"128651","name":"Waukomis","state_id":1421,"state_code":"OK","country_id":233,"country_code":"US","latitude":"36.28031000","longitude":"-97.89811000"},{"id":"128659","name":"Waurika","state_id":1421,"state_code":"OK","country_id":233,"country_code":"US","latitude":"34.16704000","longitude":"-97.99754000"},{"id":"128717","name":"Weatherford","state_id":1421,"state_code":"OK","country_id":233,"country_code":"US","latitude":"35.52616000","longitude":"-98.70757000"},{"id":"129077","name":"Westville","state_id":1421,"state_code":"OK","country_id":233,"country_code":"US","latitude":"35.99258000","longitude":"-94.56800000"},{"id":"129091","name":"Wetumka","state_id":1421,"state_code":"OK","country_id":233,"country_code":"US","latitude":"35.23759000","longitude":"-96.24167000"},{"id":"129096","name":"Wewoka","state_id":1421,"state_code":"OK","country_id":233,"country_code":"US","latitude":"35.15869000","longitude":"-96.49335000"},{"id":"129227","name":"Wilburton","state_id":1421,"state_code":"OK","country_id":233,"country_code":"US","latitude":"34.91871000","longitude":"-95.30914000"},{"id":"129330","name":"Wilson","state_id":1421,"state_code":"OK","country_id":233,"country_code":"US","latitude":"34.16204000","longitude":"-97.42586000"},{"id":"129463","name":"Wister","state_id":1421,"state_code":"OK","country_id":233,"country_code":"US","latitude":"34.96732000","longitude":"-94.72467000"},{"id":"129549","name":"Woods County","state_id":1421,"state_code":"OK","country_id":233,"country_code":"US","latitude":"36.76694000","longitude":"-98.86512000"},{"id":"129575","name":"Woodward","state_id":1421,"state_code":"OK","country_id":233,"country_code":"US","latitude":"36.43365000","longitude":"-99.39039000"},{"id":"129577","name":"Woodward County","state_id":1421,"state_code":"OK","country_id":233,"country_code":"US","latitude":"36.42267000","longitude":"-99.26497000"},{"id":"129633","name":"Wynnewood","state_id":1421,"state_code":"OK","country_id":233,"country_code":"US","latitude":"34.64342000","longitude":"-97.16447000"},{"id":"129654","name":"Yale","state_id":1421,"state_code":"OK","country_id":233,"country_code":"US","latitude":"36.11423000","longitude":"-96.69919000"},{"id":"129730","name":"Yukon","state_id":1421,"state_code":"OK","country_id":233,"country_code":"US","latitude":"35.50672000","longitude":"-97.76254000"}]