[{"id":"111060","name":"Agua Fria","state_id":1423,"state_code":"NM","country_id":233,"country_code":"US","latitude":"35.65448000","longitude":"-106.02224000"},{"id":"111094","name":"Alamo","state_id":1423,"state_code":"NM","country_id":233,"country_code":"US","latitude":"34.42089000","longitude":"-107.51088000"},{"id":"111097","name":"Alamogordo","state_id":1423,"state_code":"NM","country_id":233,"country_code":"US","latitude":"32.89953000","longitude":"-105.96027000"},{"id":"111130","name":"Albuquerque","state_id":1423,"state_code":"NM","country_id":233,"country_code":"US","latitude":"35.08449000","longitude":"-106.65114000"},{"id":"111335","name":"Angel Fire","state_id":1423,"state_code":"NM","country_id":233,"country_code":"US","latitude":"36.39309000","longitude":"-105.28501000"},{"id":"111369","name":"Anthony","state_id":1423,"state_code":"NM","country_id":233,"country_code":"US","latitude":"32.00399000","longitude":"-106.60583000"},{"id":"111446","name":"Arenas Valley","state_id":1423,"state_code":"NM","country_id":233,"country_code":"US","latitude":"32.79396000","longitude":"-108.18421000"},{"id":"111495","name":"Arroyo Seco","state_id":1423,"state_code":"NM","country_id":233,"country_code":"US","latitude":"36.51669000","longitude":"-105.56918000"},{"id":"111497","name":"Artesia","state_id":1423,"state_code":"NM","country_id":233,"country_code":"US","latitude":"32.84233000","longitude":"-104.40330000"},{"id":"111605","name":"Atoka","state_id":1423,"state_code":"NM","country_id":233,"country_code":"US","latitude":"32.76956000","longitude":"-104.38885000"},{"id":"111712","name":"Aztec","state_id":1423,"state_code":"NM","country_id":233,"country_code":"US","latitude":"36.82223000","longitude":"-107.99285000"},{"id":"111937","name":"Bayard","state_id":1423,"state_code":"NM","country_id":233,"country_code":"US","latitude":"32.76174000","longitude":"-108.13060000"},{"id":"112054","name":"Belen","state_id":1423,"state_code":"NM","country_id":233,"country_code":"US","latitude":"34.66284000","longitude":"-106.77642000"},{"id":"112220","name":"Berino","state_id":1423,"state_code":"NM","country_id":233,"country_code":"US","latitude":"32.07093000","longitude":"-106.62138000"},{"id":"112242","name":"Bernalillo","state_id":1423,"state_code":"NM","country_id":233,"country_code":"US","latitude":"35.30004000","longitude":"-106.55114000"},{"id":"112243","name":"Bernalillo County","state_id":1423,"state_code":"NM","country_id":233,"country_code":"US","latitude":"35.05131000","longitude":"-106.67017000"},{"id":"112384","name":"Black Rock","state_id":1423,"state_code":"NM","country_id":233,"country_code":"US","latitude":"35.08837000","longitude":"-108.79119000"},{"id":"112440","name":"Bloomfield","state_id":1423,"state_code":"NM","country_id":233,"country_code":"US","latitude":"36.71112000","longitude":"-107.98451000"},{"id":"112512","name":"Boles Acres","state_id":1423,"state_code":"NM","country_id":233,"country_code":"US","latitude":"32.80703000","longitude":"-105.98610000"},{"id":"112585","name":"Bosque Farms","state_id":1423,"state_code":"NM","country_id":233,"country_code":"US","latitude":"34.85478000","longitude":"-106.70530000"},{"id":"113331","name":"Cannon Air Force Base","state_id":1423,"state_code":"NM","country_id":233,"country_code":"US","latitude":"34.39689000","longitude":"-103.32444000"},{"id":"113374","name":"Capitan","state_id":1423,"state_code":"NM","country_id":233,"country_code":"US","latitude":"33.54536000","longitude":"-105.57220000"},{"id":"113409","name":"Carlsbad","state_id":1423,"state_code":"NM","country_id":233,"country_code":"US","latitude":"32.42067000","longitude":"-104.22884000"},{"id":"113431","name":"Carnuel","state_id":1423,"state_code":"NM","country_id":233,"country_code":"US","latitude":"35.06394000","longitude":"-106.45725000"},{"id":"113448","name":"Carrizozo","state_id":1423,"state_code":"NM","country_id":233,"country_code":"US","latitude":"33.64174000","longitude":"-105.87721000"},{"id":"113578","name":"Catron County","state_id":1423,"state_code":"NM","country_id":233,"country_code":"US","latitude":"33.91533000","longitude":"-108.40473000"},{"id":"113717","name":"Chama","state_id":1423,"state_code":"NM","country_id":233,"country_code":"US","latitude":"36.90307000","longitude":"-106.57948000"},{"id":"113740","name":"Chaparral","state_id":1423,"state_code":"NM","country_id":233,"country_code":"US","latitude":"32.02376000","longitude":"-106.38566000"},{"id":"113817","name":"Chaves County","state_id":1423,"state_code":"NM","country_id":233,"country_code":"US","latitude":"33.36319000","longitude":"-104.46700000"},{"id":"113958","name":"Chimayo","state_id":1423,"state_code":"NM","country_id":233,"country_code":"US","latitude":"36.00391000","longitude":"-105.94697000"},{"id":"114010","name":"Church Rock","state_id":1423,"state_code":"NM","country_id":233,"country_code":"US","latitude":"35.53391000","longitude":"-108.59980000"},{"id":"114017","name":"Cibola County","state_id":1423,"state_code":"NM","country_id":233,"country_code":"US","latitude":"34.91257000","longitude":"-107.99971000"},{"id":"114204","name":"Clayton","state_id":1423,"state_code":"NM","country_id":233,"country_code":"US","latitude":"36.45169000","longitude":"-103.18410000"},{"id":"114316","name":"Clovis","state_id":1423,"state_code":"NM","country_id":233,"country_code":"US","latitude":"34.40480000","longitude":"-103.20523000"},{"id":"114411","name":"Colfax County","state_id":1423,"state_code":"NM","country_id":233,"country_code":"US","latitude":"36.60612000","longitude":"-104.64686000"},{"id":"114498","name":"Columbus","state_id":1423,"state_code":"NM","country_id":233,"country_code":"US","latitude":"31.82760000","longitude":"-107.64002000"},{"id":"114666","name":"Corrales","state_id":1423,"state_code":"NM","country_id":233,"country_code":"US","latitude":"35.23782000","longitude":"-106.60669000"},{"id":"114868","name":"Crownpoint","state_id":1423,"state_code":"NM","country_id":233,"country_code":"US","latitude":"35.67808000","longitude":"-108.15118000"},{"id":"114927","name":"Curry County","state_id":1423,"state_code":"NM","country_id":233,"country_code":"US","latitude":"34.57416000","longitude":"-103.34691000"},{"id":"115104","name":"De Baca County","state_id":1423,"state_code":"NM","country_id":233,"country_code":"US","latitude":"34.34239000","longitude":"-104.41200000"},{"id":"115231","name":"Deming","state_id":1423,"state_code":"NM","country_id":233,"country_code":"US","latitude":"32.26870000","longitude":"-107.75864000"},{"id":"115311","name":"Dexter","state_id":1423,"state_code":"NM","country_id":233,"country_code":"US","latitude":"33.19733000","longitude":"-104.37302000"},{"id":"115464","name":"Do\u00f1a Ana","state_id":1423,"state_code":"NM","country_id":233,"country_code":"US","latitude":"32.38954000","longitude":"-106.81390000"},{"id":"115465","name":"Do\u00f1a Ana County","state_id":1423,"state_code":"NM","country_id":233,"country_code":"US","latitude":"32.35268000","longitude":"-106.83280000"},{"id":"115510","name":"Dulce","state_id":1423,"state_code":"NM","country_id":233,"country_code":"US","latitude":"36.93362000","longitude":"-106.99893000"},{"id":"115824","name":"Eddy County","state_id":1423,"state_code":"NM","country_id":233,"country_code":"US","latitude":"32.47149000","longitude":"-104.30431000"},{"id":"115863","name":"Edgewood","state_id":1423,"state_code":"NM","country_id":233,"country_code":"US","latitude":"35.06144000","longitude":"-106.19141000"},{"id":"115917","name":"El Cerro","state_id":1423,"state_code":"NM","country_id":233,"country_code":"US","latitude":"34.72700000","longitude":"-106.71086000"},{"id":"115918","name":"El Cerro Mission","state_id":1423,"state_code":"NM","country_id":233,"country_code":"US","latitude":"34.76227000","longitude":"-106.64450000"},{"id":"115934","name":"El Rancho","state_id":1423,"state_code":"NM","country_id":233,"country_code":"US","latitude":"35.88919000","longitude":"-106.07975000"},{"id":"115939","name":"El Valle de Arroyo Seco","state_id":1423,"state_code":"NM","country_id":233,"country_code":"US","latitude":"35.96280000","longitude":"-106.02947000"},{"id":"115955","name":"Eldorado at Santa Fe","state_id":1423,"state_code":"NM","country_id":233,"country_code":"US","latitude":"35.52642000","longitude":"-105.93474000"},{"id":"115961","name":"Elephant Butte","state_id":1423,"state_code":"NM","country_id":233,"country_code":"US","latitude":"33.14868000","longitude":"-107.18475000"},{"id":"116117","name":"Enchanted Hills","state_id":1423,"state_code":"NM","country_id":233,"country_code":"US","latitude":"35.33676000","longitude":"-106.59296000"},{"id":"116188","name":"Espa\u00f1ola","state_id":1423,"state_code":"NM","country_id":233,"country_code":"US","latitude":"35.99113000","longitude":"-106.08058000"},{"id":"116203","name":"Estancia","state_id":1423,"state_code":"NM","country_id":233,"country_code":"US","latitude":"34.75839000","longitude":"-106.05585000"},{"id":"116230","name":"Eunice","state_id":1423,"state_code":"NM","country_id":233,"country_code":"US","latitude":"32.43734000","longitude":"-103.15908000"},{"id":"116421","name":"Farmington","state_id":1423,"state_code":"NM","country_id":233,"country_code":"US","latitude":"36.72806000","longitude":"-108.21869000"},{"id":"116573","name":"Flora Vista","state_id":1423,"state_code":"NM","country_id":233,"country_code":"US","latitude":"36.79445000","longitude":"-108.08035000"},{"id":"116753","name":"Fort Sumner","state_id":1423,"state_code":"NM","country_id":233,"country_code":"US","latitude":"34.47173000","longitude":"-104.24553000"},{"id":"117039","name":"Gallup","state_id":1423,"state_code":"NM","country_id":233,"country_code":"US","latitude":"35.52808000","longitude":"-108.74258000"},{"id":"117517","name":"Grant County","state_id":1423,"state_code":"NM","country_id":233,"country_code":"US","latitude":"32.73901000","longitude":"-108.38225000"},{"id":"117527","name":"Grants","state_id":1423,"state_code":"NM","country_id":233,"country_code":"US","latitude":"35.14760000","longitude":"-107.85261000"},{"id":"117779","name":"Guadalupe County","state_id":1423,"state_code":"NM","country_id":233,"country_code":"US","latitude":"34.86333000","longitude":"-104.79070000"},{"id":"117836","name":"Hagerman","state_id":1423,"state_code":"NM","country_id":233,"country_code":"US","latitude":"33.11511000","longitude":"-104.32691000"},{"id":"118004","name":"Harding County","state_id":1423,"state_code":"NM","country_id":233,"country_code":"US","latitude":"35.85794000","longitude":"-103.81993000"},{"id":"118137","name":"Hatch","state_id":1423,"state_code":"NM","country_id":233,"country_code":"US","latitude":"32.66536000","longitude":"-107.15307000"},{"id":"118375","name":"Hidalgo County","state_id":1423,"state_code":"NM","country_id":233,"country_code":"US","latitude":"31.91416000","longitude":"-108.71482000"},{"id":"118500","name":"Hobbs","state_id":1423,"state_code":"NM","country_id":233,"country_code":"US","latitude":"32.70261000","longitude":"-103.13604000"},{"id":"118554","name":"Holloman Air Force Base","state_id":1423,"state_code":"NM","country_id":233,"country_code":"US","latitude":"32.84827000","longitude":"-106.09977000"},{"id":"118822","name":"Hurley","state_id":1423,"state_code":"NM","country_id":233,"country_code":"US","latitude":"32.69924000","longitude":"-108.13199000"},{"id":"119110","name":"Jal","state_id":1423,"state_code":"NM","country_id":233,"country_code":"US","latitude":"32.11318000","longitude":"-103.19351000"},{"id":"119133","name":"Jarales","state_id":1423,"state_code":"NM","country_id":233,"country_code":"US","latitude":"34.61312000","longitude":"-106.76364000"},{"id":"119210","name":"Jemez Pueblo","state_id":1423,"state_code":"NM","country_id":233,"country_code":"US","latitude":"35.61422000","longitude":"-106.72832000"},{"id":"119419","name":"Keeler Farm","state_id":1423,"state_code":"NM","country_id":233,"country_code":"US","latitude":"32.31607000","longitude":"-107.76023000"},{"id":"119655","name":"Kirtland","state_id":1423,"state_code":"NM","country_id":233,"country_code":"US","latitude":"36.73417000","longitude":"-108.35980000"},{"id":"119739","name":"La Cienega","state_id":1423,"state_code":"NM","country_id":233,"country_code":"US","latitude":"35.56281000","longitude":"-106.13086000"},{"id":"119759","name":"La Huerta","state_id":1423,"state_code":"NM","country_id":233,"country_code":"US","latitude":"32.44290000","longitude":"-104.22106000"},{"id":"119763","name":"La Luz","state_id":1423,"state_code":"NM","country_id":233,"country_code":"US","latitude":"32.97787000","longitude":"-105.94193000"},{"id":"119766","name":"La Mesilla","state_id":1423,"state_code":"NM","country_id":233,"country_code":"US","latitude":"35.94836000","longitude":"-106.07058000"},{"id":"119781","name":"La Puebla","state_id":1423,"state_code":"NM","country_id":233,"country_code":"US","latitude":"35.98919000","longitude":"-105.99641000"},{"id":"119790","name":"La Union","state_id":1423,"state_code":"NM","country_id":233,"country_code":"US","latitude":"31.95066000","longitude":"-106.66166000"},{"id":"119850","name":"Laguna","state_id":1423,"state_code":"NM","country_id":233,"country_code":"US","latitude":"35.03671000","longitude":"-107.38282000"},{"id":"120155","name":"Las Cruces","state_id":1423,"state_code":"NM","country_id":233,"country_code":"US","latitude":"32.31232000","longitude":"-106.77834000"},{"id":"120159","name":"Las Maravillas","state_id":1423,"state_code":"NM","country_id":233,"country_code":"US","latitude":"34.73815000","longitude":"-106.66854000"},{"id":"120164","name":"Las Vegas","state_id":1423,"state_code":"NM","country_id":233,"country_code":"US","latitude":"35.59393000","longitude":"-105.22390000"},{"id":"120267","name":"Lea County","state_id":1423,"state_code":"NM","country_id":233,"country_code":"US","latitude":"32.79218000","longitude":"-103.41245000"},{"id":"120305","name":"Lee Acres","state_id":1423,"state_code":"NM","country_id":233,"country_code":"US","latitude":"35.14866000","longitude":"-106.64697000"},{"id":"120531","name":"Lincoln County","state_id":1423,"state_code":"NM","country_id":233,"country_code":"US","latitude":"33.74524000","longitude":"-105.45925000"},{"id":"120770","name":"Lordsburg","state_id":1423,"state_code":"NM","country_id":233,"country_code":"US","latitude":"32.35036000","longitude":"-108.70866000"},{"id":"120780","name":"Los Alamos","state_id":1423,"state_code":"NM","country_id":233,"country_code":"US","latitude":"35.88808000","longitude":"-106.30697000"},{"id":"120781","name":"Los Alamos County","state_id":1423,"state_code":"NM","country_id":233,"country_code":"US","latitude":"35.86937000","longitude":"-106.30729000"},{"id":"120787","name":"Los Chavez","state_id":1423,"state_code":"NM","country_id":233,"country_code":"US","latitude":"34.72571000","longitude":"-106.75726000"},{"id":"120791","name":"Los Lunas","state_id":1423,"state_code":"NM","country_id":233,"country_code":"US","latitude":"34.80617000","longitude":"-106.73336000"},{"id":"120795","name":"Los Ranchos de Albuquerque","state_id":1423,"state_code":"NM","country_id":233,"country_code":"US","latitude":"35.16199000","longitude":"-106.64280000"},{"id":"120828","name":"Loving","state_id":1423,"state_code":"NM","country_id":233,"country_code":"US","latitude":"32.28623000","longitude":"-104.09577000"},{"id":"120832","name":"Lovington","state_id":1423,"state_code":"NM","country_id":233,"country_code":"US","latitude":"32.94401000","longitude":"-103.34855000"},{"id":"120884","name":"Luna County","state_id":1423,"state_code":"NM","country_id":233,"country_code":"US","latitude":"32.18215000","longitude":"-107.74977000"},{"id":"121511","name":"McIntosh","state_id":1423,"state_code":"NM","country_id":233,"country_code":"US","latitude":"34.86478000","longitude":"-106.05169000"},{"id":"121522","name":"McKinley County","state_id":1423,"state_code":"NM","country_id":233,"country_code":"US","latitude":"35.58061000","longitude":"-108.26193000"},{"id":"121560","name":"Meadow Lake","state_id":1423,"state_code":"NM","country_id":233,"country_code":"US","latitude":"34.80144000","longitude":"-106.54363000"},{"id":"121724","name":"Mescalero","state_id":1423,"state_code":"NM","country_id":233,"country_code":"US","latitude":"33.15759000","longitude":"-105.77415000"},{"id":"121725","name":"Mesilla","state_id":1423,"state_code":"NM","country_id":233,"country_code":"US","latitude":"32.27009000","longitude":"-106.80084000"},{"id":"121728","name":"Mesquite","state_id":1423,"state_code":"NM","country_id":233,"country_code":"US","latitude":"32.16454000","longitude":"-106.69666000"},{"id":"121841","name":"Milan","state_id":1423,"state_code":"NM","country_id":233,"country_code":"US","latitude":"35.16976000","longitude":"-107.89089000"},{"id":"122123","name":"Monterey Park","state_id":1423,"state_code":"NM","country_id":233,"country_code":"US","latitude":"34.75898000","longitude":"-106.64085000"},{"id":"122219","name":"Mora","state_id":1423,"state_code":"NM","country_id":233,"country_code":"US","latitude":"35.97420000","longitude":"-105.33001000"},{"id":"122220","name":"Mora County","state_id":1423,"state_code":"NM","country_id":233,"country_code":"US","latitude":"36.00995000","longitude":"-104.94458000"},{"id":"122255","name":"Moriarty","state_id":1423,"state_code":"NM","country_id":233,"country_code":"US","latitude":"34.99005000","longitude":"-106.04919000"},{"id":"122306","name":"Mosquero","state_id":1423,"state_code":"NM","country_id":233,"country_code":"US","latitude":"35.77698000","longitude":"-103.95664000"},{"id":"122537","name":"Nambe","state_id":1423,"state_code":"NM","country_id":233,"country_code":"US","latitude":"35.89336000","longitude":"-105.98252000"},{"id":"122597","name":"Navajo","state_id":1423,"state_code":"NM","country_id":233,"country_code":"US","latitude":"35.90001000","longitude":"-109.03398000"},{"id":"123119","name":"North Valley","state_id":1423,"state_code":"NM","country_id":233,"country_code":"US","latitude":"35.17338000","longitude":"-106.62336000"},{"id":"123386","name":"Ohkay Owingeh","state_id":1423,"state_code":"NM","country_id":233,"country_code":"US","latitude":"36.05082000","longitude":"-106.06897000"},{"id":"123626","name":"Otero County","state_id":1423,"state_code":"NM","country_id":233,"country_code":"US","latitude":"32.61316000","longitude":"-105.74168000"},{"id":"123821","name":"Paradise Hills","state_id":1423,"state_code":"NM","country_id":233,"country_code":"US","latitude":"35.20060000","longitude":"-106.70114000"},{"id":"123979","name":"Pecos","state_id":1423,"state_code":"NM","country_id":233,"country_code":"US","latitude":"35.57420000","longitude":"-105.67502000"},{"id":"124057","name":"Peralta","state_id":1423,"state_code":"NM","country_id":233,"country_code":"US","latitude":"34.83700000","longitude":"-106.69058000"},{"id":"124314","name":"Placitas","state_id":1423,"state_code":"NM","country_id":233,"country_code":"US","latitude":"35.30698000","longitude":"-106.42475000"},{"id":"124436","name":"Pojoaque","state_id":1423,"state_code":"NM","country_id":233,"country_code":"US","latitude":"35.89280000","longitude":"-106.02308000"},{"id":"124471","name":"Ponderosa Pine","state_id":1423,"state_code":"NM","country_id":233,"country_code":"US","latitude":"34.97699000","longitude":"-106.32419000"},{"id":"124550","name":"Portales","state_id":1423,"state_code":"NM","country_id":233,"country_code":"US","latitude":"34.18619000","longitude":"-103.33440000"},{"id":"124784","name":"Quay County","state_id":1423,"state_code":"NM","country_id":233,"country_code":"US","latitude":"35.10436000","longitude":"-103.54974000"},{"id":"124794","name":"Questa","state_id":1423,"state_code":"NM","country_id":233,"country_code":"US","latitude":"36.70391000","longitude":"-105.59501000"},{"id":"124817","name":"Radium Springs","state_id":1423,"state_code":"NM","country_id":233,"country_code":"US","latitude":"32.50120000","longitude":"-106.92807000"},{"id":"124860","name":"Ranchos de Taos","state_id":1423,"state_code":"NM","country_id":233,"country_code":"US","latitude":"36.35864000","longitude":"-105.60946000"},{"id":"124901","name":"Raton","state_id":1423,"state_code":"NM","country_id":233,"country_code":"US","latitude":"36.90336000","longitude":"-104.43915000"},{"id":"125035","name":"Reserve","state_id":1423,"state_code":"NM","country_id":233,"country_code":"US","latitude":"33.71311000","longitude":"-108.75784000"},{"id":"125147","name":"Rio Arriba County","state_id":1423,"state_code":"NM","country_id":233,"country_code":"US","latitude":"36.50957000","longitude":"-106.69311000"},{"id":"125150","name":"Rio Communities","state_id":1423,"state_code":"NM","country_id":233,"country_code":"US","latitude":"34.64959000","longitude":"-106.73403000"},{"id":"125158","name":"Rio Rancho","state_id":1423,"state_code":"NM","country_id":233,"country_code":"US","latitude":"35.23338000","longitude":"-106.66447000"},{"id":"125393","name":"Roosevelt County","state_id":1423,"state_code":"NM","country_id":233,"country_code":"US","latitude":"34.02127000","longitude":"-103.48018000"},{"id":"125463","name":"Roswell","state_id":1423,"state_code":"NM","country_id":233,"country_code":"US","latitude":"33.39437000","longitude":"-104.52491000"},{"id":"125504","name":"Ruidoso","state_id":1423,"state_code":"NM","country_id":233,"country_code":"US","latitude":"33.33175000","longitude":"-105.67304000"},{"id":"125505","name":"Ruidoso Downs","state_id":1423,"state_code":"NM","country_id":233,"country_code":"US","latitude":"33.32897000","longitude":"-105.60443000"},{"id":"125807","name":"San Felipe Pueblo","state_id":1423,"state_code":"NM","country_id":233,"country_code":"US","latitude":"35.43392000","longitude":"-106.44669000"},{"id":"125821","name":"San Juan County","state_id":1423,"state_code":"NM","country_id":233,"country_code":"US","latitude":"36.50847000","longitude":"-108.32060000"},{"id":"125839","name":"San Miguel","state_id":1423,"state_code":"NM","country_id":233,"country_code":"US","latitude":"32.15538000","longitude":"-106.73500000"},{"id":"125841","name":"San Miguel County","state_id":1423,"state_code":"NM","country_id":233,"country_code":"US","latitude":"35.48029000","longitude":"-104.81585000"},{"id":"125851","name":"San Ysidro","state_id":1423,"state_code":"NM","country_id":233,"country_code":"US","latitude":"32.35093000","longitude":"-106.81112000"},{"id":"125866","name":"Sandia Heights","state_id":1423,"state_code":"NM","country_id":233,"country_code":"US","latitude":"35.17699000","longitude":"-106.49141000"},{"id":"125867","name":"Sandia Knolls","state_id":1423,"state_code":"NM","country_id":233,"country_code":"US","latitude":"35.16393000","longitude":"-106.31141000"},{"id":"125869","name":"Sandoval County","state_id":1423,"state_code":"NM","country_id":233,"country_code":"US","latitude":"35.68855000","longitude":"-106.86584000"},{"id":"125904","name":"Santa Clara","state_id":1423,"state_code":"NM","country_id":233,"country_code":"US","latitude":"32.77952000","longitude":"-108.15032000"},{"id":"125907","name":"Santa Clara Pueblo","state_id":1423,"state_code":"NM","country_id":233,"country_code":"US","latitude":"35.96558000","longitude":"-106.08863000"},{"id":"125914","name":"Santa Fe","state_id":1423,"state_code":"NM","country_id":233,"country_code":"US","latitude":"35.68698000","longitude":"-105.93780000"},{"id":"125915","name":"Santa Fe County","state_id":1423,"state_code":"NM","country_id":233,"country_code":"US","latitude":"35.50686000","longitude":"-105.97612000"},{"id":"125923","name":"Santa Rosa","state_id":1423,"state_code":"NM","country_id":233,"country_code":"US","latitude":"34.93867000","longitude":"-104.68249000"},{"id":"125926","name":"Santa Teresa","state_id":1423,"state_code":"NM","country_id":233,"country_code":"US","latitude":"31.85594000","longitude":"-106.63916000"},{"id":"125931","name":"Santo Domingo Pueblo","state_id":1423,"state_code":"NM","country_id":233,"country_code":"US","latitude":"35.51476000","longitude":"-106.36586000"},{"id":"126358","name":"Shiprock","state_id":1423,"state_code":"NM","country_id":233,"country_code":"US","latitude":"36.78555000","longitude":"-108.68703000"},{"id":"126403","name":"Sierra County","state_id":1423,"state_code":"NM","country_id":233,"country_code":"US","latitude":"33.13047000","longitude":"-107.19250000"},{"id":"126422","name":"Silver City","state_id":1423,"state_code":"NM","country_id":233,"country_code":"US","latitude":"32.77007000","longitude":"-108.28033000"},{"id":"126488","name":"Skyline-Ganipa","state_id":1423,"state_code":"NM","country_id":233,"country_code":"US","latitude":"35.03279000","longitude":"-107.61396000"},{"id":"126557","name":"Socorro","state_id":1423,"state_code":"NM","country_id":233,"country_code":"US","latitude":"34.05840000","longitude":"-106.89142000"},{"id":"126559","name":"Socorro County","state_id":1423,"state_code":"NM","country_id":233,"country_code":"US","latitude":"34.00724000","longitude":"-106.93033000"},{"id":"126740","name":"South Valley","state_id":1423,"state_code":"NM","country_id":233,"country_code":"US","latitude":"35.01005000","longitude":"-106.67808000"},{"id":"126832","name":"Spencerville","state_id":1423,"state_code":"NM","country_id":233,"country_code":"US","latitude":"36.82000000","longitude":"-108.05813000"},{"id":"127254","name":"Sunland Park","state_id":1423,"state_code":"NM","country_id":233,"country_code":"US","latitude":"31.79650000","longitude":"-106.57999000"},{"id":"127422","name":"Taos","state_id":1423,"state_code":"NM","country_id":233,"country_code":"US","latitude":"36.40725000","longitude":"-105.57307000"},{"id":"127423","name":"Taos County","state_id":1423,"state_code":"NM","country_id":233,"country_code":"US","latitude":"36.57830000","longitude":"-105.63097000"},{"id":"127424","name":"Taos Pueblo","state_id":1423,"state_code":"NM","country_id":233,"country_code":"US","latitude":"36.43864000","longitude":"-105.54445000"},{"id":"127549","name":"Texico","state_id":1423,"state_code":"NM","country_id":233,"country_code":"US","latitude":"34.38869000","longitude":"-103.05134000"},{"id":"127598","name":"Thoreau","state_id":1423,"state_code":"NM","country_id":233,"country_code":"US","latitude":"35.40253000","longitude":"-108.22340000"},{"id":"127636","name":"Tierra Amarilla","state_id":1423,"state_code":"NM","country_id":233,"country_code":"US","latitude":"36.70029000","longitude":"-106.54976000"},{"id":"127712","name":"Tome","state_id":1423,"state_code":"NM","country_id":233,"country_code":"US","latitude":"34.74089000","longitude":"-106.72836000"},{"id":"127743","name":"Torrance County","state_id":1423,"state_code":"NM","country_id":233,"country_code":"US","latitude":"34.64047000","longitude":"-105.85078000"},{"id":"127861","name":"Truth or Consequences","state_id":1423,"state_code":"NM","country_id":233,"country_code":"US","latitude":"33.12840000","longitude":"-107.25281000"},{"id":"127876","name":"Tucumcari","state_id":1423,"state_code":"NM","country_id":233,"country_code":"US","latitude":"35.17191000","longitude":"-103.72686000"},{"id":"127884","name":"Tularosa","state_id":1423,"state_code":"NM","country_id":233,"country_code":"US","latitude":"33.07397000","longitude":"-106.01860000"},{"id":"127932","name":"Twin Lakes","state_id":1423,"state_code":"NM","country_id":233,"country_code":"US","latitude":"35.70919000","longitude":"-108.77481000"},{"id":"128002","name":"Union County","state_id":1423,"state_code":"NM","country_id":233,"country_code":"US","latitude":"36.48176000","longitude":"-103.47099000"},{"id":"128034","name":"University Park","state_id":1423,"state_code":"NM","country_id":233,"country_code":"US","latitude":"32.28343000","longitude":"-106.75334000"},{"id":"128043","name":"Upper Fruitland","state_id":1423,"state_code":"NM","country_id":233,"country_code":"US","latitude":"36.71584000","longitude":"-108.31424000"},{"id":"128074","name":"Vado","state_id":1423,"state_code":"NM","country_id":233,"country_code":"US","latitude":"32.11176000","longitude":"-106.66250000"},{"id":"128088","name":"Valencia","state_id":1423,"state_code":"NM","country_id":233,"country_code":"US","latitude":"34.79950000","longitude":"-106.70030000"},{"id":"128089","name":"Valencia County","state_id":1423,"state_code":"NM","country_id":233,"country_code":"US","latitude":"34.71545000","longitude":"-106.80911000"},{"id":"128604","name":"Waterflow","state_id":1423,"state_code":"NM","country_id":233,"country_code":"US","latitude":"36.75972000","longitude":"-108.48175000"},{"id":"128884","name":"West Hammond","state_id":1423,"state_code":"NM","country_id":233,"country_code":"US","latitude":"36.68071000","longitude":"-108.04921000"},{"id":"129158","name":"White Rock","state_id":1423,"state_code":"NM","country_id":233,"country_code":"US","latitude":"35.82753000","longitude":"-106.20391000"},{"id":"129160","name":"White Sands","state_id":1423,"state_code":"NM","country_id":233,"country_code":"US","latitude":"32.38093000","longitude":"-106.47944000"},{"id":"129762","name":"Zuni Pueblo","state_id":1423,"state_code":"NM","country_id":233,"country_code":"US","latitude":"35.07253000","longitude":"-108.85064000"}]