[{"id":"111137","name":"Alderson","state_id":1429,"state_code":"WV","country_id":233,"country_code":"US","latitude":"37.72595000","longitude":"-80.64202000"},{"id":"111253","name":"Alum Creek","state_id":1429,"state_code":"WV","country_id":233,"country_code":"US","latitude":"38.28676000","longitude":"-81.80513000"},{"id":"111363","name":"Ansted","state_id":1429,"state_code":"WV","country_id":233,"country_code":"US","latitude":"38.13622000","longitude":"-81.09955000"},{"id":"111814","name":"Barbour County","state_id":1429,"state_code":"WV","country_id":233,"country_code":"US","latitude":"39.13293000","longitude":"-80.00303000"},{"id":"111817","name":"Barboursville","state_id":1429,"state_code":"WV","country_id":233,"country_code":"US","latitude":"38.40953000","longitude":"-82.29459000"},{"id":"111840","name":"Barrackville","state_id":1429,"state_code":"WV","country_id":233,"country_code":"US","latitude":"39.50370000","longitude":"-80.16675000"},{"id":"111992","name":"Beaver","state_id":1429,"state_code":"WV","country_id":233,"country_code":"US","latitude":"37.74781000","longitude":"-81.14352000"},{"id":"112017","name":"Beckley","state_id":1429,"state_code":"WV","country_id":233,"country_code":"US","latitude":"37.77817000","longitude":"-81.18816000"},{"id":"112064","name":"Belington","state_id":1429,"state_code":"WV","country_id":233,"country_code":"US","latitude":"39.02510000","longitude":"-79.93563000"},{"id":"112079","name":"Belle","state_id":1429,"state_code":"WV","country_id":233,"country_code":"US","latitude":"38.23205000","longitude":"-81.53762000"},{"id":"112211","name":"Benwood","state_id":1429,"state_code":"WV","country_id":233,"country_code":"US","latitude":"40.01813000","longitude":"-80.73425000"},{"id":"112225","name":"Berkeley County","state_id":1429,"state_code":"WV","country_id":233,"country_code":"US","latitude":"39.46407000","longitude":"-78.02754000"},{"id":"112228","name":"Berkeley Springs","state_id":1429,"state_code":"WV","country_id":233,"country_code":"US","latitude":"39.62480000","longitude":"-78.22472000"},{"id":"112275","name":"Bethany","state_id":1429,"state_code":"WV","country_id":233,"country_code":"US","latitude":"40.20563000","longitude":"-80.55674000"},{"id":"112290","name":"Bethlehem","state_id":1429,"state_code":"WV","country_id":233,"country_code":"US","latitude":"39.39203000","longitude":"-80.28064000"},{"id":"112429","name":"Blennerhassett","state_id":1429,"state_code":"WV","country_id":233,"country_code":"US","latitude":"39.26369000","longitude":"-81.62929000"},{"id":"112479","name":"Bluefield","state_id":1429,"state_code":"WV","country_id":233,"country_code":"US","latitude":"37.26984000","longitude":"-81.22232000"},{"id":"112480","name":"Bluewell","state_id":1429,"state_code":"WV","country_id":233,"country_code":"US","latitude":"37.31262000","longitude":"-81.25982000"},{"id":"112491","name":"Boaz","state_id":1429,"state_code":"WV","country_id":233,"country_code":"US","latitude":"39.36146000","longitude":"-81.50207000"},{"id":"112519","name":"Bolivar","state_id":1429,"state_code":"WV","country_id":233,"country_code":"US","latitude":"39.32343000","longitude":"-77.75277000"},{"id":"112557","name":"Boone County","state_id":1429,"state_code":"WV","country_id":233,"country_code":"US","latitude":"38.02300000","longitude":"-81.71121000"},{"id":"112671","name":"Bradley","state_id":1429,"state_code":"WV","country_id":233,"country_code":"US","latitude":"37.86539000","longitude":"-81.19399000"},{"id":"112701","name":"Braxton County","state_id":1429,"state_code":"WV","country_id":233,"country_code":"US","latitude":"38.69987000","longitude":"-80.71929000"},{"id":"112760","name":"Bridgeport","state_id":1429,"state_code":"WV","country_id":233,"country_code":"US","latitude":"39.28648000","longitude":"-80.25620000"},{"id":"112852","name":"Brooke County","state_id":1429,"state_code":"WV","country_id":233,"country_code":"US","latitude":"40.27381000","longitude":"-80.57642000"},{"id":"112859","name":"Brookhaven","state_id":1429,"state_code":"WV","country_id":233,"country_code":"US","latitude":"39.61175000","longitude":"-79.90451000"},{"id":"112954","name":"Brush Fork","state_id":1429,"state_code":"WV","country_id":233,"country_code":"US","latitude":"37.28095000","longitude":"-81.25593000"},{"id":"112981","name":"Buckhannon","state_id":1429,"state_code":"WV","country_id":233,"country_code":"US","latitude":"38.99399000","longitude":"-80.23203000"},{"id":"113011","name":"Buffalo","state_id":1429,"state_code":"WV","country_id":233,"country_code":"US","latitude":"38.61759000","longitude":"-81.98180000"},{"id":"113151","name":"Cabell County","state_id":1429,"state_code":"WV","country_id":233,"country_code":"US","latitude":"38.42030000","longitude":"-82.24172000"},{"id":"113208","name":"Calhoun County","state_id":1429,"state_code":"WV","country_id":233,"country_code":"US","latitude":"38.84450000","longitude":"-81.11757000"},{"id":"113699","name":"Ceredo","state_id":1429,"state_code":"WV","country_id":233,"country_code":"US","latitude":"38.39647000","longitude":"-82.55877000"},{"id":"113745","name":"Chapmanville","state_id":1429,"state_code":"WV","country_id":233,"country_code":"US","latitude":"37.97371000","longitude":"-82.01735000"},{"id":"113759","name":"Charles Town","state_id":1429,"state_code":"WV","country_id":233,"country_code":"US","latitude":"39.28899000","longitude":"-77.85972000"},{"id":"113766","name":"Charleston","state_id":1429,"state_code":"WV","country_id":233,"country_code":"US","latitude":"38.34982000","longitude":"-81.63262000"},{"id":"113818","name":"Cheat Lake","state_id":1429,"state_code":"WV","country_id":233,"country_code":"US","latitude":"39.67202000","longitude":"-79.85339000"},{"id":"113873","name":"Chesapeake","state_id":1429,"state_code":"WV","country_id":233,"country_code":"US","latitude":"38.22344000","longitude":"-81.53623000"},{"id":"113890","name":"Chester","state_id":1429,"state_code":"WV","country_id":233,"country_code":"US","latitude":"40.61312000","longitude":"-80.56285000"},{"id":"114144","name":"Clarksburg","state_id":1429,"state_code":"WV","country_id":233,"country_code":"US","latitude":"39.28065000","longitude":"-80.34453000"},{"id":"114167","name":"Clay","state_id":1429,"state_code":"WV","country_id":233,"country_code":"US","latitude":"38.46038000","longitude":"-81.08511000"},{"id":"114186","name":"Clay County","state_id":1429,"state_code":"WV","country_id":233,"country_code":"US","latitude":"38.46253000","longitude":"-81.07509000"},{"id":"114235","name":"Clendenin","state_id":1429,"state_code":"WV","country_id":233,"country_code":"US","latitude":"38.48871000","longitude":"-81.34817000"},{"id":"114326","name":"Coal City","state_id":1429,"state_code":"WV","country_id":233,"country_code":"US","latitude":"37.67900000","longitude":"-81.21038000"},{"id":"114330","name":"Coal Fork","state_id":1429,"state_code":"WV","country_id":233,"country_code":"US","latitude":"38.31760000","longitude":"-81.52095000"},{"id":"114753","name":"Crab Orchard","state_id":1429,"state_code":"WV","country_id":233,"country_code":"US","latitude":"37.74067000","longitude":"-81.23066000"},{"id":"114760","name":"Craigsville","state_id":1429,"state_code":"WV","country_id":233,"country_code":"US","latitude":"38.33067000","longitude":"-80.65315000"},{"id":"114850","name":"Cross Lanes","state_id":1429,"state_code":"WV","country_id":233,"country_code":"US","latitude":"38.42037000","longitude":"-81.79068000"},{"id":"114897","name":"Culloden","state_id":1429,"state_code":"WV","country_id":233,"country_code":"US","latitude":"38.42009000","longitude":"-82.05542000"},{"id":"115023","name":"Daniels","state_id":1429,"state_code":"WV","country_id":233,"country_code":"US","latitude":"37.74327000","longitude":"-81.12408000"},{"id":"115288","name":"Despard","state_id":1429,"state_code":"WV","country_id":233,"country_code":"US","latitude":"39.28870000","longitude":"-80.30592000"},{"id":"115374","name":"Doddridge County","state_id":1429,"state_code":"WV","country_id":233,"country_code":"US","latitude":"39.26917000","longitude":"-80.70697000"},{"id":"115520","name":"Dunbar","state_id":1429,"state_code":"WV","country_id":233,"country_code":"US","latitude":"38.36065000","longitude":"-81.73735000"},{"id":"115958","name":"Eleanor","state_id":1429,"state_code":"WV","country_id":233,"country_code":"US","latitude":"38.53759000","longitude":"-81.93236000"},{"id":"115971","name":"Elizabeth","state_id":1429,"state_code":"WV","country_id":233,"country_code":"US","latitude":"39.06341000","longitude":"-81.39512000"},{"id":"116006","name":"Elkins","state_id":1429,"state_code":"WV","country_id":233,"country_code":"US","latitude":"38.92594000","longitude":"-79.84673000"},{"id":"116015","name":"Elkview","state_id":1429,"state_code":"WV","country_id":233,"country_code":"US","latitude":"38.44288000","longitude":"-81.48040000"},{"id":"116331","name":"Fairlea","state_id":1429,"state_code":"WV","country_id":233,"country_code":"US","latitude":"37.78068000","longitude":"-80.45702000"},{"id":"116335","name":"Fairmont","state_id":1429,"state_code":"WV","country_id":233,"country_code":"US","latitude":"39.48508000","longitude":"-80.14258000"},{"id":"116450","name":"Fayette County","state_id":1429,"state_code":"WV","country_id":233,"country_code":"US","latitude":"38.02878000","longitude":"-81.08119000"},{"id":"116459","name":"Fayetteville","state_id":1429,"state_code":"WV","country_id":233,"country_code":"US","latitude":"38.05289000","longitude":"-81.10399000"},{"id":"116622","name":"Follansbee","state_id":1429,"state_code":"WV","country_id":233,"country_code":"US","latitude":"40.32757000","longitude":"-80.59591000"},{"id":"116688","name":"Fort Ashby","state_id":1429,"state_code":"WV","country_id":233,"country_code":"US","latitude":"39.50315000","longitude":"-78.76863000"},{"id":"116832","name":"Franklin","state_id":1429,"state_code":"WV","country_id":233,"country_code":"US","latitude":"38.64289000","longitude":"-79.33115000"},{"id":"117205","name":"Gilbert Creek","state_id":1429,"state_code":"WV","country_id":233,"country_code":"US","latitude":"37.57594000","longitude":"-81.89484000"},{"id":"117223","name":"Gilmer County","state_id":1429,"state_code":"WV","country_id":233,"country_code":"US","latitude":"38.92406000","longitude":"-80.85708000"},{"id":"117282","name":"Glendale","state_id":1429,"state_code":"WV","country_id":233,"country_code":"US","latitude":"39.94924000","longitude":"-80.75425000"},{"id":"117310","name":"Glenville","state_id":1429,"state_code":"WV","country_id":233,"country_code":"US","latitude":"38.93426000","longitude":"-80.83760000"},{"id":"117428","name":"Grafton","state_id":1429,"state_code":"WV","country_id":233,"country_code":"US","latitude":"39.34092000","longitude":"-80.01897000"},{"id":"117511","name":"Grant County","state_id":1429,"state_code":"WV","country_id":233,"country_code":"US","latitude":"39.10513000","longitude":"-79.19557000"},{"id":"117530","name":"Grantsville","state_id":1429,"state_code":"WV","country_id":233,"country_code":"US","latitude":"38.92342000","longitude":"-81.09595000"},{"id":"117533","name":"Granville","state_id":1429,"state_code":"WV","country_id":233,"country_code":"US","latitude":"39.64591000","longitude":"-79.98729000"},{"id":"117621","name":"Greenbrier County","state_id":1429,"state_code":"WV","country_id":233,"country_code":"US","latitude":"37.94693000","longitude":"-80.45295000"},{"id":"117908","name":"Hamlin","state_id":1429,"state_code":"WV","country_id":233,"country_code":"US","latitude":"38.27870000","longitude":"-82.10292000"},{"id":"117921","name":"Hampshire County","state_id":1429,"state_code":"WV","country_id":233,"country_code":"US","latitude":"39.31707000","longitude":"-78.61417000"},{"id":"117958","name":"Hancock County","state_id":1429,"state_code":"WV","country_id":233,"country_code":"US","latitude":"40.52185000","longitude":"-80.57389000"},{"id":"118011","name":"Hardy County","state_id":1429,"state_code":"WV","country_id":233,"country_code":"US","latitude":"39.00750000","longitude":"-78.85792000"},{"id":"118066","name":"Harrison County","state_id":1429,"state_code":"WV","country_id":233,"country_code":"US","latitude":"39.28353000","longitude":"-80.37987000"},{"id":"118073","name":"Harrisville","state_id":1429,"state_code":"WV","country_id":233,"country_code":"US","latitude":"39.20952000","longitude":"-81.05178000"},{"id":"118489","name":"Hinton","state_id":1429,"state_code":"WV","country_id":233,"country_code":"US","latitude":"37.67401000","longitude":"-80.88925000"},{"id":"118639","name":"Hooverson Heights","state_id":1429,"state_code":"WV","country_id":233,"country_code":"US","latitude":"40.32479000","longitude":"-80.57757000"},{"id":"118800","name":"Huntington","state_id":1429,"state_code":"WV","country_id":233,"country_code":"US","latitude":"38.41925000","longitude":"-82.44515000"},{"id":"118827","name":"Hurricane","state_id":1429,"state_code":"WV","country_id":233,"country_code":"US","latitude":"38.43259000","longitude":"-82.02014000"},{"id":"118962","name":"Inwood","state_id":1429,"state_code":"WV","country_id":233,"country_code":"US","latitude":"39.35788000","longitude":"-78.04000000"},{"id":"119089","name":"Jackson County","state_id":1429,"state_code":"WV","country_id":233,"country_code":"US","latitude":"38.83447000","longitude":"-81.67479000"},{"id":"119188","name":"Jefferson County","state_id":1429,"state_code":"WV","country_id":233,"country_code":"US","latitude":"39.30762000","longitude":"-77.86274000"},{"id":"119374","name":"Kanawha County","state_id":1429,"state_code":"WV","country_id":233,"country_code":"US","latitude":"38.33657000","longitude":"-81.52812000"},{"id":"119478","name":"Kenova","state_id":1429,"state_code":"WV","country_id":233,"country_code":"US","latitude":"38.39897000","longitude":"-82.57821000"},{"id":"119545","name":"Keyser","state_id":1429,"state_code":"WV","country_id":233,"country_code":"US","latitude":"39.44093000","longitude":"-78.97392000"},{"id":"119637","name":"Kingwood","state_id":1429,"state_code":"WV","country_id":233,"country_code":"US","latitude":"39.47176000","longitude":"-79.68339000"},{"id":"120215","name":"Lavalette","state_id":1429,"state_code":"WV","country_id":233,"country_code":"US","latitude":"38.32286000","longitude":"-82.44682000"},{"id":"120395","name":"Lesage","state_id":1429,"state_code":"WV","country_id":233,"country_code":"US","latitude":"38.50647000","longitude":"-82.29848000"},{"id":"120413","name":"Lewis County","state_id":1429,"state_code":"WV","country_id":233,"country_code":"US","latitude":"38.99587000","longitude":"-80.50216000"},{"id":"120420","name":"Lewisburg","state_id":1429,"state_code":"WV","country_id":233,"country_code":"US","latitude":"37.80179000","longitude":"-80.44563000"},{"id":"120525","name":"Lincoln County","state_id":1429,"state_code":"WV","country_id":233,"country_code":"US","latitude":"38.17536000","longitude":"-82.07039000"},{"id":"120693","name":"Logan","state_id":1429,"state_code":"WV","country_id":233,"country_code":"US","latitude":"37.84871000","longitude":"-81.99346000"},{"id":"120699","name":"Logan County","state_id":1429,"state_code":"WV","country_id":233,"country_code":"US","latitude":"37.83153000","longitude":"-81.93534000"},{"id":"120858","name":"Lubeck","state_id":1429,"state_code":"WV","country_id":233,"country_code":"US","latitude":"39.23535000","longitude":"-81.63124000"},{"id":"120950","name":"Mabscott","state_id":1429,"state_code":"WV","country_id":233,"country_code":"US","latitude":"37.77095000","longitude":"-81.20843000"},{"id":"120952","name":"MacArthur","state_id":1429,"state_code":"WV","country_id":233,"country_code":"US","latitude":"37.75845000","longitude":"-81.21260000"},{"id":"120993","name":"Madison","state_id":1429,"state_code":"WV","country_id":233,"country_code":"US","latitude":"38.06705000","longitude":"-81.81929000"},{"id":"121063","name":"Mallory","state_id":1429,"state_code":"WV","country_id":233,"country_code":"US","latitude":"37.73066000","longitude":"-81.83790000"},{"id":"121137","name":"Mannington","state_id":1429,"state_code":"WV","country_id":233,"country_code":"US","latitude":"39.53092000","longitude":"-80.34342000"},{"id":"121260","name":"Marion County","state_id":1429,"state_code":"WV","country_id":233,"country_code":"US","latitude":"39.51000000","longitude":"-80.24340000"},{"id":"121284","name":"Marlinton","state_id":1429,"state_code":"WV","country_id":233,"country_code":"US","latitude":"38.22345000","longitude":"-80.09451000"},{"id":"121290","name":"Marmet","state_id":1429,"state_code":"WV","country_id":233,"country_code":"US","latitude":"38.24538000","longitude":"-81.56706000"},{"id":"121316","name":"Marshall County","state_id":1429,"state_code":"WV","country_id":233,"country_code":"US","latitude":"39.86061000","longitude":"-80.66339000"},{"id":"121346","name":"Martinsburg","state_id":1429,"state_code":"WV","country_id":233,"country_code":"US","latitude":"39.45621000","longitude":"-77.96389000"},{"id":"121379","name":"Mason County","state_id":1429,"state_code":"WV","country_id":233,"country_code":"US","latitude":"38.76974000","longitude":"-82.02654000"},{"id":"121496","name":"McDowell County","state_id":1429,"state_code":"WV","country_id":233,"country_code":"US","latitude":"37.37850000","longitude":"-81.65358000"},{"id":"121537","name":"McMechen","state_id":1429,"state_code":"WV","country_id":233,"country_code":"US","latitude":"39.98813000","longitude":"-80.73147000"},{"id":"121676","name":"Mercer County","state_id":1429,"state_code":"WV","country_id":233,"country_code":"US","latitude":"37.40552000","longitude":"-81.11144000"},{"id":"121767","name":"Middlebourne","state_id":1429,"state_code":"WV","country_id":233,"country_code":"US","latitude":"39.49230000","longitude":"-80.90372000"},{"id":"121914","name":"Milton","state_id":1429,"state_code":"WV","country_id":233,"country_code":"US","latitude":"38.43453000","longitude":"-82.13236000"},{"id":"121934","name":"Mineral County","state_id":1429,"state_code":"WV","country_id":233,"country_code":"US","latitude":"39.41472000","longitude":"-78.94375000"},{"id":"121942","name":"Mineral Wells","state_id":1429,"state_code":"WV","country_id":233,"country_code":"US","latitude":"39.19035000","longitude":"-81.53207000"},{"id":"121946","name":"Mingo County","state_id":1429,"state_code":"WV","country_id":233,"country_code":"US","latitude":"37.72640000","longitude":"-82.13476000"},{"id":"122054","name":"Monongah","state_id":1429,"state_code":"WV","country_id":233,"country_code":"US","latitude":"39.46258000","longitude":"-80.21814000"},{"id":"122056","name":"Monongalia County","state_id":1429,"state_code":"WV","country_id":233,"country_code":"US","latitude":"39.63028000","longitude":"-80.04654000"},{"id":"122077","name":"Monroe County","state_id":1429,"state_code":"WV","country_id":233,"country_code":"US","latitude":"37.56037000","longitude":"-80.55055000"},{"id":"122132","name":"Montgomery","state_id":1429,"state_code":"WV","country_id":233,"country_code":"US","latitude":"38.18038000","longitude":"-81.32845000"},{"id":"122205","name":"Moorefield","state_id":1429,"state_code":"WV","country_id":233,"country_code":"US","latitude":"39.06233000","longitude":"-78.96947000"},{"id":"122243","name":"Morgan County","state_id":1429,"state_code":"WV","country_id":233,"country_code":"US","latitude":"39.56043000","longitude":"-78.25773000"},{"id":"122253","name":"Morgantown","state_id":1429,"state_code":"WV","country_id":233,"country_code":"US","latitude":"39.62953000","longitude":"-79.95590000"},{"id":"122327","name":"Moundsville","state_id":1429,"state_code":"WV","country_id":233,"country_code":"US","latitude":"39.92035000","longitude":"-80.74314000"},{"id":"122343","name":"Mount Gay-Shamrock","state_id":1429,"state_code":"WV","country_id":233,"country_code":"US","latitude":"37.83857000","longitude":"-82.02970000"},{"id":"122353","name":"Mount Hope","state_id":1429,"state_code":"WV","country_id":233,"country_code":"US","latitude":"37.89539000","longitude":"-81.16427000"},{"id":"122460","name":"Mullens","state_id":1429,"state_code":"WV","country_id":233,"country_code":"US","latitude":"37.58317000","longitude":"-81.38038000"},{"id":"122698","name":"New Cumberland","state_id":1429,"state_code":"WV","country_id":233,"country_code":"US","latitude":"40.49673000","longitude":"-80.60674000"},{"id":"122715","name":"New Haven","state_id":1429,"state_code":"WV","country_id":233,"country_code":"US","latitude":"38.98647000","longitude":"-81.97347000"},{"id":"122753","name":"New Martinsville","state_id":1429,"state_code":"WV","country_id":233,"country_code":"US","latitude":"39.64452000","longitude":"-80.85760000"},{"id":"122824","name":"Newell","state_id":1429,"state_code":"WV","country_id":233,"country_code":"US","latitude":"40.61840000","longitude":"-80.60424000"},{"id":"122888","name":"Nicholas County","state_id":1429,"state_code":"WV","country_id":233,"country_code":"US","latitude":"38.29170000","longitude":"-80.79933000"},{"id":"122909","name":"Nitro","state_id":1429,"state_code":"WV","country_id":233,"country_code":"US","latitude":"38.41481000","longitude":"-81.84402000"},{"id":"123220","name":"Nutter Fort","state_id":1429,"state_code":"WV","country_id":233,"country_code":"US","latitude":"39.26342000","longitude":"-80.31981000"},{"id":"123245","name":"Oak Hill","state_id":1429,"state_code":"WV","country_id":233,"country_code":"US","latitude":"37.97233000","longitude":"-81.14871000"},{"id":"123339","name":"Oceana","state_id":1429,"state_code":"WV","country_id":233,"country_code":"US","latitude":"37.69206000","longitude":"-81.62400000"},{"id":"123384","name":"Ohio County","state_id":1429,"state_code":"WV","country_id":233,"country_code":"US","latitude":"40.09692000","longitude":"-80.61906000"},{"id":"123714","name":"Paden City","state_id":1429,"state_code":"WV","country_id":233,"country_code":"US","latitude":"39.60285000","longitude":"-80.93677000"},{"id":"123868","name":"Parkersburg","state_id":1429,"state_code":"WV","country_id":233,"country_code":"US","latitude":"39.26674000","longitude":"-81.56151000"},{"id":"123893","name":"Parsons","state_id":1429,"state_code":"WV","country_id":233,"country_code":"US","latitude":"39.09649000","longitude":"-79.68090000"},{"id":"123952","name":"Pea Ridge","state_id":1429,"state_code":"WV","country_id":233,"country_code":"US","latitude":"38.41397000","longitude":"-82.31987000"},{"id":"124020","name":"Pendleton County","state_id":1429,"state_code":"WV","country_id":233,"country_code":"US","latitude":"38.68073000","longitude":"-79.35089000"},{"id":"124035","name":"Pennsboro","state_id":1429,"state_code":"WV","country_id":233,"country_code":"US","latitude":"39.28508000","longitude":"-80.96844000"},{"id":"124104","name":"Petersburg","state_id":1429,"state_code":"WV","country_id":233,"country_code":"US","latitude":"38.99261000","longitude":"-79.12392000"},{"id":"124130","name":"Philippi","state_id":1429,"state_code":"WV","country_id":233,"country_code":"US","latitude":"39.15232000","longitude":"-80.04036000"},{"id":"124208","name":"Pinch","state_id":1429,"state_code":"WV","country_id":233,"country_code":"US","latitude":"38.40871000","longitude":"-81.48179000"},{"id":"124263","name":"Pineville","state_id":1429,"state_code":"WV","country_id":233,"country_code":"US","latitude":"37.58317000","longitude":"-81.53705000"},{"id":"124378","name":"Pleasant Valley","state_id":1429,"state_code":"WV","country_id":233,"country_code":"US","latitude":"39.45536000","longitude":"-80.14175000"},{"id":"124385","name":"Pleasants County","state_id":1429,"state_code":"WV","country_id":233,"country_code":"US","latitude":"39.37094000","longitude":"-81.16063000"},{"id":"124415","name":"Pocahontas County","state_id":1429,"state_code":"WV","country_id":233,"country_code":"US","latitude":"38.33180000","longitude":"-80.00775000"},{"id":"124430","name":"Point Pleasant","state_id":1429,"state_code":"WV","country_id":233,"country_code":"US","latitude":"38.84453000","longitude":"-82.13709000"},{"id":"124659","name":"Preston County","state_id":1429,"state_code":"WV","country_id":233,"country_code":"US","latitude":"39.46930000","longitude":"-79.66816000"},{"id":"124685","name":"Princeton","state_id":1429,"state_code":"WV","country_id":233,"country_code":"US","latitude":"37.36623000","longitude":"-81.10259000"},{"id":"124713","name":"Prosperity","state_id":1429,"state_code":"WV","country_id":233,"country_code":"US","latitude":"37.83650000","longitude":"-81.20177000"},{"id":"124765","name":"Putnam County","state_id":1429,"state_code":"WV","country_id":233,"country_code":"US","latitude":"38.50862000","longitude":"-81.90899000"},{"id":"124825","name":"Rainelle","state_id":1429,"state_code":"WV","country_id":233,"country_code":"US","latitude":"37.96873000","longitude":"-80.76703000"},{"id":"124832","name":"Raleigh County","state_id":1429,"state_code":"WV","country_id":233,"country_code":"US","latitude":"37.77136000","longitude":"-81.24863000"},{"id":"124861","name":"Rand","state_id":1429,"state_code":"WV","country_id":233,"country_code":"US","latitude":"38.28260000","longitude":"-81.56234000"},{"id":"124878","name":"Randolph County","state_id":1429,"state_code":"WV","country_id":233,"country_code":"US","latitude":"38.77472000","longitude":"-79.87580000"},{"id":"124890","name":"Ranson","state_id":1429,"state_code":"WV","country_id":233,"country_code":"US","latitude":"39.29510000","longitude":"-77.86055000"},{"id":"124910","name":"Ravenswood","state_id":1429,"state_code":"WV","country_id":233,"country_code":"US","latitude":"38.94814000","longitude":"-81.76096000"},{"id":"125112","name":"Richwood","state_id":1429,"state_code":"WV","country_id":233,"country_code":"US","latitude":"38.22484000","longitude":"-80.53314000"},{"id":"125164","name":"Ripley","state_id":1429,"state_code":"WV","country_id":233,"country_code":"US","latitude":"38.81870000","longitude":"-81.71069000"},{"id":"125173","name":"Ritchie County","state_id":1429,"state_code":"WV","country_id":233,"country_code":"US","latitude":"39.17827000","longitude":"-81.06295000"},{"id":"125225","name":"Roane County","state_id":1429,"state_code":"WV","country_id":233,"country_code":"US","latitude":"38.71403000","longitude":"-81.34835000"},{"id":"125383","name":"Romney","state_id":1429,"state_code":"WV","country_id":233,"country_code":"US","latitude":"39.34204000","longitude":"-78.75668000"},{"id":"125387","name":"Ronceverte","state_id":1429,"state_code":"WV","country_id":233,"country_code":"US","latitude":"37.74984000","longitude":"-80.46285000"},{"id":"125594","name":"Saint Albans","state_id":1429,"state_code":"WV","country_id":233,"country_code":"US","latitude":"38.38565000","longitude":"-81.83624000"},{"id":"125693","name":"Saint Marys","state_id":1429,"state_code":"WV","country_id":233,"country_code":"US","latitude":"39.39174000","longitude":"-81.20511000"},{"id":"125733","name":"Salem","state_id":1429,"state_code":"WV","country_id":233,"country_code":"US","latitude":"39.28287000","longitude":"-80.55899000"},{"id":"126208","name":"Shady Spring","state_id":1429,"state_code":"WV","country_id":233,"country_code":"US","latitude":"37.70567000","longitude":"-81.09843000"},{"id":"126222","name":"Shannondale","state_id":1429,"state_code":"WV","country_id":233,"country_code":"US","latitude":"39.21705000","longitude":"-77.80749000"},{"id":"126311","name":"Shepherdstown","state_id":1429,"state_code":"WV","country_id":233,"country_code":"US","latitude":"39.43010000","longitude":"-77.80416000"},{"id":"126355","name":"Shinnston","state_id":1429,"state_code":"WV","country_id":233,"country_code":"US","latitude":"39.39564000","longitude":"-80.30009000"},{"id":"126467","name":"Sissonville","state_id":1429,"state_code":"WV","country_id":233,"country_code":"US","latitude":"38.52815000","longitude":"-81.63096000"},{"id":"126469","name":"Sistersville","state_id":1429,"state_code":"WV","country_id":233,"country_code":"US","latitude":"39.56424000","longitude":"-80.99594000"},{"id":"126603","name":"Sophia","state_id":1429,"state_code":"WV","country_id":233,"country_code":"US","latitude":"37.70761000","longitude":"-81.25066000"},{"id":"126636","name":"South Charleston","state_id":1429,"state_code":"WV","country_id":233,"country_code":"US","latitude":"38.36843000","longitude":"-81.69957000"},{"id":"126824","name":"Spencer","state_id":1429,"state_code":"WV","country_id":233,"country_code":"US","latitude":"38.80203000","longitude":"-81.35095000"},{"id":"126947","name":"Stanaford","state_id":1429,"state_code":"WV","country_id":233,"country_code":"US","latitude":"37.81595000","longitude":"-81.15232000"},{"id":"126980","name":"Star City","state_id":1429,"state_code":"WV","country_id":233,"country_code":"US","latitude":"39.65841000","longitude":"-79.98645000"},{"id":"127094","name":"Stonewood","state_id":1429,"state_code":"WV","country_id":233,"country_code":"US","latitude":"39.25092000","longitude":"-80.31231000"},{"id":"127206","name":"Summers County","state_id":1429,"state_code":"WV","country_id":233,"country_code":"US","latitude":"37.65587000","longitude":"-80.85857000"},{"id":"127208","name":"Summersville","state_id":1429,"state_code":"WV","country_id":233,"country_code":"US","latitude":"38.28122000","longitude":"-80.85260000"},{"id":"127311","name":"Sutton","state_id":1429,"state_code":"WV","country_id":233,"country_code":"US","latitude":"38.66454000","longitude":"-80.70982000"},{"id":"127455","name":"Taylor County","state_id":1429,"state_code":"WV","country_id":233,"country_code":"US","latitude":"39.33599000","longitude":"-80.04618000"},{"id":"127477","name":"Teays Valley","state_id":1429,"state_code":"WV","country_id":233,"country_code":"US","latitude":"38.45009000","longitude":"-81.92930000"},{"id":"127514","name":"Terra Alta","state_id":1429,"state_code":"WV","country_id":233,"country_code":"US","latitude":"39.44565000","longitude":"-79.54644000"},{"id":"127739","name":"Tornado","state_id":1429,"state_code":"WV","country_id":233,"country_code":"US","latitude":"38.34287000","longitude":"-81.84430000"},{"id":"127871","name":"Tucker County","state_id":1429,"state_code":"WV","country_id":233,"country_code":"US","latitude":"39.11360000","longitude":"-79.56497000"},{"id":"127943","name":"Tyler County","state_id":1429,"state_code":"WV","country_id":233,"country_code":"US","latitude":"39.46528000","longitude":"-80.88483000"},{"id":"127976","name":"Union","state_id":1429,"state_code":"WV","country_id":233,"country_code":"US","latitude":"37.59151000","longitude":"-80.54368000"},{"id":"128053","name":"Upshur County","state_id":1429,"state_code":"WV","country_id":233,"country_code":"US","latitude":"38.89783000","longitude":"-80.23342000"},{"id":"128233","name":"Vienna","state_id":1429,"state_code":"WV","country_id":233,"country_code":"US","latitude":"39.32702000","longitude":"-81.54846000"},{"id":"128544","name":"Washington","state_id":1429,"state_code":"WV","country_id":233,"country_code":"US","latitude":"39.26119000","longitude":"-81.67180000"},{"id":"128681","name":"Wayne","state_id":1429,"state_code":"WV","country_id":233,"country_code":"US","latitude":"38.22147000","longitude":"-82.44237000"},{"id":"128697","name":"Wayne County","state_id":1429,"state_code":"WV","country_id":233,"country_code":"US","latitude":"38.14595000","longitude":"-82.42695000"},{"id":"128740","name":"Webster County","state_id":1429,"state_code":"WV","country_id":233,"country_code":"US","latitude":"38.49474000","longitude":"-80.42187000"},{"id":"128745","name":"Webster Springs","state_id":1429,"state_code":"WV","country_id":233,"country_code":"US","latitude":"38.47927000","longitude":"-80.41342000"},{"id":"128759","name":"Weirton","state_id":1429,"state_code":"WV","country_id":233,"country_code":"US","latitude":"40.41896000","longitude":"-80.58952000"},{"id":"128760","name":"Weirton Heights","state_id":1429,"state_code":"WV","country_id":233,"country_code":"US","latitude":"40.40840000","longitude":"-80.53924000"},{"id":"128765","name":"Welch","state_id":1429,"state_code":"WV","country_id":233,"country_code":"US","latitude":"37.43289000","longitude":"-81.58455000"},{"id":"128789","name":"Wellsburg","state_id":1429,"state_code":"WV","country_id":233,"country_code":"US","latitude":"40.27201000","longitude":"-80.60952000"},{"id":"128918","name":"West Liberty","state_id":1429,"state_code":"WV","country_id":233,"country_code":"US","latitude":"40.16979000","longitude":"-80.59369000"},{"id":"128994","name":"West Union","state_id":1429,"state_code":"WV","country_id":233,"country_code":"US","latitude":"39.29647000","longitude":"-80.77705000"},{"id":"129060","name":"Weston","state_id":1429,"state_code":"WV","country_id":233,"country_code":"US","latitude":"39.03843000","longitude":"-80.46731000"},{"id":"129068","name":"Westover","state_id":1429,"state_code":"WV","country_id":233,"country_code":"US","latitude":"39.63453000","longitude":"-79.96979000"},{"id":"129093","name":"Wetzel County","state_id":1429,"state_code":"WV","country_id":233,"country_code":"US","latitude":"39.60526000","longitude":"-80.63910000"},{"id":"129121","name":"Wheeling","state_id":1429,"state_code":"WV","country_id":233,"country_code":"US","latitude":"40.06396000","longitude":"-80.72091000"},{"id":"129162","name":"White Sulphur Springs","state_id":1429,"state_code":"WV","country_id":233,"country_code":"US","latitude":"37.79651000","longitude":"-80.29757000"},{"id":"129243","name":"Wiley Ford","state_id":1429,"state_code":"WV","country_id":233,"country_code":"US","latitude":"39.61453000","longitude":"-78.77502000"},{"id":"129273","name":"Williamson","state_id":1429,"state_code":"WV","country_id":233,"country_code":"US","latitude":"37.67427000","longitude":"-82.27736000"},{"id":"129287","name":"Williamstown","state_id":1429,"state_code":"WV","country_id":233,"country_code":"US","latitude":"39.40063000","longitude":"-81.44818000"},{"id":"129396","name":"Winfield","state_id":1429,"state_code":"WV","country_id":233,"country_code":"US","latitude":"38.53314000","longitude":"-81.89347000"},{"id":"129455","name":"Wirt County","state_id":1429,"state_code":"WV","country_id":233,"country_code":"US","latitude":"39.02242000","longitude":"-81.37862000"},{"id":"129485","name":"Wood County","state_id":1429,"state_code":"WV","country_id":233,"country_code":"US","latitude":"39.21113000","longitude":"-81.51497000"},{"id":"129639","name":"Wyoming County","state_id":1429,"state_code":"WV","country_id":233,"country_code":"US","latitude":"37.60961000","longitude":"-81.54918000"}]