[{"id":"104599","name":"Zehra","state_id":4353,"state_code":"KI","country_id":200,"country_code":"SK","latitude":"48.97960000","longitude":"20.79170000"},{"id":"104588","name":"Cierna nad Tisou","state_id":4353,"state_code":"KI","country_id":200,"country_code":"SK","latitude":"48.41704000","longitude":"22.08865000"},{"id":"104382","name":"Dobsin\u00e1","state_id":4353,"state_code":"KI","country_id":200,"country_code":"SK","latitude":"48.82073000","longitude":"20.36988000"},{"id":"104392","name":"Gelnica","state_id":4353,"state_code":"KI","country_id":200,"country_code":"SK","latitude":"48.85584000","longitude":"20.93713000"},{"id":"104404","name":"Kavecany","state_id":4353,"state_code":"KI","country_id":200,"country_code":"SK","latitude":"48.77592000","longitude":"21.20587000"},{"id":"104409","name":"Kosice","state_id":4353,"state_code":"KI","country_id":200,"country_code":"SK","latitude":"48.71395000","longitude":"21.25808000"},{"id":"104410","name":"Kosice I","state_id":4353,"state_code":"KI","country_id":200,"country_code":"SK","latitude":"48.72914000","longitude":"21.25004000"},{"id":"104411","name":"Kosice II","state_id":4353,"state_code":"KI","country_id":200,"country_code":"SK","latitude":"48.69753000","longitude":"21.22273000"},{"id":"104412","name":"Kosice III","state_id":4353,"state_code":"KI","country_id":200,"country_code":"SK","latitude":"48.73242000","longitude":"21.29047000"},{"id":"104413","name":"Kosice IV","state_id":4353,"state_code":"KI","country_id":200,"country_code":"SK","latitude":"48.68691000","longitude":"21.26570000"},{"id":"104416","name":"Krompachy","state_id":4353,"state_code":"KI","country_id":200,"country_code":"SK","latitude":"48.91447000","longitude":"20.87514000"},{"id":"104431","name":"Medzev","state_id":4353,"state_code":"KI","country_id":200,"country_code":"SK","latitude":"48.70041000","longitude":"20.89367000"},{"id":"104433","name":"Michalovce","state_id":4353,"state_code":"KI","country_id":200,"country_code":"SK","latitude":"48.75434000","longitude":"21.91950000"},{"id":"104435","name":"Moldava nad Bodvou","state_id":4353,"state_code":"KI","country_id":200,"country_code":"SK","latitude":"48.61428000","longitude":"20.99957000"},{"id":"104462","name":"Okres Gelnica","state_id":4353,"state_code":"KI","country_id":200,"country_code":"SK","latitude":"48.85207000","longitude":"20.93385000"},{"id":"104468","name":"Okres Kosice-okolie","state_id":4353,"state_code":"KI","country_id":200,"country_code":"SK","latitude":"48.77897000","longitude":"21.41373000"},{"id":"104478","name":"Okres Michalovce","state_id":4353,"state_code":"KI","country_id":200,"country_code":"SK","latitude":"48.75000000","longitude":"21.93333000"},{"id":"104494","name":"Okres Roznava","state_id":4353,"state_code":"KI","country_id":200,"country_code":"SK","latitude":"48.66667000","longitude":"20.53333000"},{"id":"104501","name":"Okres Sobrance","state_id":4353,"state_code":"KI","country_id":200,"country_code":"SK","latitude":"48.74247000","longitude":"22.18197000"},{"id":"104502","name":"Okres Spissk\u00e1 Nov\u00e1 Ves","state_id":4353,"state_code":"KI","country_id":200,"country_code":"SK","latitude":"48.95000000","longitude":"20.56667000"},{"id":"104507","name":"Okres Trebisov","state_id":4353,"state_code":"KI","country_id":200,"country_code":"SK","latitude":"48.63333000","longitude":"21.71667000"},{"id":"104537","name":"Roznava","state_id":4353,"state_code":"KI","country_id":200,"country_code":"SK","latitude":"48.66009000","longitude":"20.53758000"},{"id":"104542","name":"Secovce","state_id":4353,"state_code":"KI","country_id":200,"country_code":"SK","latitude":"48.70074000","longitude":"21.66104000"},{"id":"104547","name":"Sobrance","state_id":4353,"state_code":"KI","country_id":200,"country_code":"SK","latitude":"48.74455000","longitude":"22.18136000"},{"id":"104549","name":"Spissk\u00e1 Nov\u00e1 Ves","state_id":4353,"state_code":"KI","country_id":200,"country_code":"SK","latitude":"48.94464000","longitude":"20.56153000"},{"id":"104554","name":"Str\u00e1zske","state_id":4353,"state_code":"KI","country_id":200,"country_code":"SK","latitude":"48.87350000","longitude":"21.83668000"},{"id":"104565","name":"Trebisov","state_id":4353,"state_code":"KI","country_id":200,"country_code":"SK","latitude":"48.62858000","longitude":"21.71954000"},{"id":"104575","name":"Vinn\u00e9","state_id":4353,"state_code":"KI","country_id":200,"country_code":"SK","latitude":"48.80965000","longitude":"21.96757000"}]