[{"id":"104374","name":"Bratislava","state_id":4356,"state_code":"BL","country_id":200,"country_code":"SK","latitude":"48.14816000","longitude":"17.10674000"},{"id":"104375","name":"Bratislava - Vajnory","state_id":4356,"state_code":"BL","country_id":200,"country_code":"SK","latitude":"48.20563000","longitude":"17.20759000"},{"id":"104386","name":"Dunajsk\u00e1 Luzn\u00e1","state_id":4356,"state_code":"BL","country_id":200,"country_code":"SK","latitude":"48.08347000","longitude":"17.26072000"},{"id":"104403","name":"Ivanka pri Dunaji","state_id":4356,"state_code":"BL","country_id":200,"country_code":"SK","latitude":"48.18675000","longitude":"17.25540000"},{"id":"104428","name":"Malacky","state_id":4356,"state_code":"BL","country_id":200,"country_code":"SK","latitude":"48.43604000","longitude":"17.02188000"},{"id":"104429","name":"Marianka","state_id":4356,"state_code":"BL","country_id":200,"country_code":"SK","latitude":"48.24903000","longitude":"17.06400000"},{"id":"104434","name":"Modra","state_id":4356,"state_code":"BL","country_id":200,"country_code":"SK","latitude":"48.33397000","longitude":"17.30711000"},{"id":"104450","name":"Okres Bratislava I","state_id":4356,"state_code":"BL","country_id":200,"country_code":"SK","latitude":"48.14653000","longitude":"17.10584000"},{"id":"104451","name":"Okres Bratislava II","state_id":4356,"state_code":"BL","country_id":200,"country_code":"SK","latitude":"48.15280000","longitude":"17.17764000"},{"id":"104452","name":"Okres Bratislava III","state_id":4356,"state_code":"BL","country_id":200,"country_code":"SK","latitude":"48.18543000","longitude":"17.13790000"},{"id":"104453","name":"Okres Bratislava IV","state_id":4356,"state_code":"BL","country_id":200,"country_code":"SK","latitude":"48.22787000","longitude":"16.99722000"},{"id":"104454","name":"Okres Bratislava V","state_id":4356,"state_code":"BL","country_id":200,"country_code":"SK","latitude":"48.11122000","longitude":"17.09444000"},{"id":"104475","name":"Okres Malacky","state_id":4356,"state_code":"BL","country_id":200,"country_code":"SK","latitude":"48.43458000","longitude":"17.02166000"},{"id":"104485","name":"Okres Pezinok","state_id":4356,"state_code":"BL","country_id":200,"country_code":"SK","latitude":"48.28785000","longitude":"17.26799000"},{"id":"104497","name":"Okres Senec","state_id":4356,"state_code":"BL","country_id":200,"country_code":"SK","latitude":"48.22187000","longitude":"17.40328000"},{"id":"104524","name":"Pezinok","state_id":4356,"state_code":"BL","country_id":200,"country_code":"SK","latitude":"48.28986000","longitude":"17.26664000"},{"id":"104540","name":"Senec","state_id":4356,"state_code":"BL","country_id":200,"country_code":"SK","latitude":"48.21951000","longitude":"17.40043000"},{"id":"104555","name":"Stupava","state_id":4356,"state_code":"BL","country_id":200,"country_code":"SK","latitude":"48.27474000","longitude":"17.03173000"},{"id":"104560","name":"Sv\u00e4t\u00fd Jur","state_id":4356,"state_code":"BL","country_id":200,"country_code":"SK","latitude":"48.25216000","longitude":"17.21539000"},{"id":"104576","name":"Vinosady","state_id":4356,"state_code":"BL","country_id":200,"country_code":"SK","latitude":"48.31142000","longitude":"17.29042000"}]