[{"id":"104586","name":"Cachtice","state_id":4358,"state_code":"TC","country_id":200,"country_code":"SK","latitude":"48.71226000","longitude":"17.78704000"},{"id":"104379","name":"B\u00e1novce nad Bebravou","state_id":4358,"state_code":"TC","country_id":200,"country_code":"SK","latitude":"48.72130000","longitude":"18.25754000"},{"id":"104373","name":"Bojnice","state_id":4358,"state_code":"TC","country_id":200,"country_code":"SK","latitude":"48.78511000","longitude":"18.58640000"},{"id":"104377","name":"Brezov\u00e1 pod Bradlom","state_id":4358,"state_code":"TC","country_id":200,"country_code":"SK","latitude":"48.66349000","longitude":"17.53905000"},{"id":"104384","name":"Dubnica nad V\u00e1hom","state_id":4358,"state_code":"TC","country_id":200,"country_code":"SK","latitude":"48.95981000","longitude":"18.16634000"},{"id":"104394","name":"Handlov\u00e1","state_id":4358,"state_code":"TC","country_id":200,"country_code":"SK","latitude":"48.72760000","longitude":"18.76012000"},{"id":"104402","name":"Ilava","state_id":4358,"state_code":"TC","country_id":200,"country_code":"SK","latitude":"48.99769000","longitude":"18.23530000"},{"id":"104419","name":"Lehota pod Vt\u00e1cnikom","state_id":4358,"state_code":"TC","country_id":200,"country_code":"SK","latitude":"48.69138000","longitude":"18.59944000"},{"id":"104436","name":"Myjava","state_id":4358,"state_code":"TC","country_id":200,"country_code":"SK","latitude":"48.75876000","longitude":"17.56866000"},{"id":"104437","name":"Nemsov\u00e1","state_id":4358,"state_code":"TC","country_id":200,"country_code":"SK","latitude":"48.96702000","longitude":"18.11892000"},{"id":"104441","name":"Nov\u00e1 Dubnica","state_id":4358,"state_code":"TC","country_id":200,"country_code":"SK","latitude":"48.93479000","longitude":"18.14632000"},{"id":"104443","name":"Nov\u00e1ky","state_id":4358,"state_code":"TC","country_id":200,"country_code":"SK","latitude":"48.71106000","longitude":"18.53389000"},{"id":"104444","name":"Nov\u00e9 Mesto nad V\u00e1hom","state_id":4358,"state_code":"TC","country_id":200,"country_code":"SK","latitude":"48.75763000","longitude":"17.83090000"},{"id":"104457","name":"Okres B\u00e1novce nad Bebravou","state_id":4358,"state_code":"TC","country_id":200,"country_code":"SK","latitude":"48.71908000","longitude":"18.25773000"},{"id":"104465","name":"Okres Ilava","state_id":4358,"state_code":"TC","country_id":200,"country_code":"SK","latitude":"48.99641000","longitude":"18.23374000"},{"id":"104479","name":"Okres Myjava","state_id":4358,"state_code":"TC","country_id":200,"country_code":"SK","latitude":"48.75000000","longitude":"17.58333000"},{"id":"104482","name":"Okres Nov\u00e9 Mesto nad V\u00e1hom","state_id":4358,"state_code":"TC","country_id":200,"country_code":"SK","latitude":"48.75466000","longitude":"17.83506000"},{"id":"104484","name":"Okres Partiz\u00e1nske","state_id":4358,"state_code":"TC","country_id":200,"country_code":"SK","latitude":"48.62613000","longitude":"18.37957000"},{"id":"104492","name":"Okres P\u00fachov","state_id":4358,"state_code":"TC","country_id":200,"country_code":"SK","latitude":"49.12406000","longitude":"18.32477000"},{"id":"104489","name":"Okres Povazsk\u00e1 Bystrica","state_id":4358,"state_code":"TC","country_id":200,"country_code":"SK","latitude":"49.11667000","longitude":"18.45000000"},{"id":"104491","name":"Okres Prievidza","state_id":4358,"state_code":"TC","country_id":200,"country_code":"SK","latitude":"48.76667000","longitude":"18.63333000"},{"id":"104508","name":"Okres Trenc\u00edn","state_id":4358,"state_code":"TC","country_id":200,"country_code":"SK","latitude":"48.89520000","longitude":"18.04264000"},{"id":"104523","name":"Partiz\u00e1nske","state_id":4358,"state_code":"TC","country_id":200,"country_code":"SK","latitude":"48.62861000","longitude":"18.38455000"},{"id":"104533","name":"P\u00fachov","state_id":4358,"state_code":"TC","country_id":200,"country_code":"SK","latitude":"49.12494000","longitude":"18.32597000"},{"id":"104529","name":"Povazsk\u00e1 Bystrica","state_id":4358,"state_code":"TC","country_id":200,"country_code":"SK","latitude":"49.12153000","longitude":"18.42169000"},{"id":"104532","name":"Prievidza","state_id":4358,"state_code":"TC","country_id":200,"country_code":"SK","latitude":"48.77446000","longitude":"18.62750000"},{"id":"104551","name":"Star\u00e1 Tur\u00e1","state_id":4358,"state_code":"TC","country_id":200,"country_code":"SK","latitude":"48.77721000","longitude":"17.69433000"},{"id":"104567","name":"Trenc\u00edn","state_id":4358,"state_code":"TC","country_id":200,"country_code":"SK","latitude":"48.89452000","longitude":"18.04436000"},{"id":"104566","name":"Trencianske Teplice","state_id":4358,"state_code":"TC","country_id":200,"country_code":"SK","latitude":"48.91063000","longitude":"18.16691000"}]