[{"id":"105082","name":"Bhunya","state_id":968,"state_code":"MA","country_id":212,"country_code":"SZ","latitude":"-26.55000000","longitude":"31.01667000"},{"id":"105086","name":"Ekukhanyeni","state_id":968,"state_code":"MA","country_id":212,"country_code":"SZ","latitude":"-26.38750000","longitude":"31.52806000"},{"id":"105091","name":"Kwaluseni","state_id":968,"state_code":"MA","country_id":212,"country_code":"SZ","latitude":"-26.48333000","longitude":"31.33333000"},{"id":"105095","name":"Malkerns","state_id":968,"state_code":"MA","country_id":212,"country_code":"SZ","latitude":"-26.56667000","longitude":"31.18333000"},{"id":"105096","name":"Manzini","state_id":968,"state_code":"MA","country_id":212,"country_code":"SZ","latitude":"-26.49884000","longitude":"31.38004000"},{"id":"105097","name":"Manzini South","state_id":968,"state_code":"MA","country_id":212,"country_code":"SZ","latitude":"-26.48333000","longitude":"31.36667000"},{"id":"105100","name":"Mhlambanyatsi","state_id":968,"state_code":"MA","country_id":212,"country_code":"SZ","latitude":"-26.45000000","longitude":"31.01667000"},{"id":"105103","name":"Ngwempisi","state_id":968,"state_code":"MA","country_id":212,"country_code":"SZ","latitude":"-26.69990000","longitude":"31.28876000"},{"id":"105108","name":"Ntondozi","state_id":968,"state_code":"MA","country_id":212,"country_code":"SZ","latitude":"-26.63500000","longitude":"31.22556000"},{"id":"105110","name":"Sidvokodvo","state_id":968,"state_code":"MA","country_id":212,"country_code":"SZ","latitude":"-26.62820000","longitude":"31.42021000"}]