[{"id":"105084","name":"Bulembu","state_id":969,"state_code":"HH","country_id":212,"country_code":"SZ","latitude":"-25.96667000","longitude":"31.13333000"},{"id":"105087","name":"Hhukwini","state_id":969,"state_code":"HH","country_id":212,"country_code":"SZ","latitude":"-26.31972000","longitude":"31.22222000"},{"id":"105093","name":"Lobamba","state_id":969,"state_code":"HH","country_id":212,"country_code":"SZ","latitude":"-26.46667000","longitude":"31.20000000"},{"id":"105099","name":"Mbabane","state_id":969,"state_code":"HH","country_id":212,"country_code":"SZ","latitude":"-26.31667000","longitude":"31.13333000"},{"id":"105105","name":"Nkhaba","state_id":969,"state_code":"HH","country_id":212,"country_code":"SZ","latitude":"-26.15728000","longitude":"31.16391000"},{"id":"105109","name":"Piggs Peak","state_id":969,"state_code":"HH","country_id":212,"country_code":"SZ","latitude":"-25.96082000","longitude":"31.24666000"}]