[{"id":"105083","name":"Big Bend","state_id":970,"state_code":"LU","country_id":212,"country_code":"SZ","latitude":"-26.81667000","longitude":"31.93333000"},{"id":"105085","name":"Dvokodvweni Inkhundla","state_id":970,"state_code":"LU","country_id":212,"country_code":"SZ","latitude":"-26.45398000","longitude":"31.76456000"},{"id":"105094","name":"Lomashasha","state_id":970,"state_code":"LU","country_id":212,"country_code":"SZ","latitude":"-26.06644000","longitude":"32.00768000"},{"id":"105101","name":"Mhlume","state_id":970,"state_code":"LU","country_id":212,"country_code":"SZ","latitude":"-26.03333000","longitude":"31.85000000"},{"id":"105107","name":"Nsoko","state_id":970,"state_code":"LU","country_id":212,"country_code":"SZ","latitude":"-27.03333000","longitude":"31.95000000"},{"id":"105112","name":"Siteki","state_id":970,"state_code":"LU","country_id":212,"country_code":"SZ","latitude":"-26.45250000","longitude":"31.94722000"},{"id":"105113","name":"Tshaneni","state_id":970,"state_code":"LU","country_id":212,"country_code":"SZ","latitude":"-25.98333000","longitude":"31.71667000"},{"id":"105114","name":"Vuvulane","state_id":970,"state_code":"LU","country_id":212,"country_code":"SZ","latitude":"-26.07427000","longitude":"31.87672000"}]