[{"id":"105088","name":"Hlatikulu","state_id":971,"state_code":"SH","country_id":212,"country_code":"SZ","latitude":"-26.97917000","longitude":"31.32444000"},{"id":"105089","name":"Hluti","state_id":971,"state_code":"SH","country_id":212,"country_code":"SZ","latitude":"-27.21667000","longitude":"31.61667000"},{"id":"105090","name":"Kubuta","state_id":971,"state_code":"SH","country_id":212,"country_code":"SZ","latitude":"-26.88333000","longitude":"31.48333000"},{"id":"105092","name":"Lavumisa","state_id":971,"state_code":"SH","country_id":212,"country_code":"SZ","latitude":"-27.31005000","longitude":"31.89198000"},{"id":"105098","name":"Matsanjeni","state_id":971,"state_code":"SH","country_id":212,"country_code":"SZ","latitude":"-27.21585000","longitude":"31.72309000"},{"id":"105102","name":"Ngudzeni","state_id":971,"state_code":"SH","country_id":212,"country_code":"SZ","latitude":"-27.03583000","longitude":"31.55111000"},{"id":"105104","name":"Nhlangano","state_id":971,"state_code":"SH","country_id":212,"country_code":"SZ","latitude":"-27.11222000","longitude":"31.19833000"},{"id":"105106","name":"Nkwene","state_id":971,"state_code":"SH","country_id":212,"country_code":"SZ","latitude":"-26.89778000","longitude":"31.24972000"},{"id":"105111","name":"Sigwe Inkhundla","state_id":971,"state_code":"SH","country_id":212,"country_code":"SZ","latitude":"-27.05821000","longitude":"31.64543000"},{"id":"105115","name":"Zombodze Ikhundla","state_id":971,"state_code":"SH","country_id":212,"country_code":"SZ","latitude":"-27.22746000","longitude":"31.33799000"}]